     3.03           OBSERVATION DATA    M (MIXED)           RINEX VERSION / TYPE
RTCM2RINEX 1.2.19   NRCan               20210103 00:16:50UTCPGM / RUN BY / DATE
gfzrnx-1.11-7352    FILE MERGE          20210104 001221 UTC COMMENT
   918129.4000 -4346071.2000  4561977.8000                  APPROX POSITION XYZ
This data is subject to the Open Government Licence- Canada COMMENT
https://open.canada.ca/en/open-government-licence-canada    COMMENT
DBHZ                                                        SIGNAL STRENGTH UNIT
    18                  GPS                                 LEAP SECONDS
     1     1                                                WAVELENGTH FACT L1/2
E L1C  0.00000                                              SYS / PHASE SHIFT
E L5Q  0.00000                                              SYS / PHASE SHIFT
E L6C  0.00000                                              SYS / PHASE SHIFT
E L7Q  0.00000                                              SYS / PHASE SHIFT
E L8Q  0.00000                                              SYS / PHASE SHIFT
G L1C                                                       SYS / PHASE SHIFT
G L1W  0.00000                                              SYS / PHASE SHIFT
G L2L  0.00000                                              SYS / PHASE SHIFT
G L2W                                                       SYS / PHASE SHIFT
G L5Q  0.00000                                              SYS / PHASE SHIFT
R L1C                                                       SYS / PHASE SHIFT
R L1P  0.00000                                              SYS / PHASE SHIFT
R L2C                                                       SYS / PHASE SHIFT
R L2P  0.00000                                              SYS / PHASE SHIFT
3015995             SEPT POLARX5        5.3.2               REC # / TYPE / VERS
ALGO CACS-GSD 883160 Algonquin Park ON Canada               MARKER NAME
        0.1000        0.0000        0.0000                  ANTENNA: DELTA H/E/N
40104M002                                                   MARKER NUMBER
ACSOPS              NRCan                                   OBSERVER / AGENCY
 24 R01  1 R02 -4 R03  5 R04  6 R05  1 R06 -4 R07  5 R08  6 GLONASS SLOT / FRQ #
    R09 -2 R10 -7 R11  0 R12 -1 R13 -2 R14 -7 R15  0 R16 -1 GLONASS SLOT / FRQ #
    R17  4 R18 -3 R19  3 R20  2 R21  4 R22 -3 R23  3 R24  2 GLONASS SLOT / FRQ #
 C1C    0.000 C1P    0.000 C2C    0.000 C2P    0.000        GLONASS COD/PHS/BIS
303                 AOAD/M_T        NONE                    ANT # / TYPE
E   20 C1C C5Q C6C C7Q C8Q D1C D5Q D6C D7Q D8Q L1C L5Q L6C  SYS / # / OBS TYPES
       L7Q L8Q S1C S5Q S6C S7Q S8Q                          SYS / # / OBS TYPES
G   20 C1C C1W C2L C2W C5Q D1C D1W D2L D2W D5Q L1C L1W L2L  SYS / # / OBS TYPES
       L2W L5Q S1C S1W S2L S2W S5Q                          SYS / # / OBS TYPES
R   16 C1C C1P C2C C2P D1C D1P D2C D2P L1C L1P L2C L2P S1C  SYS / # / OBS TYPES
       S1P S2C S2P                                          SYS / # / OBS TYPES
    81                                                      # OF SATELLITES
   E01   644   645   643   645   645   644   645   643   645PRN / # OF OBS
         645   644   645   643   645   645   644   645   643PRN / # OF OBS
         645   645                                          PRN / # OF OBS
   E02  1302  1313  1313  1311  1311  1302  1313  1313  1311PRN / # OF OBS
        1311  1302  1313  1313  1311  1311  1302  1313  1313PRN / # OF OBS
        1311  1311                                          PRN / # OF OBS
   E03   873   879   880   882   880   873   879   880   882PRN / # OF OBS
         880   873   879   880   882   880   873   879   880PRN / # OF OBS
         882   880                                          PRN / # OF OBS
   E04   860   872   863   873   865   860   872   863   873PRN / # OF OBS
         865   860   872   863   873   865   860   872   863PRN / # OF OBS
         873   865                                          PRN / # OF OBS
   E05   739   745   743   745   744   739   745   743   745PRN / # OF OBS
         744   739   745   743   745   744   739   745   743PRN / # OF OBS
         745   744                                          PRN / # OF OBS
   E07  1056  1057  1057  1056  1056  1056  1057  1057  1056PRN / # OF OBS
        1056  1056  1057  1057  1056  1056  1056  1057  1057PRN / # OF OBS
        1056  1056                                          PRN / # OF OBS
   E08  1171  1177  1175  1176  1175  1171  1177  1175  1176PRN / # OF OBS
        1175  1171  1177  1175  1176  1175  1171  1177  1175PRN / # OF OBS
        1176  1175                                          PRN / # OF OBS
   E09   826   835   845   842   842   826   835   845   842PRN / # OF OBS
         842   826   835   845   842   842   826   835   845PRN / # OF OBS
         842   842                                          PRN / # OF OBS
   E11   625   625   625   625   625   625   625   625   625PRN / # OF OBS
         625   625   625   625   625   625   625   625   625PRN / # OF OBS
         625   625                                          PRN / # OF OBS
   E12   582   606   598   605   595   582   606   598   605PRN / # OF OBS
         595   582   606   598   605   595   582   606   598PRN / # OF OBS
         605   595                                          PRN / # OF OBS
   E13  1292  1294  1295  1293  1293  1292  1294  1295  1293PRN / # OF OBS
        1293  1292  1294  1295  1293  1293  1292  1294  1295PRN / # OF OBS
        1293  1293                                          PRN / # OF OBS
   E14   660   660   660   660   660   660   660   660   660PRN / # OF OBS
         660   660   660   660   660   660   660   660   660PRN / # OF OBS
         660   660                                          PRN / # OF OBS
   E15  1258  1272  1269  1268  1273  1258  1272  1269  1268PRN / # OF OBS
        1273  1258  1272  1269  1268  1273  1258  1272  1269PRN / # OF OBS
        1268  1273                                          PRN / # OF OBS
   E18   671   673   673   679   688   671   673   673   679PRN / # OF OBS
         688   671   673   673   679   688   671   673   673PRN / # OF OBS
         679   688                                          PRN / # OF OBS
   E19   853   854   852   854   855   853   854   852   854PRN / # OF OBS
         855   853   854   852   854   855   853   854   852PRN / # OF OBS
         854   855                                          PRN / # OF OBS
   E20   846                           846                  PRN / # OF OBS
               846                           846            PRN / # OF OBS
                                                            PRN / # OF OBS
   E21  1218  1224  1221  1223  1217  1218  1224  1221  1223PRN / # OF OBS
        1217  1218  1224  1221  1223  1217  1218  1224  1221PRN / # OF OBS
        1223  1217                                          PRN / # OF OBS
   E24   300   300   300   300   300   300   300   300   300PRN / # OF OBS
         300   300   300   300   300   300   300   300   300PRN / # OF OBS
         300   300                                          PRN / # OF OBS
   E25   842   869   861   875   869   842   869   861   875PRN / # OF OBS
         869   842   869   861   875   869   842   869   861PRN / # OF OBS
         875   869                                          PRN / # OF OBS
   E26   994   996   995   995   995   994   996   995   995PRN / # OF OBS
         995   994   996   995   995   995   994   996   995PRN / # OF OBS
         995   995                                          PRN / # OF OBS
   E27  1347  1350  1343  1353  1363  1347  1350  1343  1353PRN / # OF OBS
        1363  1347  1350  1343  1353  1363  1347  1350  1343PRN / # OF OBS
        1353  1363                                          PRN / # OF OBS
   E30  1422  1425  1425  1424  1422  1422  1425  1425  1424PRN / # OF OBS
        1422  1422  1425  1425  1424  1422  1422  1425  1425PRN / # OF OBS
        1424  1422                                          PRN / # OF OBS
   E31   313   316   315   316   313   313   316   315   316PRN / # OF OBS
         313   313   316   315   316   313   313   316   315PRN / # OF OBS
         316   313                                          PRN / # OF OBS
   E33   623   641   638   642   654   623   641   638   642PRN / # OF OBS
         654   623   641   638   642   654   623   641   638PRN / # OF OBS
         642   654                                          PRN / # OF OBS
   E36   973   974   973   974   973   973   974   973   974PRN / # OF OBS
         973   973   974   973   974   973   973   974   973PRN / # OF OBS
         974   973                                          PRN / # OF OBS
   G01   892   892   892   892   892   892   892   892   892PRN / # OF OBS
         892   892   892   892   892   892   892   892   892PRN / # OF OBS
         892   892                                          PRN / # OF OBS
   G02   857   857         857         857   857         857PRN / # OF OBS
               857   857         857         857   857      PRN / # OF OBS
         857                                                PRN / # OF OBS
   G03   995   995   991   995   995   995   995   991   995PRN / # OF OBS
         995   995   995   991   995   995   995   995   991PRN / # OF OBS
         995   995                                          PRN / # OF OBS
   G04   931   930   931   930   931   931   930   931   930PRN / # OF OBS
         931   931   930   931   930   931   931   930   931PRN / # OF OBS
         930   931                                          PRN / # OF OBS
   G05   778   778   777   778         778   778   777   778PRN / # OF OBS
               778   778   777   778         778   778   777PRN / # OF OBS
         778                                                PRN / # OF OBS
   G06   740   740   740   740   740   740   740   740   740PRN / # OF OBS
         740   740   740   740   740   740   740   740   740PRN / # OF OBS
         740   740                                          PRN / # OF OBS
   G07   847   846   836   846         847   846   836   846PRN / # OF OBS
               846   846   836   846         847   846   836PRN / # OF OBS
         846                                                PRN / # OF OBS
   G08   800   798   798   798   800   800   798   798   798PRN / # OF OBS
         800   800   798   798   798   800   800   798   798PRN / # OF OBS
         798   800                                          PRN / # OF OBS
   G09   976   976   975   976   976   976   976   975   976PRN / # OF OBS
         976   976   976   975   976   976   976   976   975PRN / # OF OBS
         976   976                                          PRN / # OF OBS
   G10   767   766   767   766   767   767   766   767   766PRN / # OF OBS
         767   767   766   767   766   767   767   766   767PRN / # OF OBS
         766   767                                          PRN / # OF OBS
   G11   740   740         740         740   740         740PRN / # OF OBS
               740   740         740         740   740      PRN / # OF OBS
         740                                                PRN / # OF OBS
   G12   992   992   992   992         992   992   992   992PRN / # OF OBS
               992   992   992   992         992   992   992PRN / # OF OBS
         992                                                PRN / # OF OBS
   G13   870   870         870         870   870         870PRN / # OF OBS
               870   870         870         870   870      PRN / # OF OBS
         870                                                PRN / # OF OBS
   G14   797   795   797   795   797   797   795   797   795PRN / # OF OBS
         797   796   795   797   795   797   797   795   797PRN / # OF OBS
         795   797                                          PRN / # OF OBS
   G15   723   723   715   723         723   723   715   723PRN / # OF OBS
               723   723   715   723         723   723   715PRN / # OF OBS
         723                                                PRN / # OF OBS
   G16   695   695         695         695   695         695PRN / # OF OBS
               695   695         695         695   695      PRN / # OF OBS
         695                                                PRN / # OF OBS
   G17   809   809   809   809         809   809   809   809PRN / # OF OBS
               809   809   809   809         809   809   809PRN / # OF OBS
         809                                                PRN / # OF OBS
   G18   873   872   873   872   873   873   872   873   872PRN / # OF OBS
         873   873   872   873   872   873   873   872   873PRN / # OF OBS
         872   873                                          PRN / # OF OBS
   G19   727   727         727         727   727         727PRN / # OF OBS
               727   727         727         727   727      PRN / # OF OBS
         727                                                PRN / # OF OBS
   G20   786   786         786         786   786         786PRN / # OF OBS
               786   786         786         786   786      PRN / # OF OBS
         786                                                PRN / # OF OBS
   G21  1009  1009        1009        1009  1009        1009PRN / # OF OBS
              1009  1009        1009        1009  1009      PRN / # OF OBS
        1009                                                PRN / # OF OBS
   G22   947   947         947         947   947         947PRN / # OF OBS
               947   947         947         947   947      PRN / # OF OBS
         947                                                PRN / # OF OBS
   G23   771   771   770   771   771   771   771   770   771PRN / # OF OBS
         771   771   771   770   771   771   771   771   770PRN / # OF OBS
         771   771                                          PRN / # OF OBS
   G24   874   874   871   874   874   874   874   871   874PRN / # OF OBS
         874   874   874   871   874   874   874   874   871PRN / # OF OBS
         874   874                                          PRN / # OF OBS
   G25   938   938   932   938   938   938   938   932   938PRN / # OF OBS
         938   938   938   932   938   938   938   938   932PRN / # OF OBS
         938   938                                          PRN / # OF OBS
   G26   834   832   826   832   833   834   832   826   832PRN / # OF OBS
         833   834   832   826   832   833   834   832   826PRN / # OF OBS
         832   833                                          PRN / # OF OBS
   G27   919   919   919   919   919   919   919   919   919PRN / # OF OBS
         919   919   919   919   919   919   919   919   919PRN / # OF OBS
         919   919                                          PRN / # OF OBS
   G28   789   789         789         789   789         789PRN / # OF OBS
               789   789         789         789   789      PRN / # OF OBS
         789                                                PRN / # OF OBS
   G29   999   999   998   999         999   999   998   999PRN / # OF OBS
               999   999   998   999         999   999   998PRN / # OF OBS
         999                                                PRN / # OF OBS
   G30   893   893   891   893   893   893   893   891   893PRN / # OF OBS
         893   893   893   891   893   893   893   893   891PRN / # OF OBS
         893   893                                          PRN / # OF OBS
   G31   793   793   793   793         793   793   793   793PRN / # OF OBS
               793   793   793   793         793   793   793PRN / # OF OBS
         793                                                PRN / # OF OBS
   G32   836   836   836   836   836   836   836   836   836PRN / # OF OBS
         836   836   836   836   836   836   836   836   836PRN / # OF OBS
         836   836                                          PRN / # OF OBS
   R01  1011  1008   997   990  1011  1008   997   990  1010PRN / # OF OBS
        1007   997   990  1011  1008   997   990            PRN / # OF OBS
   R02  1086  1087  1080  1082  1086  1087  1080  1082  1086PRN / # OF OBS
        1086  1079  1079  1086  1087  1080  1082            PRN / # OF OBS
   R03  1000  1002   991   986  1000  1002   991   986   992PRN / # OF OBS
         990   990   980  1000  1002   991   986            PRN / # OF OBS
   R04   800   791   791   783   800   791   791   783   797PRN / # OF OBS
         786   787   778   800   791   791   783            PRN / # OF OBS
   R05   834   835   829   832   834   835   829   832   829PRN / # OF OBS
         827   827   825   834   835   829   832            PRN / # OF OBS
   R06   945   946               945   946               945PRN / # OF OBS
         945               945   946                        PRN / # OF OBS
   R07   995   997   996   987   995   997   996   987   993PRN / # OF OBS
         994   995   986   995   997   996   987            PRN / # OF OBS
   R08  1012  1002  1016  1014  1012  1002  1016  1014  1012PRN / # OF OBS
        1002  1016  1013  1012  1002  1016  1014            PRN / # OF OBS
   R09   837   836   838   835   837   836   838   835   834PRN / # OF OBS
         832   838   834   837   836   838   835            PRN / # OF OBS
   R10  1023  1019              1023  1019              1022PRN / # OF OBS
        1014              1023  1019                        PRN / # OF OBS
   R11  1050  1047  1050  1046  1050  1047  1050  1046  1044PRN / # OF OBS
        1037  1044  1038  1050  1047  1050  1046            PRN / # OF OBS
   R12  1143  1143  1136  1133  1143  1143  1136  1133  1139PRN / # OF OBS
        1139  1135  1132  1143  1143  1136  1133            PRN / # OF OBS
   R13   921   919   923   928   921   919   923   928   921PRN / # OF OBS
         914   920   918   921   919   923   928            PRN / # OF OBS
   R14   929   930   935   934   929   930   935   934   929PRN / # OF OBS
         929   934   933   929   930   935   934            PRN / # OF OBS
   R15   925   927   921   920   925   927   921   920   924PRN / # OF OBS
         924   921   920   925   927   921   920            PRN / # OF OBS
   R16   865   859   856   855   865   859   856   855   865PRN / # OF OBS
         859   855   853   865   859   856   855            PRN / # OF OBS
   R17   819   812   817   813   819   812   817   813   816PRN / # OF OBS
         811   813   807   819   812   817   813            PRN / # OF OBS
   R18   893   893   888   885   893   893   888   885   887PRN / # OF OBS
         885   888   884   893   893   888   885            PRN / # OF OBS
   R19   888   887   905   896   888   887   905   896   888PRN / # OF OBS
         887   902   893   888   887   905   896            PRN / # OF OBS
   R20  1133  1124  1151  1137  1133  1124  1151  1137  1133PRN / # OF OBS
        1122  1151  1137  1133  1124  1151  1137            PRN / # OF OBS
   R21  1158  1157  1158  1157  1158  1157  1158  1157  1158PRN / # OF OBS
        1157  1158  1157  1158  1157  1158  1157            PRN / # OF OBS
   R22  1137  1134   846   766  1137  1134   846   766  1129PRN / # OF OBS
        1125   846   750  1137  1134   846   766            PRN / # OF OBS
   R23   901   901               901   901               901PRN / # OF OBS
         898               901   901                        PRN / # OF OBS
   R24   769   759   736   733   769   759   736   733   761PRN / # OF OBS
         749   733   724   769   759   736   733            PRN / # OF OBS
    30.000                                                  INTERVAL
  2021     1     3     0     0    0.0000000     GPS         TIME OF FIRST OBS
  2021     1     3    23    59   30.0000000     GPS         TIME OF LAST OBS
                                                            END OF HEADER
> 2021 01 03 00 00 00.0000000  0 25
E02  26912244.304    26912249.723    26912252.112    26912243.161    26912245.478       -2358.518       -1761.422       -1914.510       -1807.229       -1784.328   141424817.047   105609462.649   114792913.610   108364467.687   106986972.747          43.310          45.060          39.870          45.250          48.120
E03  26927700.212    26927707.001    26927706.473    26927700.487    26927702.724        2176.506        1625.336        1766.699        1667.682        1646.519   141506011.416   105670132.651   114858843.920   108426723.042   107048439.924          43.000          44.680          42.680          44.870          47.680
E08  25391557.664    25391562.360    25391567.310    25391557.604    25391558.826          38.158          28.494          30.985          29.203          28.842   133433563.869    99641961.653   108306491.489   102241279.743   100941635.775          40.180          38.680          42.810          42.810          44.060
E11  22926394.337    22926397.301    22926398.200    22926391.173    22926393.217       -2358.790       -1761.407       -1914.636       -1807.343       -1784.361   120479050.172    89968144.758    97791460.169    92315109.817    91141641.366          45.500          45.620          45.250          46.680          49.060
E12  23196134.374    23196137.388    23196137.988    23196131.412    23196133.269         485.033         362.209         393.665         371.650         366.944   121896544.095    91026686.594    98942045.808    93401271.167    92213990.958          45.120          46.620          45.560          47.750          50.120
E24  24665661.766    24665666.596    24665668.447    24665660.257    24665662.561        1485.565        1109.285        1205.824        1138.277        1123.781   129618979.577    96793443.133   105210265.048    99318466.628    98055963.959          48.870          50.180          49.370          51.430          53.810
E25  23770759.243    23770765.816    23770765.070    23770759.375    23770761.590        -888.856        -663.752        -721.469        -681.079        -672.414   124916207.802    93281622.436   101393066.217    95715027.182    94498340.387          49.310          51.930          51.310          53.250          55.560
E33  28254331.208    28254337.920    28254337.121    28254331.010    28254332.567        2634.426        1967.131        2138.215        2018.510        1992.854   148477556.855   110876143.760   120517547.177   113768534.366   112322350.144          29.680          32.870          28.060          34.250          36.430
G01  23177598.207    23177597.927    23177601.784    23177601.847    23177604.314       -3724.244       -3724.244       -2901.954       -2902.012       -2781.034   121799118.023   121799118.023    94908413.885    94908419.859    90953912.401          41.680          28.560          40.120          28.560          44.430
G07  20345935.235    20345934.815    20345933.442    20345932.896                         148.308         148.308         115.561         115.564                   106918645.260   106918645.260    83313246.020    83313248.011                          50.120          46.680          48.930          46.680
G08  20514815.407    20514814.764    20514817.598    20514816.676    20514819.336        1354.919        1354.919        1055.745        1055.783        1011.788   107806153.048   107806153.048    84004841.805    84004813.801    80504632.994          50.060          56.120          49.060          56.120          53.620
G11  21044182.608    21044181.929                    21044180.412                       -1901.212       -1901.212                       -1481.465                   110587983.458   110587983.458                    86172458.104                          49.680          41.680                          41.680
G13  24342330.527    24342330.147                    24342328.930                       -2134.615       -2134.615                       -1663.319                   127919811.615   127919811.615                    99677760.000                          39.620          18.620                          18.620
G14  22818732.843    22818732.593    22818732.623    22818732.311    22818739.916       -2700.491       -2700.491       -2104.341       -2104.274       -2016.684   119913269.900   119913269.900    93438904.912    93438918.903    89545667.265          44.250          33.000          43.310          33.000          47.560
G21  22046578.711    22046577.595                    22046576.448                       -1831.049       -1831.049                       -1426.786                   115855572.696   115855572.696                    90277084.613                          47.810          36.930                          36.930
G27  22867492.234    22867491.604    22867493.204    22867492.440    22867496.056        3304.396        3304.396        2574.897        2574.855        2467.673   120169547.221   120169547.221    93638654.763    93638651.753    89737051.038          44.810          46.060          43.250          46.060          47.250
G28  23416268.454    23416267.606                    23416266.183                       -2439.401       -2439.401                       -1900.827                   123053327.612   123053327.612                    95885714.573                          42.060          26.560                          26.560
G30  21243918.920    21243918.197    21243919.805    21243919.166    21243922.917       -1834.766       -1834.766       -1429.674       -1429.691       -1370.120   111637572.780   111637572.780    86990337.327    86990326.317    83365749.470          50.180          43.750          47.560          43.750          52.750
R02  22995200.170    22995199.929    22995200.932    22995201.384         699.518         699.502         544.084         544.014   122706780.304   122706804.310    95438636.207    95438634.212          48.370          47.750          39.500          39.430
R09  23750949.050    23750950.114    23750952.680    23750952.407        3567.183        3567.243        2774.509        2774.477   126828777.095   126828775.099    98644630.102    98644629.107          44.430          44.120          39.680          39.370
R10  20075641.423    20075640.855                                        1715.942        1715.994                                   107014505.960   107014509.965                                          52.000          52.120
R11  19934048.012    19934047.954    19934049.811    19934049.887       -2010.112       -2010.111       -1563.392       -1563.367   106521542.159   106521536.152    82850130.102    82850112.113          52.930          53.060          50.930          50.680
R12  23818102.159    23818103.353    23818108.566    23818108.553       -3687.101       -3686.796       -2867.618       -2867.726   127232045.320   127232051.330    98958285.062    98958273.066          39.750          40.430          39.500          38.750
R20  20064299.004    20064298.986    20064304.981    20064304.350        1493.292        1493.418        1161.494        1161.459   107292869.025   107292866.038    83450052.754    83450053.758          42.680          41.750          49.810          50.870
R21  20466073.931    20466073.882    20466078.731    20466078.923       -3169.779       -3169.746       -2465.367       -2465.359   109518545.169   109518128.168    85181050.925    85180810.925          53.060          52.870          49.750          49.310
> 2021 01 03 00 00 30.0000000  0 25
E02  26898780.821    26898787.094    26898787.801    26898780.053    26898782.295       -2357.970       -1760.729       -1913.895       -1806.696       -1783.724   141354068.510   105556630.989   114735487.858   108310257.784   106933451.964          43.060          45.180          39.500          44.870          47.930
E03  26940147.890    26940154.786    26940154.701    26940148.237    26940150.550        2184.539        1631.210        1773.140        1673.747        1652.492   141571425.156   105718980.544   114911939.463   108476845.246   107097924.974          43.560          44.930          42.560          45.120          48.000
E08  25391817.059    25391820.743    25391825.305    25391814.905    25391817.147          52.394          39.059          42.448          40.180          39.631   133434921.683    99642975.598   108307593.622   102242320.132   100942662.942          41.930          38.430          41.750          42.120          43.430
E11  22912957.460    22912960.746    22912961.873    22912954.564    22912956.810       -2348.499       -1753.696       -1906.214       -1799.432       -1776.561   120408441.504    89915417.540    97734147.962    92261007.108    91088226.402          45.620          45.500          45.250          46.750          49.060
E12  23198945.594    23198948.317    23198949.020    23198942.618    23198944.568         499.842         373.254         405.735         383.001         378.137   121911317.500    91037718.685    98954037.207    93412591.051    92225166.946          45.310          46.500          45.370          47.750          50.120
E24  24674158.403    24674163.447    24674165.411    24674156.926    24674159.328        1491.110        1113.563        1210.414        1142.585        1128.073   129663630.417    96826786.291   105246507.610    99352679.605    98089742.026          49.060          50.310          49.250          51.370          53.750
E25  23765701.417    23765707.781    23765707.271    23765701.522    23765703.679        -883.128        -659.500        -716.796        -676.679        -668.093   124889628.354    93261774.151   101371491.993    95694661.114    94478233.210          49.810          51.930          51.250          53.310          55.560
E33  28269388.771    28269394.902    28269396.906    28269388.814    28269390.885        2641.868        1972.463        2143.785        2023.704        1998.036   148556690.179   110935236.830   120581778.754   113829168.947   112382213.968          28.120          32.370          31.180          33.620          36.000
G01  23156354.110    23156353.865    23156356.337    23156356.869    23156360.119       -3718.629       -3718.629       -2897.531       -2897.632       -2776.859   121687475.339   121687475.339    94821419.605    94821425.591    90870542.900          41.680          28.310          39.310          28.310          45.870
G07  20346833.790    20346833.370    20346831.965    20346831.563                         166.547         166.547         129.770         129.777                   106923367.564   106923367.564    83316925.742    83316927.729                          49.870          46.750          48.680          46.750
G08  20522593.785    20522593.137    20522595.860    20522595.059    20522597.804        1370.120        1370.120        1067.605        1067.628        1023.131   107847028.960   107847028.960    84036693.166    84036665.164    80535157.217          49.750          56.060          48.810          56.060          53.680
G11  21033377.893    21033377.205                    21033375.474                       -1884.125       -1884.125                       -1468.150                   110531202.922   110531202.922                    86128213.543                          49.810          41.930                          41.930
G13  24330189.669    24330189.321                    24330187.840                       -2118.783       -2118.783                       -1650.990                   127856011.187   127856011.187                    99628045.370                          40.250          20.310                          20.310
G14  22803328.971    22803328.730    22803327.821    22803327.374    22803335.802       -2696.114       -2696.114       -2100.843       -2100.870       -2013.312   119832319.757   119832319.757    93375826.877    93375840.873    89485217.502          45.000          33.000          42.810          33.000          47.930
G21  22036168.698    22036167.581                    22036166.605                       -1815.965       -1815.965                       -1415.033                   115800867.938   115800867.938                    90234457.562                          48.120          37.310                          37.310
G27  22886375.109    22886374.479    22886375.775    22886375.221    22886379.150        3310.856        3310.856        2579.889        2579.887        2472.361   120268777.036   120268777.036    93715976.703    93715973.695    89811151.222          44.680          46.370          42.810          46.370          47.560
G28  23402351.558    23402350.722                    23402349.429                       -2436.031       -2436.031                       -1898.210                   122980196.053   122980196.053                    95828728.943                          42.060          26.180                          26.180
G30  21233486.088    21233485.364    21233487.398    21233486.835    21233490.613       -1820.098       -1820.098       -1418.289       -1418.258       -1359.150   111582750.349   111582750.349    86947618.553    86947607.547    83324810.652          49.930          43.930          47.430          43.930          52.810
R02  22999200.859    22999200.891    22999204.009    22999203.678         723.976         724.023         563.118         563.058   122728133.893   122728157.904    95455244.544    95455242.545          48.060          47.120          39.810          39.370
R09  23771005.403    23771006.678    23771008.443    23771008.917        3572.584        3572.603        2778.698        2778.839   126935875.622   126935873.629    98727928.969    98727927.987          44.930          44.250          40.120          39.810
R10  20085340.824    20085340.690                                        1731.012        1730.987                                   107066210.918   107066214.921                                          51.680          52.120
R11  19922797.267    19922797.200    19922798.735    19922798.739       -1998.012       -1997.995       -1553.997       -1554.010   106461420.012   106461414.017    82803368.444    82803350.448          53.430          53.120          50.870          50.810
R12  23797395.461    23797394.911    23797399.060    23797398.381       -3688.288       -3688.057       -2868.614       -2868.550   127121417.441   127121423.437    98872241.173    98872229.166          44.180          42.560          39.250          38.500
R20  20072747.911    20072747.956    20072754.085    20072753.611        1518.880        1518.919        1181.276        1181.305   107338050.766   107338047.774    83485194.110    83485195.119          42.870          41.680          50.060          50.930
R21  20448357.479    20448357.546    20448361.783    20448362.055       -3150.338       -3150.345       -2450.243       -2450.280   109423742.313   109423325.309    85107315.418    85107075.418          53.250          52.750          48.750          49.250
> 2021 01 03 00 01 00.0000000  0 26
E02  26885321.684    26885327.457    26885329.018    26885320.608    26885322.886       -2357.289       -1760.344       -1913.426       -1806.177       -1783.279   141283338.845   105503813.394   114678077.403   108256062.339   106879945.444          42.870          44.500          40.810          44.500          47.430
E03  26952640.696    26952648.124    26952647.163    26952641.217    26952643.571        2192.363        1637.164        1779.398        1679.809        1658.488   141637075.970   105768005.492   114965227.445   108527149.104   107147589.377          43.370          45.250          42.060          45.430          48.250
E08  25392156.401    25392160.551    25392165.617    25392155.594    25392156.811          66.785          49.648          54.106          51.100          50.401   133436708.129    99644309.650   108309043.652   102243688.961   100944014.382          41.180          38.500          42.000          42.930          44.000
E11  22899579.644    22899582.380    22899583.583    22899576.355    22899578.627       -2338.362       -1746.218       -1898.052       -1791.802       -1769.007   120338138.602    89862918.632    97677083.927    92207138.656    91035042.721          45.370          45.370          45.370          46.930          49.120
E12  23201841.211    23201844.297    23201844.860    23201838.539    23201840.432         514.593         384.374         417.780         394.420         389.395   121926535.421    91049082.737    98966389.423    93424251.560    92236679.226          44.680          46.500          45.500          48.000          50.180
E24  24682687.102    24682692.240    24682693.913    24682685.696    24682688.116        1496.786        1117.731        1214.921        1146.869        1132.300   129708449.326    96860254.947   105282886.584    99387021.357    98123647.230          48.430          50.180          49.310          51.560          53.870
E25  23760676.221    23760682.495    23760682.182    23760676.340    23760678.483        -877.383        -655.218        -712.179        -672.253        -663.728   124863220.759    93242054.189   101350057.250    95674426.720    94458256.033          49.370          51.810          51.500          53.560          55.680
E33  28284489.709    28284492.343    28284495.599    28284486.233    28284488.393        2647.906        1977.255        2149.202        2029.294        2003.185   148636029.286   110994483.651   120646177.435   113889961.334   112442233.565          30.500          31.810          33.000          32.810          35.250
E36                  28026898.327                    28026892.092                                       -2462.422                       -2526.759                                   109983567.714                   112852681.262                                          34.680                          36.620
G01  23135141.403    23135141.104    23135143.411    23135143.030    23135146.451       -3712.994       -3712.994       -2893.176       -2893.253       -2772.663   121576001.268   121576001.268    94734556.696    94734562.690    90787299.320          42.370          28.060          39.370          28.060          45.310
G07  20347836.430    20347836.011    20347834.744    20347834.364                         184.755         184.755         143.983         143.965                   106928637.099   106928637.099    83321031.861    83321033.852                          49.930          46.560          48.750          46.560
G08  20530459.459    20530458.811    20530460.867    20530460.102    20530463.044        1385.337        1385.337        1079.474        1079.483        1034.470   107888360.472   107888360.472    84068899.545    84068871.540    80566021.662          50.430          56.000          48.680          56.000          53.680
G11  21022670.472    21022669.788                    21022668.089                       -1866.999       -1866.999                       -1454.804                   110474935.231   110474935.231                    86084368.602                          50.180          41.870                          41.870
G13  24318140.833    24318140.476                    24318137.873                       -2102.659       -2102.659                       -1638.435                   127792691.816   127792691.816                    99578705.603                          42.680          23.310                          23.310
G14  22787950.493    22787950.239    22787949.862    22787949.437    22787956.931       -2691.526       -2691.526       -2097.255       -2097.294       -2009.911   119751505.578   119751505.578    93312854.797    93312868.791    89424869.264          44.870          33.370          42.870          33.370          47.750
G21  22025845.265    22025844.147                    22025842.970                       -1800.713       -1800.713                       -1403.158                   115746617.776   115746617.776                    90192184.715                          48.060          37.430                          37.430
G27  22905294.016    22905293.383    22905294.826    22905294.499    22905297.687        3317.113        3317.113        2584.756        2584.763        2477.069   120368196.562   120368196.562    93793446.434    93793443.431    89885393.064          44.500          46.000          43.310          46.000          47.060
G28  23388454.023    23388453.187                    23388452.167                       -2432.551       -2432.551                       -1895.494                   122907166.713   122907166.713                    95771822.966                          42.120          26.430                          26.430
G30  21223138.079    21223137.350    21223139.017    21223138.615    21223142.388       -1805.225       -1805.225       -1406.707       -1406.668       -1348.074   111528369.874   111528369.874    86905244.162    86905233.152    83284201.860          50.180          44.060          47.250          44.060          52.870
R02  23003339.096    23003338.907    23003342.693    23003342.156         748.472         748.426         582.087         582.137   122750220.314   122750244.321    95472422.863    95472420.880          46.810          46.120          39.750          39.060
R09  23791092.844    23791092.800    23791094.909    23791096.023        3578.141        3578.219        2783.049        2782.979   127043137.026   127043135.043    98811354.559    98811353.554          43.560          42.810          40.180          39.680
R10  20095125.401    20095124.989                                        1746.147        1746.132                                   107118368.257   107118372.263                                          51.750          52.000
R11  19911613.363    19911613.810    19911615.466    19911615.627       -1985.876       -1985.890       -1544.591       -1544.593   106401660.842   106401654.843    82756889.093    82756871.100          53.060          53.120          50.680          50.680
R12  23776678.925    23776678.733    23776681.076    23776681.644       -3689.380       -3689.458       -2869.649       -2869.532   127010751.198   127010757.191    98786167.405    98786155.419          45.250          44.060          39.370          39.000
R20  20081340.559    20081339.857    20081346.102    20081345.503        1544.150        1544.203        1201.113        1201.037   107383996.044   107383993.043    83520929.333    83520930.335          43.000          41.680          50.000          50.810
R21  20430750.483    20430750.792    20430755.631    20430755.475       -3130.770       -3130.759       -2434.955       -2435.008   109329524.782   109329107.783    85034035.172    85033795.166          52.930          52.870          49.680          49.370
> 2021 01 03 00 01 30.0000000  0 26
E02  26871865.637    26871871.486    26871873.436    26871865.098    26871867.009       -2356.694       -1759.854       -1912.964       -1805.802       -1782.811   141212628.373   105451010.149   114620682.548   108201881.596   106826453.452          42.180          44.180          41.810          43.680          46.750
E03  26965178.755    26965185.476    26965184.796    26965178.972    26965181.325        2200.160        1642.891        1785.864        1685.823        1664.354   141702961.978   105817206.070   115018706.353   108577633.188   107197431.706          43.120          45.000          41.680          45.250          48.120
E08  25392577.905    25392583.079    25392586.777    25392576.427    25392578.575          80.909          60.472          65.799          61.964          61.224   133438922.986    99645963.588   108310841.419   102245386.063   100945689.905          40.500          40.250          42.370          42.120          44.120
E11  22886259.682    22886262.955    22886263.858    22886256.634    22886258.907       -2328.012       -1738.459       -1889.528       -1783.779       -1761.111   120268143.087    89810649.270    97620269.404    92153505.751    90982091.589          44.680          45.810          45.370          46.680          49.180
E12  23204821.668    23204824.821    23204825.425    23204818.911    23204820.791         529.472         395.427         429.815         405.682         400.553   121942197.305    91060778.297    98979101.990    93436252.214    92248527.332          44.310          46.620          45.620          47.680          50.120
E24  24691248.050    24691252.920    24691254.816    24691246.573    24691248.895        1502.388        1121.904        1219.464        1151.223        1136.570   129753436.349    96893849.147   105319402.019    99421491.933    98157679.619          48.310          50.180          49.310          51.310          53.750
E25  23755683.860    23755690.183    23755689.611    23755683.956    23755686.104        -871.647        -650.882        -707.471        -667.856        -659.369   124836985.558    93222462.972   101328762.450    95654324.430    94438409.279          49.000          52.000          51.430          53.310          55.620
E33  28299624.738    28299629.962    28299631.702    28299622.451    28299625.019        2654.465        1982.832        2154.730        2034.369        2008.616   148715572.543   111053882.840   120710741.765   113950910.065   112502407.532          28.120          31.250          33.180          32.370          34.680
E36  28008060.410    28008069.237    28008066.747    28008062.827    28008065.279       -3298.495       -2463.502       -2677.689       -2527.590       -2495.498   147183351.462   109909678.283   119467041.721   112776864.309   111343282.377          32.120          35.810          31.370          36.680          39.250
G01  23113961.559    23113961.245    23113963.324    23113963.458    23113966.736       -3707.113       -3707.113       -2888.712       -2888.665       -2768.306   121464699.124   121464699.124    94647827.817    94647833.818    90704184.160          42.620          29.000          39.620          29.000          45.310
G07  20348943.399    20348942.983    20348941.654    20348941.319                         203.031         203.031         158.225         158.209                   106934454.439   106934454.439    83325564.848    83325566.840                          49.810          46.500          48.620          46.500
G08  20538410.674    20538410.022    20538412.118    20538411.412    20538414.429        1400.352        1400.352        1091.142        1091.182        1045.717   107930145.385   107930145.385    84101459.210    84101431.214    80597224.682          50.120          56.000          48.620          56.000          53.810
G11  21012061.007    21012060.319                    21012058.587                       -1849.837       -1849.837                       -1441.429                   110419182.281   110419182.281                    86040924.758                          49.930          41.870                          41.870
G13  24306183.080    24306182.736                    24306181.514                       -2086.411       -2086.411                       -1625.774                   127729855.616   127729855.616                    99529742.331                          41.680          24.620                          24.620
G14  22772598.375    22772598.121    22772597.248    22772596.814    22772605.019       -2687.066       -2687.066       -2093.712       -2093.814       -2006.488   119670828.057   119670828.057    93249989.202    93250003.192    89364623.086          44.870          33.620          43.180          33.620          48.180
G21  22015609.210    22015608.097                    22015606.594                       -1785.467       -1785.467                       -1391.265                   115692824.268   115692824.268                    90150267.729                          48.430          37.500                          37.500
G27  22924248.648    22924247.996    22924249.372    22924248.460    22924252.438        3323.341        3323.341        2589.517        2589.616        2481.586   120467803.377   120467803.377    93871062.148    93871059.150    89959774.774          44.430          45.560          43.310          45.560          47.120
G28  23374576.504    23374575.640                    23374574.715                       -2429.149       -2429.149                       -1892.846                   122834240.130   122834240.130                    95714997.059                          42.180          27.180                          27.180
G30  21212874.417    21212873.689    21212875.477    21212874.823    21212878.565       -1790.445       -1790.445       -1395.193       -1395.152       -1337.026   111474433.512   111474433.512    86863215.830    86863204.824    83243924.711          50.180          44.180          47.680          44.180          53.000
R02  23007614.798    23007615.357    23007618.932    23007618.646         772.780         772.760         601.136         601.091   122773038.445   122773062.443    95490170.340    95490168.335          47.430          46.620          39.620          39.810
R09  23811208.286    23811209.109    23811212.910    23811212.878        3583.478        3583.544        2787.188        2787.281   127150560.295   127150558.301    98894905.985    98894904.992          41.310          41.310          40.620          39.680
R10  20104994.451    20104994.379                                        1761.216        1761.216                                   107170977.344   107170981.347                                          51.750          51.930
R11  19900498.175    19900498.599    19900501.127    19900501.293       -1973.682       -1973.669       -1535.098       -1535.076   106342266.977   106342260.977    82710693.867    82710675.875          52.500          52.750          51.180          50.870
R12  23755953.684    23755953.880    23755958.133    23755958.522       -3690.627       -3690.704       -2870.543       -2870.604   126900048.308   126900054.304    98700065.196    98700053.202          44.000          43.680          41.310          40.060
R20  20090074.116    20090074.326    20090080.594    20090079.739        1569.502        1569.519        1220.731        1220.728   107430701.853   107430698.862    83557256.078    83557257.080          43.060          41.870          50.000          50.810
R21  20413253.802    20413253.994    20413258.687    20413258.709       -3111.106       -3111.110       -2419.723       -2419.784   109235895.982   109235478.982    84961212.798    84960972.793          52.870          52.810          49.120          49.370
> 2021 01 03 00 02 00.0000000  0 26
E02  26858413.266    26858419.231    26858421.100    26858411.877    26858414.874       -2356.083       -1759.472       -1912.281       -1805.344       -1782.394   141141937.476   105398221.512   114563303.599   108147715.848   106772976.259          42.000          43.370          42.310          42.370          45.750
E03  26977760.733    26977767.875    26977767.254    26977761.335    26977763.407        2207.815        1648.654        1792.020        1691.668        1670.171   141769081.258   105866580.849   115072374.602   108628296.001   107247450.503          43.370          44.870          40.810          45.500          48.120
E08  25393081.110    25393086.114    25393088.976    25393079.435    25393082.160          95.297          71.190          77.286          72.839          72.016   133441566.046    99647937.276   108312986.742   102247411.296   100947689.366          41.500          41.310          41.750          42.250          44.680
E11  22872998.740    22873001.875    22873002.573    22872995.675    22872997.935       -2317.770       -1730.782       -1881.178       -1775.923       -1753.346   120198456.508    89758610.613    97563705.630    92100109.554    90929374.162          45.310          45.680          45.060          46.750          49.180
E12  23207886.299    23207889.434    23207889.979    23207883.547    23207885.520         544.124         406.338         441.704         417.026         411.682   121958302.484    91072804.902    98992174.394    93448592.570    92260710.813          44.680          46.680          45.370          47.750          50.180
E24  24699840.783    24699845.568    24699847.746    24699839.403    24699841.600        1507.906        1126.080        1223.948        1155.463        1140.763   129798591.525    96927568.921   105356053.947    99456091.351    98191839.213          48.500          50.060          49.250          51.560          53.810
E25  23750724.491    23750730.752    23750730.131    23750724.520    23750726.610        -865.839        -646.544        -702.784        -663.450        -654.996   124810923.324    93203000.924   101307608.045    95634354.669    94418693.374          49.430          52.000          51.120          53.430          55.680
E33  28314799.006    28314804.954    28314807.633    28314798.003    28314800.280        2661.531        1987.801        2160.598        2039.340        2013.370   148795318.169   111113433.056   120775470.311   114012013.787   112562734.490          25.620          31.000          33.750          32.250          34.560
E36  27989226.499    27989236.060    27989234.656    27989229.721    27989232.074       -3299.384       -2463.911       -2678.105       -2528.000       -2495.916   147084382.482   109835772.916   119386709.767   112701030.946   111268413.010          33.180          36.180          31.250          36.870          39.370
G01  23092814.736    23092814.424    23092816.968    23092817.124    23092819.873       -3701.275       -3701.275       -2884.053       -2884.113       -2763.943   121353572.296   121353572.296    94561235.537    94561241.523    90621199.885          42.180          29.370          40.750          29.370          45.310
G07  20350154.551    20350154.131    20350153.142    20350152.659                         221.335         221.335         172.496         172.469                   106940820.083   106940820.083    83330525.089    83330527.078                          49.060          46.250          48.680          46.250
G08  20546447.884    20546447.232    20546449.789    20546448.751    20546451.768        1415.376        1415.376        1102.874        1102.892        1056.959   107972381.862   107972381.862    84134370.761    84134342.754    80628764.914          49.870          55.810          48.870          55.810          53.870
G11  21001549.787    21001549.103                    21001547.381                       -1832.614       -1832.614                       -1428.009                   110363945.763   110363945.763                    85997883.337                          49.430          41.750                          41.750
G13  24294317.186    24294316.824                    24294316.376                       -2070.305       -2070.305                       -1613.224                   127667504.524   127667504.524                    99481157.062                          40.060          24.000                          24.000
G14  22757272.050    22757271.791    22757271.356    22757270.721    22757278.313       -2682.430       -2682.430       -2090.119       -2090.205       -2003.103   119590287.923   119590287.923    93187230.676    93187244.668    89304479.499          44.430          33.560          43.750          33.560          47.810
G21  22005459.253    22005458.136                    22005457.075                       -1770.260       -1770.260                       -1379.422                   115639489.177   115639489.177                    90108707.941                          47.750          37.180                          37.180
G27  22943238.489    22943237.850    22943238.721    22943238.354    22943241.707        3329.535        3329.535        2594.435        2594.442        2486.298   120567595.080   120567595.080    93948821.913    93948818.914    90034294.570          44.060          45.120          43.000          45.120          46.930
G28  23360719.102    23360718.213                    23360717.635                       -2425.778       -2425.778                       -1890.217                   122761416.518   122761416.518                    95658251.418                          42.680          28.500                          28.500
G30  21202695.443    21202694.715    21202696.458    21202695.890    21202699.708       -1775.516       -1775.516       -1383.514       -1383.520       -1325.883   111420943.299   111420943.299    86821535.157    86821524.145    83203980.729          49.930          44.060          47.500          44.060          53.000
R02  23012029.345    23012028.880    23012030.939    23012030.993         797.138         797.155         620.029         619.933   122796585.811   122796609.816    95508484.977    95508482.978          48.180          47.120          39.620          38.810
R09  23831355.566    23831356.233    23831359.617    23831360.203        3588.790        3588.729        2791.226        2791.449   127258144.234   127258142.236    98978582.373    98978581.391          42.180          41.180          40.000          39.560
R10  20114949.230    20114948.756                                        1776.234        1776.245                                   107224038.501   107224042.503                                          51.870          52.000
R11  19889452.744    19889453.052    19889455.026    19889455.008       -1961.371       -1961.401       -1525.547       -1525.521   106283240.745   106283234.741    82664784.579    82664766.584          53.120          53.000          50.870          50.870
R12  23735224.064    23735224.337    23735228.071    23735227.708       -3691.846       -3691.913       -2871.425       -2871.556   126789310.090   126789316.095    98613935.575    98613923.567          44.680          43.810          40.620          40.120
R20  20098950.269    20098950.376    20098956.527    20098955.821        1594.742        1594.564        1240.325        1240.380   107478166.167   107478163.160    83594172.767    83594173.776          43.180          41.930          50.000          50.750
R21  20395867.704    20395867.718    20395872.526    20395872.549       -3091.305       -3091.338       -2404.355       -2404.319   109142858.973   109142441.974    84888850.717    84888610.728          53.000          53.000          50.180          49.620
> 2021 01 03 00 02 30.0000000  0 26
E02  26844965.335    26844971.287    26844973.008    26844963.682    26844966.407       -2355.405       -1758.901       -1911.856       -1804.749       -1781.820   141071266.484   105345447.750   114505940.805   108093565.365   106719514.136          42.180          42.810          42.560          41.750          45.180
E03  26990387.111    26990393.671    26990392.911    26990387.310    26990389.618        2215.496        1654.421        1798.278        1697.554        1675.980   141835431.854   105916128.357   115126230.618   108679136.059   107297644.286          43.430          44.500          40.120          45.370          47.870
E08  25393665.985    25393670.407    25393673.480    25393664.078    25393666.471         109.472          81.781          88.924          83.811          82.806   133444637.009    99650230.538   108315479.436   102249764.382   100950012.539          42.000          41.120          42.250          42.810          44.930
E11  22859796.946    22859800.076    22859800.944    22859793.988    22859796.086       -2307.342       -1723.022       -1872.849       -1767.949       -1745.496   120129080.496    89706803.882    97507393.958    92046951.340    90876891.688          45.310          45.560          45.370          47.060          49.310
E12  23211035.189    23211038.534    23211039.263    23211032.334    23211034.472         558.950         417.301         453.708         428.304         422.803   121974850.358    91085162.076    99005606.110    93461272.105    92273229.169          44.500          46.500          45.310          47.750          50.060
E24  24708465.425    24708470.393    24708472.504    24708463.951    24708466.340        1513.521        1130.246        1228.538        1159.720        1144.988   129843914.959    96961414.338   105392842.450    99490819.690    98226126.093          48.370          49.930          49.120          51.500          53.680
E25  23745797.998    23745804.347    23745803.842    23745798.089    23745800.147        -860.023        -642.281        -698.120        -659.033        -650.658   124785034.625    93183668.451   101286594.488    95614517.873    94399108.740          49.430          51.810          51.250          53.560          55.620
E33  28330013.371    28330017.373    28330020.173    28330011.424    28330013.764        2668.427        1992.455        2165.901        2044.252        2018.365   148875264.108   111173132.953   120840361.508   114073271.048   112623213.078          24.060          31.120          32.750          33.000          34.930
E36  27970391.198    27970399.251    27970397.476    27970392.765    27970395.141       -3299.909       -2464.060       -2678.684       -2528.571       -2496.322   146985393.892   109761852.866   119306361.860   112625182.528   111193528.775          34.560          36.180          31.930          36.560          39.180
G01  23071701.984    23071701.680    23071704.336    23071704.555    23071707.201       -3695.228       -3695.228       -2879.581       -2879.398       -2759.454   121242624.112   121242624.112    94474782.449    94474788.447    90538349.028          42.810          30.180          41.120          30.180          45.430
G07  20351470.643    20351470.223    20351468.926    20351468.447                         239.625         239.625         186.750         186.719                   106947734.639   106947734.639    83335913.044    83335915.039                          49.430          46.310          48.750          46.310
G08  20554571.092    20554570.439    20554572.799    20554571.717    20554574.650        1430.299        1430.299        1114.565        1114.519        1068.110   108015068.086   108015068.086    84167632.762    84167604.754    80660640.999          50.120          55.870          49.000          55.870          53.560
G11  20991137.480    20991136.792                    20991134.842                       -1815.285       -1815.285                       -1414.507                   110309227.455   110309227.455                    85955245.721                          49.750          41.930                          41.930
G13  24282544.978    24282544.598                    24282544.678                       -2053.965       -2053.965                       -1600.489                   127605640.863   127605640.863                    99432951.609                          39.430          23.750                          23.750
G14  22741972.143    22741971.884    22741971.852    22741970.707    22741978.702       -2677.755       -2677.755       -2086.643       -2086.556       -1999.603   119509885.895   119509885.895    93124579.754    93124593.752    89244439.038          44.310          33.370          44.370          33.370          47.680
G21  21995397.552    21995396.439                    21995395.227                       -1754.777       -1754.777                       -1367.354                   115586614.014   115586614.014                    90067506.545                          48.060          37.180                          37.180
G27  22962262.967    22962262.318    22962263.525    22962262.988    22962266.502        3335.511        3335.511        2599.103        2599.097        2490.818   120667569.302   120667569.302    94026723.888    94026720.888    90108950.619          43.810          45.370          43.370          45.370          47.060
G28  23346881.380    23346880.486                    23346879.335                       -2422.355       -2422.355                       -1887.548                   122688696.024   122688696.024                    95601586.113                          42.930          28.180                          28.180
G30  21192601.922    21192601.190    21192602.915    21192602.360    21192606.214       -1760.608       -1760.608       -1371.859       -1371.903       -1314.738   111367901.311   111367901.311    86780203.738    86780192.727    83164371.456          49.930          44.120          47.560          44.120          52.870
R02  23016577.428    23016577.133    23016581.414    23016582.085         821.272         821.240         638.883         638.763   122820861.644   122820885.653    95527366.207    95527364.192          46.680          45.930          41.180          41.250
R09  23851531.970    23851533.508    23851536.370    23851536.830        3594.168        3594.139        2795.347        2795.416   127365887.469   127365885.502    99062382.662    99062381.676          42.060          42.120          40.500          40.180
R10  20124987.925    20124987.491                                        1791.277        1791.245                                   107277551.704   107277555.707                                          51.930          51.810
R11  19878475.675    19878475.930    19878478.203    19878478.306       -1948.999       -1948.990       -1515.879       -1515.896   106224584.679   106224578.678    82619163.201    82619145.202          52.680          52.810          51.000          50.930
R12  23714486.490    23714486.459    23714491.082    23714491.212       -3692.981       -3692.890       -2872.266       -2872.275   126678538.051   126678544.059    98527779.592    98527767.575          42.180          41.500          39.560          39.000
R20  20107967.631    20107967.497    20107973.756    20107973.174        1619.918        1619.916        1259.935        1259.907   107526385.605   107526382.619    83631676.792    83631677.792          42.810          42.000          50.060          50.750
R21  20378592.664    20378592.784    20378597.432    20378597.495       -3071.499       -3071.473       -2388.944       -2388.935   109050416.976   109049999.975    84816951.419    84816711.417          52.870          52.560          49.430          49.310
> 2021 01 03 00 03 00.0000000  0 26
E02  26831520.870    26831526.070    26831528.565    26831519.320    26831521.839       -2354.711       -1758.373       -1911.148       -1804.212       -1781.297   141000615.825   105292689.148   114448594.502   108039430.431   106666067.367          41.500          41.620          43.000          41.680          44.560
E03  27003056.703    27003063.419    27003063.330    27003057.102    27003059.443        2223.129        1660.069        1804.484        1703.516        1681.795   141902011.827   105965847.146   115180272.801   108730151.882   107348011.592          43.180          44.060          40.180          45.250          47.560
E08  25394330.964    25394336.160    25394340.543    25394330.461    25394331.978         123.853          92.323         100.448          94.874          93.598   133448135.649    99652843.188   108318319.241   102252445.171   100952659.256          41.500          40.870          42.750          43.560          45.250
E11  22846654.507    22846657.669    22846658.778    22846651.518    22846653.652       -2296.861       -1715.181       -1864.282       -1759.852       -1737.513   120060016.560    89655230.190    97451335.585    91994032.252    90824645.299          45.810          45.620          45.560          46.930          49.250
E12  23214268.168    23214271.606    23214271.986    23214265.415    23214267.554         573.745         428.409         465.641         439.574         433.998   121991840.287    91097849.372    99019396.640    93474290.365    92286081.947          44.870          46.430          45.250          47.680          50.060
E24  24717122.236    24717127.271    24717129.221    24717120.758    24717123.156        1519.213        1134.492        1233.071        1164.062        1149.273   129889406.670    96995385.416   105429767.531    99525676.973    98260540.272          48.750          49.930          49.120          51.370          53.560
E25  23740904.750    23740910.863    23740910.523    23740904.743    23740906.806        -854.240        -637.904        -693.372        -654.554        -646.235   124759320.008    93164465.986   101265722.243    95594814.473    94379655.806          49.930          51.750          51.310          53.500          55.620
E33                  28345268.281    28345271.594    28345262.854    28345264.908                        1997.691        2171.128        2049.314        2023.370                   111232981.191   120905413.951   114134680.567   112683841.953                          30.120          32.500          32.180          34.120
E36  27951548.957    27951559.156    27951558.200    27951551.950    27951554.665       -3300.663       -2464.357       -2679.011       -2528.662       -2496.577   146886387.266   109687919.354   119225999.329   112549320.311   111118630.907          34.750          35.870          32.370          35.430          38.500
G01  23050624.526    23050624.218    23050625.984    23050626.475    23050628.862       -3689.042       -3689.042       -2874.595       -2874.581       -2754.833   121131857.985   121131857.985    94388471.224    94388477.216    90455634.098          43.310          30.430          40.810          30.430          45.560
G07  20352890.701    20352890.281    20352889.212    20352888.836                         257.973         257.973         201.037         201.016                   106955198.583   106955198.583    83341729.108    83341731.097                          49.310          46.500          48.680          46.500
G08  20562779.166    20562778.509    20562780.919    20562779.899    20562782.801        1445.237        1445.237        1126.130        1126.158        1079.234   108058202.061   108058202.061    84201243.651    84201215.648    80692851.438          49.750          56.000          49.000          56.000          53.620
G11  20980823.723    20980823.048                    20980821.303                       -1797.927       -1797.927                       -1400.983                   110255029.086   110255029.086                    85913013.247                          49.680          42.120                          42.120
G13  24270865.968    24270865.562                    24270864.974                       -2037.620       -2037.620                       -1587.753                   127544267.023   127544267.023                    99385127.854                          39.310          23.500                          23.500
G14  22726698.310    22726698.038    22726697.491    22726697.326    22726704.470       -2673.100       -2673.100       -2082.978       -2082.937       -1996.155   119429622.658   119429622.658    93062037.013    93062050.998    89184502.224          44.250          34.000          44.060          34.000          47.250
G21  21985423.661    21985422.548                    21985421.371                       -1739.405       -1739.405                       -1355.380                   115534201.363   115534201.363                    90026665.546                          48.180          37.310                          37.310
G27  22981322.037    22981321.358    22981321.768    22981321.826    22981324.844        3341.456        3341.456        2603.704        2603.732        2495.205   120767723.600   120767723.600    94104766.157    94104763.162    90183741.137          44.250          45.120          42.560          45.120          46.560
G28  23333061.481    23333060.596                    23333060.211                       -2418.813       -2418.813                       -1884.792                   122616078.820   122616078.820                    95545001.289                          41.560          27.430                          27.430
G30  21182593.868    21182593.135    21182594.887    21182594.601    21182598.387       -1745.476       -1745.476       -1360.165       -1360.109       -1303.428   111315309.624   111315309.624    86739223.203    86739212.195    83125098.448          50.000          44.430          47.560          44.430          53.000
R02  23021263.876    23021263.898    23021265.304    23021265.810         845.464         845.444         657.716         657.540   122845863.812   122845887.820    95546812.349    95546810.334          48.120          46.930          39.060          38.250
R09  23871740.690    23871739.930    23871741.781    23871742.389        3599.401        3599.406        2799.588        2799.460   127473789.068   127473787.073    99146306.093    99146305.076          43.180          42.310          41.180          40.310
R10  20135110.945    20135110.994                                        1806.351        1806.326                                   107331516.434   107331520.444                                          51.430          51.620
R11  19867568.976    19867569.124    19867571.343    19867571.383       -1936.548       -1936.542       -1506.190       -1506.201   106166301.088   106166295.088    82573831.527    82573813.531          52.680          53.060          51.000          51.000
R12  23693744.927    23693745.030    23693747.498    23693746.738       -3693.973       -3693.944       -2873.122       -2873.105   126567733.631   126567739.649    98441598.338    98441586.343          45.000          43.810          37.060          36.930
R20  20117125.617    20117125.746    20117131.835    20117131.031        1644.931        1644.883        1279.375        1279.381   107575357.515   107575354.516    83669766.049    83669767.056          42.750          42.120          49.930          50.810
R21  20361429.190    20361429.378    20361434.048    20361434.245       -3051.448       -3051.436       -2373.333       -2373.272   108958573.150   108958156.153    84745517.340    84745277.345          52.930          53.000          49.180          49.310
> 2021 01 03 00 03 30.0000000  0 26
E02  26818080.478    26818085.513    26818088.272    26818079.501    26818081.416       -2353.960       -1757.840       -1910.648       -1803.641       -1780.766   140929985.825   105239945.969   114391264.984   107985311.347   106612636.234          40.810          41.370          43.250          42.750          45.000
E03  27015769.369    27015776.390    27015775.857    27015770.484    27015772.498        2230.713        1665.889        1810.688        1709.192        1687.535   141968819.281   106015735.825   115234499.650   108781341.993   107398550.987          41.680          43.560          39.680          45.250          47.370
E08  25395077.967    25395082.935    25395086.812    25395077.222    25395079.007         138.005         102.993         112.082         105.828         104.443   133452061.696    99655774.966   108321505.942   102255453.425   100955629.274          40.930          40.310          42.060          43.250          44.810
E11  22833571.711    22833574.627    22833575.731    22833568.699    22833570.896       -2286.493       -1707.453       -1855.943       -1752.019       -1729.744   119991266.226    89603890.673    97395531.754    91941353.434    90772636.131          45.310          45.500          45.370          47.060          49.180
E12  23217585.691    23217588.464    23217589.130    23217582.536    23217584.626         588.374         439.325         477.628         450.874         445.106   122009271.608    91110866.271    99033545.447    93487646.838    92299268.632          44.870          46.310          45.250          47.810          50.060
E24  24725810.947    24725816.058    24725818.080    24725809.805    24725811.970        1524.757        1138.666        1237.667        1168.352        1153.504   129935066.715    97029482.193   105466829.254    99560663.228    98295081.789          48.310          50.000          49.060          51.620          53.680
E25  23736044.463    23736050.719    23736050.218    23736044.590    23736046.729        -848.407        -633.548        -688.635        -650.082        -641.814   124733780.055    93145393.949   101244991.765    95575244.903    94360335.004          49.120          51.750          51.180          53.560          55.560
E33                  28360556.262    28360559.231    28360550.746    28360553.403                        2002.476        2176.285        2054.473        2028.421                   111292976.444   120970626.165   114196240.944   112744619.770                          29.120          30.180          32.810          34.120
E36  27932705.839    27932715.806    27932713.597    27932708.192    27932711.060       -3301.012       -2464.969       -2679.282       -2529.459       -2497.214   146787364.319   109613973.656   119145623.594   112473445.574   111043720.694          34.620          35.680          32.680          35.620          38.560
G01  23029580.444    23029580.118    23029583.605    23029583.534    23029586.136       -3682.885       -3682.885       -2869.683       -2869.768       -2750.168   121021277.189   121021277.189    94302304.437    94302310.411    90373057.598          42.430          29.930          41.250          29.930          45.680
G07  20354415.784    20354415.364    20354414.111    20354413.842                         276.382         276.382         215.296         215.364                   106963212.647   106963212.647    83347973.825    83347975.818                          49.500          46.310          48.560          46.310
G08  20571071.759    20571071.098    20571073.619    20571072.849    20571075.693        1460.070        1460.070        1137.639        1137.716        1090.271   108101781.774   108101781.774    84235201.869    84235173.867    80725394.729          49.810          55.870          48.810          55.870          53.620
G11  20970609.155    20970608.476                    20970607.026                       -1780.499       -1780.499                       -1387.400                   110201352.453   110201352.453                    85871187.319                          49.620          42.060                          42.060
G13  24259280.883    24259280.472                    24259279.376                       -2021.166       -2021.166                       -1574.934                   127483384.401   127483384.401                    99337686.852                          39.750          24.250                          24.250
G14  22711451.499    22711451.236    22711450.434    22711450.018    22711457.726       -2668.405       -2668.405       -2079.284       -2079.277       -1992.633   119349498.998   119349498.998    92999602.992    92999616.994    89124669.628          45.000          34.060          43.680          34.060          47.750
G21  21975538.366    21975537.253                    21975535.928                       -1723.830       -1723.830                       -1343.244                   115482253.040   115482253.040                    89986186.360                          47.930          37.060                          37.060
G27  23000413.012    23000412.319    23000414.666    23000413.884    23000417.818        3347.287        3347.287        2608.291        2608.275        2499.638   120868055.639   120868055.639    94182946.956    94182943.962    90258664.397          42.810          44.500          42.810          44.500          46.750
G28  23319262.658    23319261.755                    23319261.213                       -2415.425       -2415.425                       -1882.150                   122543565.648   122543565.648                    95488497.549                          41.560          26.870                          26.870
G30  21172672.142    21172671.415    21172673.403    21172672.799    21172676.443       -1730.448       -1730.448       -1348.427       -1348.401       -1292.199   111263170.288   111263170.288    86698595.151    86698584.144    83086163.233          50.120          44.310          47.750          44.310          52.930
R02  23026085.269    23026085.202    23026085.530    23026086.272         869.612         869.656         676.298         676.460   122871590.800   122871614.808    95566822.207    95566820.217          47.930          47.060          38.810          39.060
R09  23891975.475    23891975.685    23891979.164    23891979.173        3604.553        3604.604        2803.595        2803.715   127581847.593   127581845.595    99230351.566    99230350.584          43.000          42.620          41.500          41.000
R10  20145319.311    20145319.252                                        1821.342        1821.413                                   107385932.456   107385936.462                                          51.310          51.560
R11  19856732.370    19856732.482    19856734.169    19856734.415       -1924.005       -1924.042       -1496.473       -1496.495   106108392.380   106108386.373    82528791.414    82528773.417          52.870          53.060          50.560          50.870
R12  23672995.494    23672996.330    23673000.139    23672999.455       -3695.039       -3695.125       -2873.891       -2873.945   126456898.064   126456904.064    98355392.892    98355380.897          45.060          44.180          42.180          41.000
R20  20126423.037    20126423.542    20126430.105    20126429.336        1669.828        1669.726        1298.788        1298.794   107625079.068   107625076.065    83708438.376    83708439.379          42.810          42.060          50.060          50.680
R21  20344378.544    20344378.705    20344383.125    20344383.510       -3031.401       -3031.367       -2357.711       -2357.742   108867330.520   108866913.523    84674550.876    84674310.878          53.500          53.250          49.430          49.750
> 2021 01 03 00 04 00.0000000  0 26
E02  26804643.413    26804649.562    26804651.467    26804643.285    26804644.914       -2353.245       -1757.290       -1910.144       -1803.128       -1780.206   140859376.846   105187218.501   114333952.526   107931208.379   106559221.019          39.870          41.180          43.370          43.430          45.250
E03  27028525.490    27028532.685    27028532.252    27028526.177    27028528.481        2238.269        1671.350        1816.670        1715.027        1693.187   142035852.259   106065792.886   115288909.527   108832704.908   107449260.975          40.810          42.870          40.060          44.620          46.680
E08  25395906.572    25395910.914    25395914.541    25395905.599    25395907.411         152.168         113.599         123.425         116.537         115.078   133456414.828    99659025.693   108325039.334   102258788.941   100958922.393          41.000          39.180          41.120          42.930          44.250
E11  22820548.763    22820551.871    22820553.061    22820545.854    22820548.113       -2275.866       -1699.468       -1847.262       -1743.823       -1721.639   119922831.070    89552786.526    97339983.760    91888916.133    90720865.408          45.620          45.430          45.500          46.810          49.120
E12  23220986.333    23220989.468    23220990.314    23220983.500    23220985.559         603.130         450.328         489.492         462.129         456.240   122027143.674    91124212.298    99048051.988    93501341.023    92312788.739          44.750          46.250          45.500          47.680          49.930
E24  24734531.626    24734536.863    24734538.719    24734530.609    24734532.810        1530.409        1142.899        1242.197        1172.665        1157.778   129980895.146    97063704.719   105504027.645    99595778.514    98329750.694          48.430          49.750          49.060          51.430          53.560
E25  23731217.570    23731224.009    23731223.469    23731217.791    23731219.984        -842.505        -629.174        -683.887        -645.552        -637.355   124708415.333    93126452.762   101224403.517    95555809.600    94341146.760          49.430          51.560          51.310          53.370          55.430
E33                  28375882.761    28375884.184    28375877.375    28375878.915                        2007.482        2181.411        2059.306        2033.424                   111353117.383   121035996.730   114257950.710   112805545.119                          29.560          26.430          33.250          34.370
E36  27913859.873    27913869.218    27913868.556    27913862.271    27913864.853       -3301.519       -2465.712       -2679.669       -2529.707       -2497.664   146688326.653   109540016.922   119065235.856   112397559.564   110968799.323          34.930          35.930          33.930          36.560          39.120
G01  23008574.094    23008573.786    23008577.197    23008576.119    23008579.575       -3676.559       -3676.559       -2864.900       -2864.844       -2745.429   120910885.172   120910885.172    94216284.700    94216290.684    90290622.030          42.310          29.680          41.310          29.680          45.870
G07  20356045.833    20356045.404    20356043.842    20356043.713                         294.619         294.619         229.658         229.573                   106971777.519   106971777.519    83354647.753    83354649.741                          49.430          46.500          48.500          46.500
G08  20579449.505    20579448.848    20579451.441    20579450.305    20579453.094        1474.824        1474.824        1149.191        1149.214        1101.323   108145805.424   108145805.424    84269506.017    84269478.010    80758269.538          50.180          56.180          49.000          56.180          53.560
G11  20960494.287    20960493.612                    20960492.203                       -1763.069       -1763.069                       -1373.821                   110148199.123   110148199.123                    85829769.152                          49.560          42.310                          42.310
G13  24247788.612    24247788.219                    24247787.565                       -2004.760       -2004.760                       -1562.153                   127422994.949   127422994.949                    99290630.181                          38.370          23.560                          23.560
G14  22696230.266    22696230.011    22696229.416    22696229.501    22696237.736       -2663.760       -2663.760       -2075.697       -2075.656       -1989.220   119269515.616   119269515.616    92937278.306    92937292.298    89064941.801          44.250          33.810          42.870          33.810          47.870
G21  21965741.452    21965740.330                    21965739.037                       -1708.166       -1708.166                       -1331.041                   115430770.998   115430770.998                    89946070.502                          47.750          37.430                          37.430
G27  23019539.676    23019538.997    23019540.122    23019539.935    23019543.672        3353.239        3353.239        2612.905        2612.912        2503.994   120968563.096   120968563.096    94261264.453    94261261.452    90333718.659          44.000          45.310          42.500          45.310          46.750
G28  23305484.131    23305483.237                    23305482.208                       -2412.015       -2412.015                       -1879.493                   122471156.305   122471156.305                    95432074.722                          42.060          27.750                          27.750
G30  21162837.180    21162836.443    21162838.020    21162837.443    21162841.127       -1715.214       -1715.214       -1336.564       -1336.533       -1280.859   111211485.346   111211485.346    86658321.173    86658310.166    83047567.340          50.430          44.620          47.560          44.620          52.870
R02  23031041.173    23031041.571    23031043.299    23031043.911         893.695         893.676         695.135         695.204   122898041.191   122898065.194    95587394.724    95587392.722          46.750          45.870          40.310          39.870
R09  23912241.888    23912241.745    23912244.289    23912244.660        3609.580        3609.647        2807.581        2807.458   127690062.049   127690060.044    99314518.360    99314517.370          44.680          43.310          41.930          41.500
R10  20155612.686    20155612.319                                        1836.398        1836.371                                   107440799.856   107440803.857                                          52.060          51.750
R11  19845965.387    19845965.740    19845968.090    19845968.308       -1911.449       -1911.459       -1486.627       -1486.683   106050860.891   106050854.894    82484044.710    82484026.719          52.310          52.930          50.870          51.120
R12  23652242.049    23652242.165    23652244.281    23652244.773       -3695.984       -3695.982       -2874.551       -2874.743   126346033.146   126346039.144    98269164.681    98269152.674          46.120          44.680          40.680          40.750
R20  20135862.378    20135862.046    20135868.104    20135867.250        1694.755        1694.744        1318.112        1318.122   107675547.475   107675544.480    83747691.588    83747692.592          43.250          42.430          50.180          50.750
R21  20327440.628    20327440.606    20327445.352    20327445.393       -3011.212       -3011.225       -2342.023       -2341.935   108776692.348   108776275.342    84604054.550    84603814.559          52.750          53.060          49.620          49.430
> 2021 01 03 00 04 30.0000000  0 26
E02  26791210.816    26791216.360    26791219.352    26791211.171    26791212.661       -2352.510       -1756.775       -1909.481       -1802.635       -1779.704   140788789.290   105134507.036   114276657.488   107877121.833   106505822.011          40.060          40.680          43.310          44.370          45.680
E03  27041324.075    27041330.849    27041330.894    27041324.730    27041326.940        2245.527        1677.043        1822.712        1720.669        1698.846   142103108.827   106116016.932   115343500.873   108884239.130   107500140.108          39.560          41.810          40.180          43.870          45.870
E08  25396815.814    25396820.693    25396824.185    25396815.275    25396816.783         166.448         124.329         135.051         127.550         125.948   133461194.781    99662595.143   108328919.186   102262451.491   100962538.395          40.680          38.620          40.810          43.060          44.120
E11  22807586.030    22807589.616    22807590.552    22807583.403    22807585.564       -2265.333       -1691.582       -1838.749       -1735.716       -1713.651   119854712.632    89501918.889    97284692.839    91836721.517    90669334.280          45.560          45.930          45.500          47.060          49.430
E12  23224471.212    23224474.006    23224474.588    23224468.347    23224470.214         617.680         461.337         501.441         473.317         467.316   122045455.771    91137886.926    99062915.722    93515372.374    92326641.727          44.930          46.310          45.250          47.750          50.060
E24  24743284.559    24743289.947    24743291.683    24743283.430    24743285.716        1536.035        1147.072        1246.796        1176.964        1162.012   130026892.042    97098053.035   105541362.782    99631022.874    98364547.032          48.370          50.060          49.000          51.250          53.560
E25  23726424.483    23726430.743    23726430.327    23726424.525    23726426.690        -836.700        -624.810        -679.117        -641.102        -632.960   124683226.432    93107642.874   101203957.987    95536509.018    94322091.524          49.500          51.810          51.310          53.310          55.560
E33                  28391246.318    28391248.214    28391240.350    28391241.353                        2012.008        2187.283        2064.300        2038.118                   111413402.499   121101524.099   114319808.512   112866616.579                          29.870          23.750          32.560          34.180
E36  27895010.293    27895020.667    27895018.713    27895013.237    27895016.167       -3302.108       -2465.765       -2679.976       -2530.087       -2497.944   146589275.944   109466050.523   118984837.586   112321663.590   110893868.133          34.930          37.120          34.620          37.060          40.000
G01  22987603.262    22987602.954    22987606.088    22987605.555    22987609.517       -3670.124       -3670.124       -2859.803       -2859.839       -2740.637   120800685.323   120800685.323    94130414.701    94130420.691    90208329.964          42.810          29.620          40.430          29.620          46.500
G07  20357780.112    20357779.678    20357778.609    20357778.372                         313.080         313.080         243.889         243.959                   106980893.120   106980893.120    83361750.805    83361752.802                          49.560          46.310          48.750          46.310
G08  20587911.035    20587910.383    20587912.439    20587911.773    20587914.522        1489.513        1489.513        1160.692        1160.659        1112.307   108190270.783   108190270.783    84304154.356    84304126.346    80791474.197          50.370          56.120          48.870          56.120          53.680
G11  20950479.471    20950478.792                    20950477.440                       -1745.500       -1745.500                       -1360.130                   110095571.105   110095571.105                    85788760.327                          49.810          42.180                          42.180
G13  24236392.807    24236392.441                    24236389.860                       -1988.109       -1988.109                       -1549.173                   127363101.171   127363101.171                    99243959.728                          38.500          21.560                          21.560
G14  22681037.436    22681037.186    22681035.889    22681035.893    22681044.241       -2659.036       -2659.036       -2072.007       -2071.974       -1985.608   119189673.253   119189673.253    92875063.481    92875077.474    89005319.270          44.680          33.750          43.060          33.750          48.250
G21  21956033.667    21956032.541                    21956031.601                       -1692.618       -1692.618                       -1318.924                   115379756.885   115379756.885                    89906319.274                          47.810          37.370                          37.370
G27  23038698.911    23038698.227    23038699.491    23038698.848    23038702.362        3358.936        3358.936        2617.291        2617.355        2508.245   121069243.560   121069243.560    94339716.783    94339713.774    90408902.150          44.560          45.560          42.750          45.560          46.810
G28  23291725.485    23291724.600                    23291722.971                       -2408.380       -2408.380                       -1876.661                   122398850.996   122398850.996                    95375732.939                          43.180          28.560                          28.560
G30  21153088.667    21153087.934    21153089.614    21153088.881    21153092.735       -1700.052       -1700.052       -1324.677       -1324.715       -1269.494   111160256.854   111160256.854    86618402.877    86618391.858    83009312.299          50.620          44.620          47.870          44.620          53.120
R02  23036133.475    23036134.002    23036135.936    23036135.458         917.678         917.692         713.716         713.814   122925212.479   122925236.484    95608527.991    95608525.999          47.430          46.500          40.000          40.180
R09  23932534.179    23932534.961    23932538.301    23932538.014        3614.922        3614.806        2811.565        2811.585   127798431.193   127798429.180    99398805.447    99398804.466          43.680          42.120          41.620          41.000
R10  20165990.154    20165989.940                                        1851.482        1851.490                                   107496118.309   107496122.311                                          51.680          51.870
R11  19835270.241    19835270.845    19835272.983    19835273.091       -1898.666       -1898.644       -1476.759       -1476.729   105993709.059   105993703.060    82439593.286    82439575.295          52.430          53.060          51.000          51.120
R12  23631481.844    23631482.671    23631483.843    23631484.370       -3696.885       -3696.819       -2875.299       -2875.320   126235140.280   126235146.280    98182914.676    98182902.680          45.500          44.310          39.000          39.810
R20  20145438.276    20145438.214    20145444.938    20145444.155        1719.401        1719.470        1337.384        1337.340   107726759.898   107726756.909    83787523.476    83787524.478          43.060          42.060          49.930          50.680
R21  20310616.180    20310616.077    20310620.684    20310620.774       -2990.844       -2990.871       -2326.177       -2326.214   108686661.649   108686244.643    84534030.699    84533790.703          52.870          53.060          49.370          49.370
> 2021 01 03 00 05 00.0000000  0 26
E02  26777782.613    26777788.816    26777790.636    26777782.463    26777784.700       -2351.732       -1756.250       -1908.940       -1802.038       -1779.127   140718223.557   105081811.838   114219380.109   107823052.005   106452439.501          40.560          41.500          42.750          44.750          46.250
E03  27054164.437    27054171.735    27054171.217    27054165.280    27054167.557        2253.066        1682.420        1828.695        1726.310        1704.355   142170587.035   106166406.473   115398272.111   108935943.177   107551186.902          39.000          40.680          40.310          42.930          44.810
E08  25397807.593    25397810.504    25397815.374    25397805.663    25397807.176         180.711         134.843         146.570         138.457         136.663   133466401.259    99666483.132   108333145.231   102266440.858   100966477.067          42.310          37.620          40.750          42.500          43.310
E11  22794684.406    22794687.474    22794688.673    22794681.529    22794683.565       -2254.684       -1683.743       -1830.028       -1727.628       -1705.692   119786912.497    89451288.975    97229660.313    91784770.817    90618043.974          45.560          45.930          45.620          47.180          49.500
E12  23228039.267    23228042.299    23228043.529    23228036.618    23228038.492         632.398         472.264         513.266         484.492         478.362   122064207.252    91151889.663    99078136.067    93529740.392    92340827.104          44.620          46.430          45.560          47.810          50.120
E24  24752069.361    24752074.942    24752076.664    24752068.304    24752070.742        1541.685        1151.251        1251.334        1181.291        1166.258   130073057.432    97132527.182   105578834.686    99666396.351    98399470.844          48.310          50.000          49.060          51.250          53.560
E25  23721664.619    23721671.054    23721670.683    23721664.827    23721666.970        -830.817        -620.416        -674.346        -636.572        -628.488   124658213.922    93088964.707   101183655.631    95517343.597    94303169.730          49.310          51.870          51.500          53.430          55.620
E33                  28406644.712                    28406639.581    28406640.154                        2016.633                        2069.317        2043.004                   111473830.548                   114381812.981   112927832.850                          28.930                          31.000          32.870
E36  27876159.211    27876169.643    27876168.382    27876162.424    27876165.237       -3302.232       -2466.061       -2680.121       -2530.183       -2498.164   146490213.941   109392075.658   118904430.145   112245758.961   110818928.386          35.430          38.370          35.430          38.370          41.250
G01  22966670.206    22966669.893    22966672.634    22966672.889    22966675.472       -3663.704       -3663.704       -2854.706       -2854.833       -2735.688   120690680.976   120690680.976    94044697.052    94044703.039    90126183.909          42.430          29.810          40.870          29.810          46.000
G07  20359619.809    20359619.385    20359618.127    20359617.836                         331.492         331.492         258.285         258.304                   106990560.029   106990560.029    83369283.461    83369285.451                          49.560          46.120          48.560          46.120
G08  20596456.225    20596455.565    20596457.826    20596456.999    20596459.784        1504.173        1504.173        1172.069        1172.083        1123.254   108235176.469   108235176.469    84339145.801    84339117.797    80825007.675          50.310          55.810          48.750          55.810          53.620
G11  20940565.065    20940564.386                    20940562.892                       -1727.911       -1727.911                       -1346.423                   110043470.049   110043470.049                    85748162.114                          49.620          42.120                          42.120
G13  24225087.700    24225087.338                    24225087.194                       -1971.515       -1971.515                       -1536.231                   127303704.789   127303704.789                    99197676.854                          36.930          21.500                          21.500
G14  22665870.605    22665870.359    22665869.741    22665869.504    22665877.262       -2654.325       -2654.325       -2068.252       -2068.301       -1982.131   119109972.614   119109972.614    92812959.104    92812973.090    88945802.569          44.870          33.500          43.310          33.500          48.060
G21  21946415.350    21946414.224                    21946413.458                       -1677.003       -1677.003                       -1306.752                   115329212.728   115329212.728                    89866934.248                          47.680          37.120                          37.120
G27  23057890.100    23057889.438    23057890.578    23057890.126    23057893.667        3364.570        3364.570        2621.707        2621.740        2512.512   121170094.738   121170094.738    94418302.119    94418299.117    90484213.088          44.000          44.680          42.560          44.680          46.500
G28  23277985.839    23277984.968                    23277983.522                       -2404.895       -2404.895                       -1873.944                   122326649.893   122326649.893                    95319472.357                          43.430          28.370                          28.370
G30  21143427.082    21143426.349    21143428.490    21143427.708    21143431.678       -1684.679       -1684.679       -1312.689       -1312.737       -1258.046   111109486.857   111109486.857    86578841.837    86578830.826    82971399.642          50.430          44.430          48.060          44.430          53.120
R02  23041360.399    23041360.488    23041363.276    23041362.910         941.719         941.758         732.352         732.473   122953103.038   122953127.050    95630220.638    95630218.642          46.930          46.310          41.430          41.000
R09  23952859.778    23952858.405    23952861.571    23952861.306        3619.958        3619.918        2815.602        2815.656   127906953.737   127906951.741    99483211.917    99483210.910          43.560          41.870          42.680          41.430
R10  20176452.410    20176452.204                                        1866.542        1866.529                                   107551887.651   107551891.656                                          51.620          51.810
R11  19824647.056    19824647.142    19824649.177    19824649.257       -1885.900       -1885.935       -1466.886       -1466.839   105936939.203   105936933.199    82395438.948    82395420.957          52.750          53.060          51.180          51.310
R12  23610718.450    23610718.526    23610720.923    23610721.620       -3697.695       -3697.724       -2876.009       -2876.003   126124220.852   126124226.847    98096644.045    98096632.047          47.430          46.250          42.250          41.500
R20  20155154.379    20155154.062    20155160.271    20155159.650        1744.098        1743.971        1356.514        1356.549   107778713.388   107778710.382    83827931.744    83827932.752          43.000          42.120          49.680          50.500
R21  20293905.892    20293905.888    20293910.441    20293910.620       -2970.450       -2970.449       -2310.350       -2310.342   108597241.480   108596824.477    84464481.727    84464241.733          53.120          53.180          49.370          49.370
> 2021 01 03 00 05 30.0000000  0 26
E02  26764358.704    26764365.058    26764366.802    26764358.737    26764360.657       -2351.094       -1755.721       -1908.445       -1801.470       -1778.591   140647680.024   105029133.255   114162120.775   107768999.192   106399073.800          40.810          42.750          42.250          45.620          47.250
E03  27067046.551    27067054.184    27067053.742    27067047.653    27067049.882        2260.221        1687.808        1834.686        1731.807        1709.820   142238284.892   106216960.049   115453221.658   108987815.536   107602399.873          38.180          39.750          39.870          42.000          43.810
E08  25398879.043    25398883.684    25398887.204    25398878.021    25398879.122         194.921         145.469         158.072         149.253         147.369   133472033.896    99670689.298   108337717.176   102270756.771   100970738.112          42.310          39.680          41.060          42.310          44.060
E11  22781843.311    22781846.226    22781847.778    22781840.272    22781842.442       -2243.908       -1675.713       -1821.467       -1719.406       -1697.550   119719432.103    89400897.832    97174887.299    91733065.112    90566995.550          45.680          46.000          45.620          47.180          49.560
E12  23231690.794    23231694.210    23231695.015    23231688.274    23231690.238         646.979         483.112         525.145         495.771         489.447   122083397.374    91166219.960    99093712.485    93544444.531    92355344.323          44.620          46.620          45.250          47.810          50.180
E24  24760887.025    24760891.792    24760893.907    24760885.512    24760887.793        1547.268        1155.396        1255.926        1185.528        1170.466   130119391.364    97167127.192   105616443.394    99701898.969    98434522.159          48.750          50.060          49.000          51.310          53.620
E25  23716938.588    23716944.969    23716944.491    23716938.715    23716940.926        -824.934        -616.010        -669.556        -632.089        -624.044   124633378.376    93070418.684   101163496.908    95498313.763    94284381.801          49.500          52.000          51.060          53.500          55.680
E33                  28422078.937                    28422072.599    28422074.934                        2021.248                        2074.003        2047.565                   111534400.204                   114443962.729   112989192.530                          27.560                          28.370          30.810
E36  27857307.311    27857317.032    27857315.230    27857309.768    27857312.425       -3302.574       -2466.165       -2680.596       -2530.398       -2498.302   146391142.272   109318093.598   118824014.843   112169846.909   110743981.333          37.060          39.060          35.250          38.930          41.930
G01  22945775.137    22945774.824    22945777.935    22945777.774    22945780.278       -3656.843       -3656.843       -2849.493       -2849.485       -2730.670   120580875.511   120580875.511    93959134.383    93959140.370    90044186.358          42.810          30.810          41.870          30.810          45.500
G07  20361564.276    20361563.843    20361562.706    20361562.352                         349.804         349.804         272.557         272.575                   107000778.644   107000778.644    83377246.014    83377248.003                          49.430          46.120          48.560          46.120
G08  20605084.713    20605084.056    20605086.470    20605085.688    20605088.432        1518.716        1518.716        1183.417        1183.415        1134.108   108280520.296   108280520.296    84374478.660    84374450.649    80858868.324          50.120          55.810          48.870          55.810          53.500
G11  20930751.097    20930750.422                    20930748.982                       -1710.296       -1710.296                       -1332.696                   109991897.519   109991897.519                    85707975.740                          49.680          42.250                          42.250
G13  24213880.419    24213880.030                    24213879.591                       -1954.943       -1954.943                       -1523.319                   127244807.879   127244807.879                    99151783.172                          37.180          20.870                          20.870
G14  22650730.835    22650730.581    22650730.227    22650730.012    22650738.145       -2649.583       -2649.583       -2064.630       -2064.608       -1978.571   119030414.468   119030414.468    92750965.739    92750979.740    88886392.283          44.430          33.680          43.620          33.680          48.250
G21  21936887.221    21936886.095                    21936884.833                       -1661.237       -1661.237                       -1294.473                   115279140.314   115279140.314                    89827916.803                          48.180          37.560                          37.560
G27  23077113.529    23077112.863    23077113.600    23077113.430    23077116.783        3370.160        3370.160        2626.092        2626.102        2516.730   121271114.235   121271114.235    94497018.612    94497015.613    90559649.745          44.180          44.310          41.930          44.310          45.930
G28  23264266.758    23264265.891                    23264264.034                       -2401.553       -2401.553                       -1871.337                   122254553.434   122254553.434                    95263293.306                          43.810          28.310                          28.310
G30  21133853.732    21133853.008    21133854.849    21133854.272    21133857.983       -1669.299       -1669.299       -1300.687       -1300.750       -1246.542   111059177.346   111059177.346    86539639.621    86539628.611    82933830.852          50.370          44.620          48.060          44.620          53.060
R02  23046720.032    23046720.725    23046723.772    23046723.942         965.499         965.516         750.867         750.948   122981711.187   122981735.190    95652471.417    95652469.433          45.560          45.370          41.500          40.870
R09  23973207.686    23973209.216    23973213.123    23973213.347        3625.001        3624.970        2819.538        2819.493   128015628.546   128015626.551    99567736.718    99567735.718          42.680          42.560          43.430          42.370
R10  20186999.259    20186999.009                                        1881.423        1881.429                                   107608107.175   107608111.180                                          51.810          52.000
R11  19814095.252    19814095.453    19814097.413    19814097.731       -1873.121       -1873.136       -1456.888       -1456.881   105880553.871   105880547.870    82351583.699    82351565.708          52.620          53.180          51.250          51.310
R12  23589949.499    23589949.432    23589952.012    23589952.365       -3698.546       -3698.521       -2876.606       -2876.627   126013276.518   126013282.510    98010354.008    98010342.014          45.810          45.120          41.370          41.180
R20  20165007.277    20165007.769    20165014.086    20165013.335        1768.672        1768.648        1375.617        1375.565   107831405.085   107831402.085    83868914.177    83868915.175          42.930          42.180          50.060          50.430
R21  20277310.243    20277310.306    20277314.533    20277314.909       -2950.093       -2950.067       -2294.353       -2294.404   108508434.771   108508017.768    84395409.894    84395169.895          52.750          53.250          49.120          49.430
> 2021 01 03 00 06 00.0000000  0 27
E02  26750939.664    26750944.887    26750946.596    26750939.510    26750941.143       -2350.360       -1755.073       -1907.487       -1800.921       -1777.998   140577159.082   104976471.518   114104879.774   107714963.691   106345725.182          41.930          42.750          41.370          46.370          47.750
E03  27079970.735    27079977.572    27079977.219    27079971.116    27079973.725        2267.406        1693.167        1840.401        1737.458        1715.378   142306200.485   106267676.220   115508347.912   109039854.739   107653777.562          38.620          38.430          38.810          40.180          42.250
E08  25400031.689    25400036.943    25400040.409    25400029.419    25400032.251         209.000         156.090         169.691         160.145         158.115   133478092.330    99675213.455   108342634.737   102275398.979   100975321.296          41.370          40.430          41.500          40.870          43.560
E11  22769063.405    22769066.190    22769067.402    22769060.137    22769062.473       -2233.348       -1667.744       -1812.739       -1711.208       -1689.469   119652273.021    89350746.612    97120375.094    91681605.599    90516190.183          45.620          45.930          45.310          47.000          49.430
E12  23235426.258    23235429.357    23235429.961    23235423.322    23235425.331         661.524         493.957         537.040         506.937         500.469   122103025.452    91180877.293    99109644.367    93559484.227    92370192.839          44.750          46.430          45.120          47.620          50.060
E24  24769736.018    24769740.955    24769743.217    24769734.557    24769736.938        1552.873        1159.569        1260.515        1189.869        1174.720   130165893.893    97201853.104   105654188.953    99737530.777    98469701.019          48.620          49.810          49.000          51.060          53.370
E25  23712246.260    23712252.667    23712252.172    23712246.387    23712248.660        -818.994        -611.599        -664.754        -627.532        -619.560   124608720.389    93052005.256   101143482.310    95479419.985    94265728.198          49.250          51.750          51.060          53.310          55.500
E33                  28437549.978                    28437542.195    28437545.800                        2025.981                        2078.020        2052.419                   111595110.091                   114506256.338   113050694.291                          26.680                          25.180          28.500
E36  27838452.661    27838462.539    27838461.564    27838455.672    27838458.151       -3302.856       -2466.277       -2680.856       -2530.628       -2498.486   146292062.600   109244105.563   118743593.030   112093928.743   110669028.229          37.870          39.250          35.430          39.560          42.310
G01  22924917.817    22924917.522    22924921.156    22924921.165    22924923.423       -3650.069       -3650.069       -2844.240       -2844.206       -2725.722   120471272.351   120471272.351    93873729.340    93873735.329    89962339.843          42.680          31.120          41.430          31.120          45.120
G07  20363613.978    20363613.545    20363612.605    20363612.095                         368.229         368.229         286.947         286.933                   107011549.810   107011549.810    83385639.128    83385641.116                          49.370          46.430          48.560          46.430
G08  20613796.507    20613795.846    20613798.309    20613797.374    20613800.119        1533.220        1533.220        1194.684        1194.717        1144.946   108326300.239   108326300.239    84410151.339    84410123.336    80893054.651          50.120          56.000          48.870          56.000          53.500
G11  20921038.424    20921037.749                    20921035.933                       -1692.553       -1692.553                       -1318.870                   109940855.196   109940855.196                    85668202.515                          49.870          42.430                          42.430
G13  24202769.734    24202769.354                    24202767.305                       -1938.111       -1938.111                       -1510.206                   127186412.331   127186412.331                    99106280.171                          38.750          22.370                          22.370
G14  22635619.363    22635619.113    22635618.705    22635618.043    22635625.747       -2644.878       -2644.878       -2060.923       -2060.948       -1974.928   118950999.561   118950999.561    92689084.012    92689098.002    88827088.965          44.680          34.310          43.810          34.310          48.000
G21  21927448.006    21927446.875                    21927446.436                       -1645.311       -1645.311                       -1282.060                   115229541.223   115229541.223                    89789268.179                          47.620          38.000                          38.000
G27  23096368.698    23096368.028    23096369.203    23096368.510    23096372.332        3375.611        3375.611        2630.291        2630.348        2520.711   121372299.716   121372299.716    94575864.491    94575861.478    90635210.359          43.680          45.000          42.810          45.000          46.680
G28  23250566.287    23250565.433                    23250564.141                       -2398.042       -2398.042                       -1868.610                   122182561.631   122182561.631                    95207195.799                          42.560          28.060                          28.060
G30  21124367.985    21124367.257    21124369.317    21124368.754    21124372.362       -1653.815       -1653.815       -1288.693       -1288.687       -1234.988   111009330.351   111009330.351    86500797.817    86500786.802    82896607.452          50.180          44.870          47.750          44.870          52.930
R02  23052215.164    23052215.915    23052219.338    23052218.784         989.372         989.331         769.481         769.578   123011035.467   123011059.476    95675279.185    95675277.194          44.870          44.560          40.370          40.430
R09  23993589.512    23993589.226    23993593.218    23993592.449        3630.044        3630.000        2823.257        2823.291   128124454.497   128124452.500    99652379.057    99652378.057          42.620          42.120          42.370          41.250
R10  20197630.305    20197629.978                                        1896.492        1896.557                                   107664777.030   107664781.038                                          51.560          51.930
R11  19803615.477    19803615.960    19803618.183    19803618.269       -1860.163       -1860.194       -1446.846       -1446.790   105824555.292   105824549.293    82308029.254    82308011.265          52.810          53.250          51.060          51.180
R12  23569173.907    23569174.908    23569179.219    23569179.809       -3699.405       -3699.355       -2877.240       -2877.319   125902308.744   125902314.743    97924045.833    97924033.824          44.620          44.560          42.620          42.000
R20  20174999.069    20174998.921    20175004.898    20175004.304        1793.096        1793.141        1394.644        1394.630   107884831.893   107884828.895    83910468.361    83910469.367          43.310          42.180          49.870          50.750
R21  20260829.734    20260829.975    20260834.131    20260834.506       -2929.386       -2929.433       -2278.430       -2278.435   108420244.493   108419827.487    84326817.455    84326577.457          53.060          53.500          49.560          49.620
R22  24040295.408                                                       -4649.757                                                   128328733.158                                                          32.870
> 2021 01 03 00 06 30.0000000  0 27
E02  26737524.059    26737529.648    26737530.454    26737523.609    26737525.828       -2349.435       -1754.568       -1907.117       -1800.298       -1777.423   140506661.121   104923826.955   114047657.393   107660945.795   106292393.954          42.000          43.680          40.370          45.620          47.680
E03  27092936.083    27092942.554    27092943.140    27092936.595    27092938.636        2274.716        1698.526        1846.240        1742.934        1720.758   142374331.805   106318553.517   115563649.311   109092059.265   107705318.470          38.750          38.180          39.000          39.560          41.930
E08  25401265.954    25401270.306    25401274.402    25401264.115    25401266.106         223.265         166.725         181.199         170.947         168.840   133484576.262    99680055.347   108347897.657   102280367.173   100980226.338          42.060          40.000          41.810          41.870          44.000
E11  22756344.813    22756347.742    22756348.668    22756341.547    22756343.904       -2222.419       -1659.623       -1803.869       -1702.885       -1681.248   119585436.729    89300836.411    97066124.867    91630393.386    90465628.976          46.120          46.120          45.250          46.620          49.310
E12  23239244.670    23239247.662    23239248.422    23239241.609    23239243.596         676.162         504.858         548.882         518.116         511.489   122123090.742    91195861.114    99125931.128    93574858.933    92385372.102          45.120          46.560          45.250          47.310          49.870
E24  24778617.389    24778622.344    24778624.146    24778615.893    24778618.188        1558.518        1163.836        1264.988        1194.251        1179.042   130212565.081    97236704.961   105692071.404    99773291.816    98505007.467          48.810          50.060          48.870          50.750          53.310
E25  23707587.902    23707594.275    23707593.895    23707588.043    23707590.298        -813.010        -607.113        -659.928        -622.984        -615.050   124584240.538    93033724.848   101123612.299    95460662.696    94247209.350          49.370          51.930          51.120          52.930          55.370
E33                  28453056.161                                    28453051.590                        2030.207                                        2056.906                   111655958.839                                   113112336.734                          26.370                                          27.250
E36  27819598.256    27819607.092    27819605.599    27819600.463    27819602.696       -3302.986       -2466.400       -2681.067       -2530.702       -2498.550   146192976.619   109170112.809   118663166.093   112018005.738   110594070.350          38.310          39.250          35.870          39.370          42.310
G01  22904100.147    22904099.826    22904103.106    22904103.406    22904105.936       -3643.154       -3643.154       -2838.812       -2838.815       -2720.556   120361874.864   120361874.864    93788484.565    93788490.553    89880646.918          42.310          30.810          41.620          30.810          46.000
G07  20365769.001    20365768.567    20365767.252    20365767.028                         386.690         386.690         301.301         301.317                   107022873.703   107022873.703    83394462.934    83394464.927                          50.060          46.620          48.560          46.620
G08  20622590.610    20622589.944    20622592.412    20622591.522    20622594.285        1547.631        1547.631        1205.973        1205.946        1155.702   108372514.071   108372514.071    84446162.125    84446134.120    80927564.987          50.430          56.120          48.870          56.120          53.680
G11  20911426.627    20911425.948                    20911424.051                       -1674.800       -1674.800                       -1305.040                   109890344.894   109890344.894                    85628843.855                          50.370          42.560                          42.560
G13  24191752.438    24191752.063                    24191751.047                       -1921.226       -1921.226                       -1497.056                   127128520.156   127128520.156                    99061169.414                          38.680          21.000                          21.000
G14  22620534.366    22620534.116    22620533.342    22620533.454    22620541.247       -2639.891       -2639.891       -2057.082       -2057.061       -1971.343   118871728.624   118871728.624    92627314.474    92627328.458    88767893.150          45.250          34.620          44.060          34.620          48.430
G21  21918100.692    21918099.565                    21918098.460                       -1629.492       -1629.492                       -1269.734                   115180417.689   115180417.689                    89750990.121                          48.500          38.060                          38.060
G27  23115654.412    23115653.738    23115655.338    23115654.747    23115657.792        3380.952        3380.952        2634.561        2634.508        2524.835   121473648.826   121473648.826    94654837.811    94654834.807    90710893.148          43.750          44.680          42.680          44.680          46.310
G28  23236887.031    23236886.190                    23236884.271                       -2394.421       -2394.421                       -1865.779                   122110675.292   122110675.292                    95151180.468                          42.930          28.120                          28.120
G30  21114971.157    21114970.429    21114972.194    21114971.514    21114975.153       -1638.387       -1638.387       -1276.630       -1276.665       -1223.442   110959947.878   110959947.878    86462317.960    86462306.952    82859730.930          50.870          45.000          48.120          45.000          53.250
R02  23057845.371    23057845.514    23057847.627    23057848.069        1013.173        1013.101         788.065         787.951   123041073.126   123041097.143    95698641.810    95698639.811          44.870          44.060          40.250          40.560
R09  24013995.797    24013996.222    24013998.927    24013999.946        3635.064        3635.121        2827.216        2827.164   128233430.095   128233428.117    99737137.859    99737136.851          43.500          42.680          40.250          40.810
R10  20208346.218    20208345.641                                        1911.501        1911.513                                   107721896.721   107721900.725                                          51.810          52.060
R11  19793208.759    19793209.278    19793211.569    19793211.783       -1847.119       -1847.098       -1436.642       -1436.648   105768945.972   105768939.977    82264777.566    82264759.575          52.370          53.180          51.180          51.250
R12  23548397.438    23548397.425    23548402.289    23548401.726       -3699.983       -3700.022       -2877.773       -2877.833   125791319.281   125791325.281    97837720.696    97837708.686          46.560          45.930          41.810          41.310
R20  20185126.985    20185126.945    20185132.775    20185132.220        1817.499        1817.480        1413.615        1413.603   107938990.798   107938987.797    83952591.962    83952592.964          43.250          42.430          49.810          50.500
R21  20244465.366    20244465.232    20244469.570    20244469.776       -2908.657       -2908.671       -2262.275       -2262.292   108332673.961   108332256.958    84258707.063    84258467.065          53.430          53.620          49.430          49.870
R22  24014167.369    24014167.539                                       -4647.702       -4647.981                                   128189272.513   128189269.506                                          33.430          33.370
> 2021 01 03 00 07 00.0000000  0 27
E02  26724113.368    26724118.743    26724120.572    26724113.052    26724114.967       -2348.877       -1754.074       -1906.575       -1799.669       -1776.860   140436186.548   104871199.851   113990454.005   107606945.812   106239080.409          41.870          43.620          40.870          46.250          48.000
E03  27105941.780    27105948.210    27105948.116    27105941.693    27105944.395        2281.609        1703.840        1852.027        1748.287        1726.092   142442676.918   106369590.444   115619124.224   109144427.589   107757021.097          38.370          37.620          38.250          39.060          41.250
E08  25402580.965    25402585.656    25402589.381    25402579.165    25402580.776         237.311         177.283         192.512         181.883         179.582   133491485.230    99685214.669   108353505.591   102285661.082   100985452.952          41.870          40.500          42.310          42.680          44.500
E11  22743687.711    22743691.051    22743691.879    22743684.757    22743687.035       -2211.713       -1651.639       -1795.205       -1694.664       -1673.141   119518924.749    89251168.419    97012137.903    91579429.701    90415313.138          45.560          46.060          45.680          47.120          49.560
E12  23243145.973    23243148.996    23243149.886    23243142.961    23243144.944         690.717         515.774         560.581         529.183         522.479   122143592.488    91211170.865    99142572.154    93590568.063    92400881.541          44.680          46.370          45.620          47.680          50.000
E24  24787530.889    24787535.714    24787537.601    24787529.263    24787531.536        1564.151        1168.072        1269.568        1198.481        1183.276   130259404.985    97271682.803   105730090.801    99809182.118    98540441.539          48.750          49.810          49.250          51.250          53.500
E25  23702963.766    23702969.874    23702969.499    23702963.737    23702965.938        -807.063        -602.707        -655.116        -618.423        -610.573   124559939.405    93015577.901   101103887.353    95442042.350    94228825.703          49.370          51.620          51.430          53.430          55.500
E33                  28468599.190                                    28468592.911                        2035.909                                        2062.057                   111716945.087                                   113174118.430                          25.810                                          25.810
E36  27800740.387    27800750.716    27800750.144    27800743.998    27800746.351       -3303.198       -2466.559       -2681.089       -2530.856       -2498.736   146093885.949   109096116.543   118582735.380   111942079.139   110519108.918          37.250          38.930          36.930          39.930          42.370
G01  22883322.694    22883322.386    22883325.381    22883325.435    22883327.553       -3636.187       -3636.187       -2833.359       -2833.390       -2715.280   120252686.410   120252686.410    93703402.701    93703408.685    89799110.145          43.060          31.250          42.000          31.250          45.930
G07  20368028.825    20368028.387    20368027.389    20368027.161                         405.120         405.120         315.700         315.679                   107034750.501   107034750.501    83403717.577    83403719.568                          49.680          46.250          48.620          46.250
G08  20631466.928    20631466.263    20631468.918    20631467.912    20631470.639        1562.050        1562.050        1217.183        1217.182        1166.448   108419160.004   108419160.004    84482509.612    84482481.606    80962397.995          50.250          55.810          48.930          55.810          53.620
G11  20901916.318    20901915.639                    20901913.638                       -1656.989       -1656.989                       -1291.161                   109840368.158   109840368.158                    85589900.949                          50.180          42.250                          42.250
G13  24180832.145    24180831.766                    24180830.276                       -1904.328       -1904.328                       -1483.887                   127071132.908   127071132.908                    99016452.094                          38.810          20.250                          20.250
G14  22605477.188    22605476.943    22605475.868    22605476.034    22605483.778       -2635.082       -2635.082       -2053.366       -2053.311       -1967.784   118792602.443   118792602.443    92565657.707    92565671.706    88708805.419          45.180          34.500          43.930          34.500          48.310
G21  21908843.324    21908842.189                    21908841.284                       -1613.660       -1613.660                       -1257.393                   115131771.341   115131771.341                    89713083.905                          48.310          37.930                          37.930
G27  23134971.303    23134970.637    23134971.983    23134971.491    23134975.036        3386.275        3386.275        2638.768        2638.653        2528.784   121575159.297   121575159.297    94733936.881    94733933.870    90786696.411          43.560          44.310          42.620          44.310          46.180
G28  23223227.686    23223226.841                    23223225.343                       -2390.971       -2390.971                       -1863.087                   122038894.350   122038894.350                    95095247.295                          42.180          27.560                          27.560
G30  21105662.370    21105661.641    21105663.586    21105663.112    21105666.863       -1622.701       -1622.701       -1264.504       -1264.444       -1211.802   110911031.914   110911031.914    86424201.625    86424190.619    82823202.777          50.370          44.500          48.060          44.500          53.250
R02  23063607.977    23063607.079    23063611.284    23063611.530        1036.820        1036.824         806.444         806.487   123071823.064   123071847.072    95722558.428    95722556.434          44.750          43.000          43.120          42.750
R09  24034432.369    24034431.930    24034434.197    24034434.734        3640.017        3639.922        2831.004        2831.098   128342554.273   128342552.264    99822012.250    99822011.242          42.370          41.680          38.930          38.500
R10  20219145.973    20219145.575                                        1926.407        1926.448                                   107779466.230   107779470.234                                          52.120          52.180
R11  19782876.114    19782876.499    19782878.441    19782878.516       -1834.033       -1834.071       -1426.492       -1426.494   105713728.249   105713722.246    82221830.441    82221812.446          52.750          53.430          51.180          51.310
R12  23527616.140    23527616.131    23527620.106    23527619.538       -3700.662       -3700.677       -2878.216       -2878.303   125680309.493   125680315.485    97751379.744    97751367.746          45.430          44.870          40.370          40.060
R20  20195390.808    20195391.063    20195397.049    20195396.629        1841.655        1841.796        1432.470        1432.427   107993879.036   107993876.054    83995282.831    83995283.829          43.180          42.310          49.620          50.310
R21  20228216.643    20228216.835    20228221.425    20228221.510       -2887.860       -2887.917       -2246.100       -2246.135   108245725.964   108245308.961    84191080.868    84190840.873          53.120          53.560          49.560          49.930
R22  23988054.439    23988055.552                                       -4645.471       -4645.491                                   128049876.841   128049873.875                                          35.310          34.620
> 2021 01 03 00 07 30.0000000  0 27
E02  26710707.305    26710712.541    26710713.682    26710706.672    26710708.681       -2347.968       -1753.326       -1905.736       -1799.042       -1776.188   140365735.773   104818590.519   113933269.925   107552964.064   106185784.869          42.000          44.250          40.310          46.370          48.310
E03  27118987.796    27118994.750    27118994.500    27118988.228    27118990.219        2288.770        1709.070        1857.891        1753.818        1731.456   142511233.884   106420785.583   115674771.102   109196958.233   107808883.986          38.120          37.810          37.680          39.180          41.430
E08  25403975.347    25403980.869    25403984.170    25403974.169    25403976.629         251.649         187.773         204.187         192.685         190.215   133498818.992    99690691.137   108359458.299   102291280.447   100991000.871          40.430          40.310          41.370          42.060          44.180
E11  22731093.230    22731096.181    22731097.272    22731089.950    22731092.151       -2200.797       -1643.457       -1786.271       -1686.319       -1664.888   119452738.573    89201743.730    96958415.393    91528715.666    90365243.775          46.060          46.250          46.060          47.310          49.750
E12  23247130.050    23247133.261    23247134.013    23247127.356    23247129.213         705.238         526.672         572.372         540.391         533.534   122164529.962    91226805.991    99159566.853    93606611.064    92416720.605          44.870          46.500          45.620          47.750          50.120
E24  24796476.405    24796481.110    24796483.140    24796474.785    24796476.986        1569.730        1172.192        1274.159        1202.776        1187.481   130306413.629    97306786.656   105768247.168    99845201.727    98576003.270          48.810          50.000          49.370          51.310          53.560
E25  23698373.560    23698379.597    23698379.074    23698373.545    23698375.710        -801.075        -598.206        -650.267        -613.800        -606.003   124535817.595    92997564.863   101084307.963    95423559.407    94210577.713          49.560          51.810          51.370          53.500          55.620
E33                  28484179.039                                    28484170.336                        2039.844                                        2065.740                   111778067.380                                   113236038.045                          25.180                                          24.810
E36  27781885.182    27781893.799    27781892.569    27781887.035    27781889.527       -3303.097       -2466.548       -2681.020       -2531.034       -2498.788   145994792.276   109022118.074   118502302.254   111866150.279   110444145.255          38.750          39.310          37.680          40.060          42.560
G01  22862584.838    22862584.525    22862588.245    22862587.803    22862590.784       -3628.918       -3628.918       -2827.801       -2827.725       -2709.892   120143710.464   120143710.464    93618486.400    93618492.396    89717732.035          42.180          30.620          41.680          30.620          46.500
G07  20370394.304    20370393.871    20370393.029    20370392.707                         423.552         423.552         330.047         330.041                   107047180.936   107047180.936    83413403.626    83413405.615                          49.310          46.180          48.680          46.180
G08  20640425.315    20640424.648    20640426.991    20640426.115    20640428.886        1576.335        1576.335        1228.348        1228.312        1177.122   108466235.758   108466235.758    84519192.026    84519164.019    80997551.981          50.060          55.680          48.680          55.680          53.680
G11  20892507.796    20892507.112                    20892505.251                       -1639.148       -1639.148                       -1277.257                   109790926.509   109790926.509                    85551374.995                          49.750          42.180                          42.180
G13  24170007.219    24170006.795                    24170006.552                       -1887.404       -1887.404                       -1470.720                   127014252.763   127014252.763                    98972129.876                          38.680          20.120                          20.120
G14  22590447.805    22590447.564    22590446.642    22590446.486    22590454.154       -2630.203       -2630.203       -2049.488       -2049.511       -1964.121   118713621.735   118713621.735    92504114.320    92504128.309    88649826.337          44.810          34.180          43.370          34.180          48.370
G21  21899677.361    21899676.235                    21899675.299                       -1597.605       -1597.605                       -1244.889                   115083603.783   115083603.783                    89675550.770                          48.120          38.250                          38.250
G27  23154318.543    23154317.877    23154318.757    23154318.618    23154322.723        3391.705        3391.705        2642.813        2642.887        2532.731   121676828.816   121676828.816    94813159.852    94813156.864    90862618.451          43.430          43.750          42.060          43.750          46.870
G28  23209587.936    23209587.087                    23209586.348                       -2387.454       -2387.454                       -1860.353                   121967219.218   121967219.218                    95039396.563                          42.000          28.120                          28.120
G30  21096443.163    21096442.435    21096444.450    21096443.744    21096447.615       -1607.087       -1607.087       -1252.276       -1252.276       -1200.109   110862584.443   110862584.443    86386450.352    86386439.345    82787024.476          49.930          44.430          47.750          44.430          53.430
R02  23069501.706    23069501.674    23069507.145    23069507.038        1060.432        1060.497         824.719         824.866   123103282.379   123103306.393    95747026.733    95747024.749          44.560          43.810          43.560          43.060
R09  24054896.208    24054895.430    24054898.747    24054898.605        3644.850        3644.885        2834.963        2834.882   128451825.967   128451823.964    99907001.315    99907000.316          41.930          41.620          39.250          38.180
R10  20230029.304    20230029.670                                        1941.438        1941.474                                   107837485.073   107837489.083                                          51.120          52.120
R11  19772616.991    19772617.099    19772618.857    19772618.871       -1820.819       -1820.860       -1416.240       -1416.208   105658904.800   105658898.798    82179189.984    82179171.991          52.930          53.560          51.500          51.310
R12  23506832.159    23506832.101    23506835.977    23506835.226       -3701.221       -3701.298       -2878.769       -2878.729   125569280.898   125569286.893    97665024.204    97665012.202          46.620          45.870          41.560          41.430
R20  20205791.333    20205791.382    20205797.404    20205796.764        1865.769        1865.805        1451.234        1451.301   108049493.298   108049490.303    84038538.367    84038539.373          43.430          42.250          49.810          50.250
R21  20212085.542    20212085.327    20212090.176    20212090.136       -2867.023       -2867.011       -2229.870       -2229.871   108159403.345   108158986.341    84123941.077    84123701.081          53.250          53.620          49.750          49.870
R22  23961954.745    23961954.911                                       -4643.079       -4643.167                                   127910549.382   127910546.352                                          35.750          34.810
> 2021 01 03 00 08 00.0000000  0 26
E02  26697306.143    26697310.838    26697312.390    26697305.067    26697307.045       -2347.260       -1752.760       -1905.103       -1798.477       -1775.627   140295309.188   104765999.257   113876105.486   107499000.864   106132507.637          42.560          44.500          40.680          46.180          48.310
E03  27132073.410    27132081.002    27132080.386    27132074.230    27132076.266        2295.973        1714.349        1863.398        1758.999        1736.689   142580000.681   106472137.377   115730588.278   109249649.657   107860905.599          36.930          38.310          36.750          38.250          41.120
E08  25405452.391    25405456.295    25405460.905    25405450.770    25405452.953         265.592         198.367         215.546         203.579         200.972   133506577.022    99696484.478   108365755.413   102297224.915   100996869.775          41.680          39.310          41.060          42.310          43.930
E11  22718560.470    22718563.667    22718564.275    22718557.516    22718559.601       -2189.727       -1635.217       -1777.436       -1677.912       -1656.570   119386879.664    89152563.402    96904958.496    91478252.364    90315421.960          45.560          46.180          45.620          47.060          49.620
E12  23251197.161    23251200.206    23251200.757    23251194.368    23251196.247         719.668         537.429         584.060         551.443         544.436   122185902.370    91242765.917    99176914.599    93622987.331    92432888.702          44.620          46.430          45.120          47.500          49.930
E24  24805453.590    24805458.657    24805460.687    24805452.224    24805454.568        1575.386        1176.434        1278.759        1207.108        1191.764   130353591.098    97342016.580   105806540.569    99881350.698    98611692.717          48.430          49.930          49.120          50.930          53.370
E25  23693817.590    23693823.626    23693823.135    23693817.552    23693819.730        -795.101        -593.703        -645.332        -609.222        -601.462   124511875.682    92979686.169   101064874.602    95405214.311    94192465.818          49.310          51.870          51.250          53.250          55.500
E36  27763027.697    27763036.976    27763036.323    27763029.921    27763032.377       -3303.106       -2466.677       -2681.116       -2530.938       -2498.818   145895697.352   108948118.600   118421868.035   111790220.392   110369180.575          39.060          40.120          37.560          39.680          42.750
G01  22841887.982    22841887.674    22841891.505    22841891.147    22841894.460       -3621.750       -3621.750       -2822.176       -2822.143       -2704.459   120034950.301   120034950.301    93533738.250    93533744.241    89636515.078          42.680          30.870          41.620          30.870          46.870
G07  20372865.318    20372864.880    20372863.681    20372863.493                         442.100         442.100         344.471         344.492                   107060165.224   107060165.224    83423521.247    83423523.239                          49.750          46.500          48.500          46.500
G08  20649464.986    20649464.320    20649466.707    20649465.862    20649468.674        1590.582        1590.582        1239.404        1239.414        1187.793   108513739.770   108513739.770    84556208.144    84556180.138    81033025.761          50.120          56.060          48.870          56.060          53.750
G11  20883201.128    20883200.444                    20883198.878                       -1621.164       -1621.164                       -1263.245                   109742021.324   109742021.324                    85513267.065                          50.000          42.500                          42.500
G13  24159280.163    24159279.681                    24159279.242                       -1870.517       -1870.517                       -1457.538                   126957881.720   126957881.720                    98928204.371                          38.620          20.000                          20.000
G14  22575446.191    22575445.955    22575445.131    22575444.393    22575452.571       -2625.360       -2625.360       -2045.710       -2045.734       -1960.480   118634787.268   118634787.268    92442684.876    92442698.864    88590956.459          45.120          34.370          43.620          34.370          48.620
G21  21890602.976    21890601.850                    21890600.933                       -1581.522       -1581.522                       -1232.356                   115035916.949   115035916.949                    89638392.228                          48.310          38.560                          38.560
G27  23173695.514    23173694.848    23173696.364    23173695.349    23173698.809        3396.578        3396.578        2646.835        2646.685        2536.483   121778654.985   121778654.985    94892504.956    94892501.937    90938657.484          43.680          44.430          42.930          44.430          46.500
G28  23195968.666    23195967.808                    23195967.239                       -2383.871       -2383.871                       -1857.559                   121895650.042   121895650.042                    94983628.404                          42.810          29.310                          29.310
G30  21087313.272    21087312.544    21087314.595    21087313.956    21087317.792       -1591.339       -1591.339       -1239.987       -1240.001       -1188.304   110814607.460   110814607.460    86349065.697    86349054.682    82751197.509          50.180          44.810          48.060          44.810          53.310
R02  23075532.024    23075532.033    23075534.436    23075535.076        1083.989        1084.007         843.121         843.169   123135449.515   123135473.529    95772045.612    95772043.615          45.120          44.370          43.810          43.500
R09  24075385.478    24075384.968    24075388.102    24075388.366        3649.712        3649.702        2838.644        2838.688   128561243.740   128561241.731    99992104.037    99992103.038          40.000          39.370          39.000          38.310
R10  20240998.520    20240998.386                                        1956.359        1956.399                                   107895952.959   107895956.961                                          51.810          52.370
R11  19762431.015    19762431.234    19762433.601    19762433.673       -1807.588       -1807.602       -1405.900       -1405.865   105604477.643   105604471.648    82136857.761    82136839.771          52.620          53.310          51.310          51.310
R12  23486044.748    23486044.516    23486047.069    23486047.082       -3701.702       -3701.830       -2879.127       -2879.170   125458235.259   125458241.254    97578655.372    97578643.375          47.560          46.560          41.500          41.810
R20  20216326.766    20216326.855    20216332.814    20216332.197        1889.956        1889.878        1469.938        1469.919   108105830.679   108105827.688    84082356.325    84082357.330          43.000          42.180          49.500          50.310
R21  20196070.891    20196071.190    20196075.672    20196075.936       -2845.998       -2845.958       -2213.547       -2213.586   108073708.923   108073291.926    84057289.883    84057049.883          53.310          53.560          49.430          50.000
R22  23935870.993    23935870.224                                       -4640.716       -4640.819                                   127771293.401   127771290.410                                          38.810          36.930
> 2021 01 03 00 08 30.0000000  0 26
E02  26683908.763    26683913.991    26683915.324    26683907.500    26683909.898       -2346.302       -1752.095       -1904.463       -1797.843       -1774.969   140224907.231   104713426.379   113818961.034   107445056.504   106079249.021          42.680          44.870          41.060          45.500          48.120
E03  27145198.923    27145205.819    27145206.163    27145199.462    27145201.824        2302.916        1719.304        1868.921        1764.314        1741.849   142648975.377   106523644.434   115786574.203   109302500.394   107913084.495          35.430          37.430          36.120          38.180          40.750
E08  25407009.285    25407013.036    25407017.159    25407008.128    25407010.030         279.770         208.860         227.125         214.392         211.646   133514758.953    99702594.359   108372396.609   102303494.206   101003059.360          41.310          38.620          40.500          43.120          44.180
E11  22706090.617    22706093.555    22706094.293    22706087.377    22706089.587       -2178.880       -1627.143       -1768.589       -1669.564       -1648.345   119321349.458    89103628.547    96851768.425    91428040.946    90265848.825          46.060          46.250          45.430          47.250          49.680
E12  23255346.442    23255349.742    23255350.494    23255344.003    23255345.873         734.206         548.178         595.776         562.485         555.338   122207708.954    91259050.053    99194614.745    93639696.275    92449385.242          44.180          46.500          45.060          47.620          50.060
E24  24814463.167    24814468.306    24814470.323    24814462.110    24814464.284        1581.057        1180.657        1283.295        1211.410        1196.032   130400937.397    97377372.580   105844970.996    99917629.023    98647509.880          48.250          49.870          48.810          51.180          53.500
E25  23689295.764    23689302.033    23689301.627    23689295.820    23689298.079        -789.073        -589.191        -640.422        -604.573        -596.888   124488114.275    92961942.262   101045587.748    95387007.521    94174490.469          49.310          51.930          51.180          53.370          55.620
E36  27744168.768    27744179.991    27744178.690    27744172.941    27744175.174       -3302.963       -2466.635       -2680.844       -2530.799       -2498.751   145796602.724   108874119.396   118341434.111   111714290.761   110294216.156          38.370          40.500          37.310          40.060          43.120
G01  22821233.866    22821233.558    22821236.352    22821236.714    22821239.870       -3614.286       -3614.286       -2816.283       -2816.327       -2698.998   119926409.383   119926409.383    93449160.958    93449166.937    89555461.842          43.120          31.750          41.680          31.750          46.870
G07  20375441.635    20375441.201    20375439.765    20375439.586                         460.483         460.483         358.815         358.818                   107073703.792   107073703.792    83434070.782    83434072.769                          49.810          46.370          48.560          46.370
G08  20658586.032    20658585.365    20658587.623    20658586.671    20658589.474        1604.786        1604.786        1250.502        1250.482        1198.364   108561670.069   108561670.069    84593556.426    84593528.422    81068817.863          50.430          56.060          48.870          56.060          53.560
G11  20873997.509    20873996.825                    20873995.126                       -1603.247       -1603.247                       -1249.280                   109693654.853   109693654.853                    85475578.918                          49.930          42.680                          42.680
G13  24148651.546    24148651.077                    24148648.791                       -1853.398       -1853.398                       -1444.204                   126902021.575   126902021.575                    98884677.003                          40.560          20.250                          20.250
G14  22560471.858    22560471.617    22560470.950    22560470.839    22560478.958       -2620.530       -2620.530       -2041.872       -2041.972       -1956.817   118556099.810   118556099.810    92381369.979    92381383.970    88532196.362          44.930          34.370          43.500          34.370          48.560
G21  21881619.992    21881618.857                    21881618.212                       -1565.419       -1565.419                       -1219.805                   114988712.679   114988712.679                    89601609.709                          48.180          38.620                          38.620
G27  23193100.858    23193100.192    23193102.177    23193101.712    23193105.333        3401.945        3401.945        2650.836        2650.867        2540.433   121880635.679   121880635.679    94971970.410    94971967.402    91014811.877          43.310          44.250          42.370          44.250          46.620
G28  23182370.117    23182369.263                    23182368.136                       -2380.316       -2380.316                       -1854.796                   121824187.444   121824187.444                    94927943.277                          43.250          29.680                          29.680
G30  21078273.775    21078273.047    21078274.826    21078274.101    21078277.915       -1575.647       -1575.647       -1227.761       -1227.777       -1176.641   110767102.911   110767102.911    86312049.169    86312038.156    82715723.335          50.560          44.870          48.120          44.870          53.180
R02  23081688.500    23081689.904    23081695.527    23081695.979        1107.439        1107.526         861.346         861.309   123168322.280   123168346.281    95797613.319    95797611.327          43.930          43.750          44.000          43.500
R09  24095904.430    24095903.911    24095905.999    24095905.480        3654.451        3654.330        2842.286        2842.525   128670806.469   128670804.471   100077319.456   100077318.477          39.810          38.560          38.180          36.750
R10  20252051.347    20252051.119                                        1971.351        1971.328                                   107954869.524   107954873.530                                          52.000          52.370
R11  19752320.417    19752320.811    19752322.900    19752323.133       -1794.307       -1794.310       -1395.543       -1395.538   105550449.394   105550443.393    82094835.789    82094817.796          52.310          53.310          51.060          51.310
R12  23465253.738    23465252.804    23465255.978    23465256.175       -3702.268       -3702.249       -2879.711       -2879.568   125347174.174   125347180.173    97492274.515    97492262.532          46.370          45.060          41.430          41.310
R20  20226996.428    20226996.786    20227002.656    20227002.227        1913.841        1913.825        1488.541        1488.545   108162888.122   108162885.121    84126734.333    84126735.338          43.060          42.250          49.750          50.430
R21  20180174.926    20180175.243    20180180.052    20180179.989       -2824.894       -2824.896       -2197.105       -2197.161   107988645.932   107988228.929    83991129.805    83990889.800          53.060          53.560          49.810          49.810
R22  23909793.456    23909793.053                                       -4638.073       -4637.928                                   127632112.199   127632109.234                                          36.810          36.120
> 2021 01 03 00 09 00.0000000  0 25
E02  26670516.299    26670521.092    26670523.207    26670514.981    26670517.460       -2345.477       -1751.466       -1903.867       -1797.161       -1774.320   140154530.274   104660872.192   113761836.897   107391131.325   106026009.336          42.310          44.060          41.620          45.180          47.560
E03  27158363.729    27158370.705    27158370.580    27158364.361    27158366.469        2309.723        1724.515        1874.423        1769.645        1747.115   142718155.987   106575305.250   115842727.280   109355508.896   107965419.151          36.250          36.680          34.430          38.060          40.310
E08  25408647.048    25408650.862    25408655.557    25408645.735    25408647.172         293.940         219.475         238.524         225.145         222.281   133523364.382    99709020.506   108379381.506   102310087.936   101009569.297          41.560          38.560          41.250          42.930          43.930
E11  22693683.349    22693686.269    22693687.383    22693680.123    22693682.422       -2167.687       -1618.728       -1759.525       -1660.969       -1639.855   119256149.478    89054940.276    96798846.378    91378082.541    90216525.485          46.180          45.810          45.810          47.430          49.560
E12  23259578.671    23259582.021    23259582.813    23259575.960    23259577.977         748.551         558.924         607.614         573.558         566.243   122229948.908    91275657.823    99212666.668    93656737.286    92466209.632          44.250          46.250          45.560          47.620          49.930
E24  24823504.989    24823510.275    24823512.046    24823503.994    24823506.120        1586.630        1184.858        1287.935        1215.744        1200.317   130448452.597    97412854.697   105883538.525    99954036.762    98683454.808          48.180          49.560          49.120          51.310          53.430
E25  23684808.549    23684814.859    23684814.412    23684808.578    23684810.882        -782.938        -584.730        -635.530        -599.932        -592.331   124464533.960    92944333.582   101026447.877    95368939.484    94156652.111          49.250          51.620          51.500          53.430          55.500
E36  27725314.904    27725323.185    27725322.649    27725316.359    27725318.360       -3303.030       -2466.393       -2681.052       -2530.960       -2498.670   145697510.159   108800121.762   118261001.831   111638362.716   110219253.319          40.120          40.060          38.500          40.000          42.810
G01  22800621.752    22800621.453    22800624.439    22800624.529    22800627.586       -3606.738       -3606.738       -2810.490       -2810.451       -2693.390   119818091.071   119818091.071    93364757.096    93364763.094    89474574.830          43.180          31.750          42.120          31.750          46.680
G07  20378123.329    20378122.896    20378121.790    20378121.285                         479.027         479.027         373.241         373.268                   107087796.756   107087796.756    83445052.304    83445054.296                          49.680          46.060          48.370          46.060
G08  20667787.361    20667786.695    20667788.854    20667788.125    20667790.915        1618.845        1618.845        1261.464        1261.437        1208.892   108610024.164   108610024.164    84631234.942    84631206.936    81104926.444          50.370          55.750          48.680          55.750          53.560
G11  20864896.403    20864895.719                    20864893.988                       -1585.224       -1585.224                       -1235.239                   109645828.040   109645828.040                    85438311.282                          49.930          42.500                          42.500
G13  24138119.265    24138118.805                    24138116.381                       -1836.304       -1836.304                       -1430.873                   126846674.220   126846674.220                    98841549.165                          40.930          20.810                          20.810
G14  22545526.261    22545526.028    22545526.023    22545525.240    22545533.450       -2615.552       -2615.552       -2038.002       -2038.092       -1953.117   118477560.117   118477560.117    92320170.221    92320184.206    88473546.600          44.810          34.180          44.180          34.180          48.680
G21  21872729.874    21872728.743                    21872727.620                       -1549.241       -1549.241                       -1207.200                   114941992.647   114941992.647                    89565204.530                          48.560          38.370                          38.370
G27  23212536.560    23212535.899    23212537.570    23212536.881    23212540.235        3406.896        3406.896        2654.768        2654.726        2544.184   121982768.480   121982768.480    95051554.419    95051551.406    91091079.882          43.430          43.680          42.250          43.680          46.000
G28  23168791.463    23168790.605                    23168789.178                       -2376.759       -2376.759                       -1852.020                   121752831.198   121752831.198                    94872341.025                          43.310          29.310                          29.310
G30  21069324.471    21069323.743    21069325.021    21069324.520    21069328.419       -1559.771       -1559.771       -1215.436       -1215.408       -1164.787   110720072.764   110720072.764    86275402.297    86275391.289    82680603.417          50.810          44.750          48.000          44.750          53.310
R02  23087982.653    23087983.293    23087986.103    23087986.488        1130.924        1130.797         879.506         879.626   123201898.631   123201922.632    95823728.214    95823726.223          44.120          44.250          42.810          43.310
R10  20263188.558    20263187.864                                        1986.320        1986.315                                   108014234.755   108014238.755                                          52.180          52.370
R11  19742285.318    19742285.461    19742287.475    19742287.470       -1780.825       -1780.826       -1385.081       -1385.076   105496822.269   105496816.266    82053125.805    82053107.816          52.680          53.310          51.000          51.560
R12  23444460.487    23444459.986    23444463.756    23444463.430       -3702.710       -3702.628       -2879.889       -2879.825   125236099.020   125236105.029    97405882.791    97405870.805          46.250          45.060          42.750          42.310
R20  20237800.996    20237800.924    20237807.116    20237806.226        1937.621        1937.710        1507.098        1507.122   108220662.050   108220659.057    84171669.619    84171670.622          43.120          42.180          49.810          50.370
R21  20164397.986    20164397.753    20164401.985    20164402.137       -2803.684       -2803.705       -2180.642       -2180.651   107904217.134   107903800.128    83925462.976    83925222.980          53.250          53.620          49.430          49.750
R22  23883734.642    23883734.490                                       -4635.369       -4635.283                                   127493009.376   127493006.389                                          38.620          37.250
> 2021 01 03 00 09 30.0000000  0 25
E02  26657128.283    26657133.864    26657136.095    26657128.155    26657129.985       -2344.622       -1750.821       -1902.973       -1796.603       -1773.731   140084178.817   104608337.007   113704733.438   107337225.646   105972788.903          41.500          44.120          42.680          45.430          47.750
E03  27171566.829    27171573.962    27171573.090    27171567.842    27171569.941        2316.328        1729.640        1880.211        1774.647        1752.151   142787540.471   106627118.353   115899045.885   109408673.642   108017908.076          34.750          35.870          32.560          37.120          39.370
E08  25410364.946    25410370.160    25410374.029    25410363.232    25410365.030         307.974         229.879         249.883         235.980         232.931   133532392.829    99715762.561   108386709.808   102317005.859   101016399.288          41.310          40.430          41.370          41.750          44.060
E11  22681339.560    22681342.274    22681343.402    22681336.222    22681338.383       -2156.781       -1610.612       -1750.602       -1652.603       -1631.624   119191281.195    89006499.715    96746193.584    91328378.311    90167453.089          45.930          46.120          46.120          47.500          49.750
E12  23263893.452    23263896.497    23263897.620    23263890.315    23263892.414         762.931         569.695         619.247         584.559         577.133   122252621.439    91292588.614    99231069.693    93674109.742    92483361.256          44.430          46.310          45.810          47.430          49.810
E24  24832579.021    24832584.132    24832586.194    24832577.909    24832580.111        1592.279        1189.035        1292.507        1220.060        1204.547   130496136.727    97448462.969   105922243.172    99990573.947    98719527.536          48.180          49.680          49.310          51.180          53.430
E25  23680356.007    23680362.200    23680361.646    23680355.964    23680358.268        -776.913        -580.197        -630.609        -595.286        -587.741   124441135.332    92926860.584   101007455.484    95351010.668    94138951.204          49.060          51.750          51.620          53.310          55.500
E36  27706455.389    27706466.872    27706465.768    27706460.014    27706462.350       -3302.913       -2466.373       -2681.007       -2530.837       -2498.609   145598421.301   108726126.844   118180572.574   111562437.501   110144293.251          38.680          39.250          39.310          39.680          42.370
G01  22780052.306    22780052.020    22780054.497    22780055.047    22780057.541       -3599.337       -3599.337       -2804.681       -2804.677       -2687.823   119709998.728   119709998.728    93280529.333    93280535.331    89393856.552          43.180          31.120          41.250          31.120          46.250
G07  20380910.648    20380910.210    20380909.373    20380908.814                         497.475         497.475         387.648         387.642                   107102444.332   107102444.332    83456465.991    83456467.984                          49.430          46.180          48.620          46.180
G08  20677069.421    20677068.755    20677070.820    20677069.912    20677072.684        1632.907        1632.907        1272.374        1272.394        1219.350   108658800.611   108658800.611    84669242.573    84669214.563    81141350.421          50.250          55.870          48.750          55.870          53.560
G11  20855898.608    20855897.924                    20855895.723                       -1567.186       -1567.186                       -1221.184                   109598542.566   109598542.566                    85401465.471                          50.000          42.560                          42.560
G13  24127684.881    24127684.443                    24127682.444                       -1819.214       -1819.214                       -1417.574                   126791841.199   126791841.199                    98798822.130                          40.060          20.680                          20.680
G14  22530608.914    22530608.682    22530608.377    22530608.091    22530615.938       -2610.564       -2610.564       -2034.211       -2034.206       -1949.415   118399168.954   118399168.954    92259086.214    92259100.207    88415007.770          45.000          34.870          44.370          34.870          48.500
G21  21863931.715    21863930.584                    21863929.573                       -1533.015       -1533.015                       -1194.556                   114895758.714   114895758.714                    89529178.119                          48.180          38.370                          38.370
G27  23232000.308    23231999.638    23232001.725    23232000.446    23232004.340        3411.778        3411.778        2658.678        2658.523        2547.769   122085051.197   122085051.197    95131255.236    95131252.223    91167459.823          43.000          43.620          42.680          43.620          46.310
G28  23155232.649    23155231.791                    23155231.258                       -2373.262       -2373.262                       -1849.298                   121681581.847   121681581.847                    94816822.069                          42.810          29.370                          29.370
G30  21060465.440    21060464.716    21060466.254    21060465.623    21060469.517       -1543.849       -1543.849       -1203.056       -1202.998       -1152.877   110673518.943   110673518.943    86239126.590    86239115.584    82645839.204          50.500          44.930          48.000          44.930          53.370
R02  23094407.083    23094407.355    23094410.939    23094411.391        1154.263        1154.328         897.794         897.822   123236176.676   123236200.671    95850388.869    95850386.873          46.310          46.250          44.430          44.120
R10  20274408.494    20274408.306                                        2001.184        2001.194                                   108074047.968   108074051.971                                          51.560          52.250
R11  19732324.962    19732325.454    19732327.423    19732327.463       -1767.372       -1767.353       -1374.625       -1374.573   105443598.967   105443592.967    82011729.908    82011711.920          53.120          53.500          51.060          51.620
R12  23423662.676    23423663.083    23423665.721    23423667.134       -3703.100       -3703.191       -2880.161       -2880.068   125125011.510   125125017.508    97319481.427    97319469.427          45.500          44.750          41.930          41.930
R20  20248738.258    20248738.427    20248744.262    20248743.578        1961.489        1961.391        1525.589        1525.569   108279150.030   108279147.032    84217160.273    84217161.274          43.000          42.000          49.370          50.180
R21  20148738.806    20148738.882    20148743.664    20148743.767       -2782.375       -2782.429       -2164.126       -2164.124   107820425.330   107820008.326    83860291.600    83860051.600          53.310          53.500          49.430          49.930
R22  23857691.939    23857692.256                                       -4632.636       -4632.655                                   127353988.042   127353985.049                                          39.500          38.370
> 2021 01 03 00 10 00.0000000  0 25
E02  26643746.255    26643751.746    26643753.683    26643745.219    26643747.501       -2343.638       -1750.244       -1902.342       -1795.868       -1773.031   140013853.185   104555821.114   113647650.963   107283339.785   105919588.030          42.250          44.120          42.870          45.000          47.500
E03  27184809.884    27184816.569    27184814.973    27184809.613    27184811.958        2322.925        1734.747        1885.546        1779.746        1757.227   142857126.901   106679082.270   115955528.410   109461993.140   108070549.782          35.120          35.870          31.250          36.370          39.000
E08  25412163.482    25412168.316    25412172.529    25412161.186    25412163.544         321.943         240.518         261.368         246.894         243.736   133541843.871    99722820.165   108394381.115   102324247.579   101023548.951          40.930          40.250          41.500          41.370          43.680
E11  22669058.526    22669061.656    22669062.631    22669055.595    22669057.711       -2145.550       -1602.225       -1741.582       -1643.984       -1623.080   119126746.026    88958307.901    96693811.161    91278929.316    90118632.687          45.930          46.120          46.060          47.560          49.810
E12  23268289.849    23268292.930    23268293.941    23268286.953    23268289.034         777.404         580.466         630.934         595.573         588.035   122275725.723    91309841.815    99249823.173    93691813.031    92500839.501          44.560          46.370          45.430          47.500          49.870
E24  24841685.538    24841690.377    24841692.121    24841684.002    24841686.257        1597.911        1193.244        1297.049        1224.350        1208.803   130543989.832    97484197.428   105961084.974   100027240.609    98755728.097          48.620          49.680          49.000          51.310          53.430
E25  23675938.223    23675944.300    23675943.835    23675938.015    23675940.332        -770.856        -575.644        -625.664        -590.657        -583.149   124417918.988    92909523.704   100988611.050    95333221.520    94121388.190          49.250          51.810          51.500          53.500          55.620
E36  27687603.681    27687611.569    27687611.100    27687604.559    27687607.328       -3302.784       -2466.291       -2680.651       -2530.509       -2498.432   145499337.811   108652135.953   118100147.706   111486516.418   110069337.262          40.430          39.180          39.370          39.370          42.250
G01  22759526.749    22759526.445    22759529.530    22759529.280    22759532.226       -3591.657       -3591.657       -2798.652       -2798.693       -2681.999   119602135.757   119602135.757    93196480.284    93196486.281    89313309.565          43.370          31.180          41.620          31.180          46.250
G07  20383803.703    20383803.265    20383802.155    20383801.816                         515.975         515.975         402.102         402.058                   107117646.837   107117646.837    83468312.096    83468314.086                          49.620          46.000          48.310          46.000
G08  20686430.718    20686430.052    20686432.426    20686431.657    20686434.459        1646.831        1646.831        1283.253        1283.246        1229.772   108707996.833   108707996.833    84707577.287    84707549.283    81178087.859          50.060          55.500          48.370          55.500          53.310
G11  20847003.719    20847003.040                    20847001.013                       -1548.982       -1548.982                       -1206.999                   109551800.266   109551800.266                    85365042.905                          50.060          42.370                          42.370
G13  24117349.003    24117348.601                    24117345.953                       -1801.888       -1801.888                       -1404.071                   126737524.256   126737524.256                    98756497.236                          41.500          21.500                          21.500
G14  22515720.544    22515720.294    22515719.524    22515719.327    22515727.148       -2605.599       -2605.599       -2030.388       -2030.337       -1945.761   118320927.094   118320927.094    92198118.548    92198132.545    88356580.420          45.680          35.370          44.310          35.370          48.370
G21  21855226.732    21855225.596                    21855224.205                       -1516.709       -1516.709                       -1181.851                   114850012.241   114850012.241                    89493531.544                          48.620          38.250                          38.250
G27  23251492.043    23251491.359    23251492.714    23251492.651    23251496.134        3416.787        3416.787        2662.518        2662.430        2551.483   122187481.511   122187481.511    95211071.050    95211068.045    91243949.984          42.930          44.000          42.120          44.000          46.250
G28  23141694.539    23141693.699                    23141692.978                       -2369.659       -2369.659                       -1846.488                   121610439.276   121610439.276                    94761386.299                          42.310          28.180                          28.180
G30  21051697.433    21051696.710    21051698.663    21051697.844    21051701.635       -1527.811       -1527.811       -1190.510       -1190.503       -1140.881   110627443.396   110627443.396    86203223.574    86203212.564    82611432.143          50.500          44.620          47.930          44.620          53.250
R02  23100962.593    23100962.817    23100965.390    23100965.497        1177.492        1177.552         915.848         915.908   123271154.047   123271178.058    95877593.492    95877591.479          46.680          46.120          42.310          42.750
R10  20285713.601    20285713.239                                        2016.169        2016.160                                   108134308.715   108134312.724                                          51.810          52.250
R11  19722440.950    19722441.143    19722443.232    19722443.295       -1753.761       -1753.792       -1364.027       -1364.098   105390781.645   105390775.642    81970649.768    81970631.773          52.680          53.430          51.250          51.250
R12  23402865.070    23402865.910    23402869.501    23402869.586       -3703.441       -3703.353       -2880.528       -2880.484   125013913.429   125013919.437    97233071.876    97233059.866          45.500          44.680          42.750          42.500
R20  20259808.640    20259808.833    20259814.613    20259813.991        1985.138        1985.003        1543.970        1543.916   108338348.307   108338345.313    84263203.386    84263204.379          43.060          42.250          49.310          50.250
R21  20133200.142    20133200.285    20133204.905    20133204.767       -2761.029       -2761.015       -2147.438       -2147.477   107737273.368   107736856.363    83795617.874    83795377.882          53.120          53.560          49.680          49.810
R22  23831666.179    23831666.738                                       -4629.830       -4629.647                                   127215051.337   127215048.366                                          40.500          38.810
> 2021 01 03 00 10 30.0000000  0 25
E02  26630368.649    26630374.203    26630375.969    26630368.164    26630369.918       -2342.799       -1749.499       -1901.616       -1795.196       -1772.364   139943553.868   104503324.892   113590589.837   107229474.087   105866407.066          42.180          44.250          42.370          45.180          47.680
E03  27198089.516    27198096.000    27198095.621    27198089.684    27198092.149        2329.680        1739.595        1890.838        1784.650        1762.155   142926913.302   106731195.464   116012173.181   109515465.833   108123342.730          33.250          34.810          29.370          36.180          38.430
E08  25414041.966    25414045.888    25414050.556    25414040.770    25414042.560         336.064         251.009         272.927         257.639         254.344   133551717.023    99730192.960   108402395.040   102331812.732   101031017.924          40.680          39.180          41.060          42.250          43.870
E11  22656841.521    22656844.526    22656845.635    22656838.362    22656840.715       -2134.420       -1593.764       -1732.467       -1635.419       -1614.591   119062545.363    88910365.890    96641700.263    91229736.637    90070065.341          45.750          46.120          45.870          47.430          49.680
E12  23272768.433    23272771.796    23272772.297    23272765.471    23272767.641         791.682         591.221         642.641         606.620         598.923   122299260.917    91327416.801    99268926.426    93709846.500    92518643.728          44.430          46.430          45.180          47.500          49.930
E24  24850824.032    24850828.669    24850830.503    24850822.434    24850824.563        1603.570        1197.424        1301.573        1228.691        1213.060   130592011.978    97520058.120   106000063.986   100064036.798    98792056.537          48.750          49.680          48.810          51.310          53.430
E25  23671554.915    23671561.184    23671560.916    23671554.930    23671557.212        -764.774        -571.055        -620.728        -585.954        -578.507   124394885.532    92892323.400   100969915.064    95315572.510    94103963.533          49.120          51.870          51.370          53.500          55.680
E36  27668748.763    27668758.162    27668756.910    27668750.848    27668753.577       -3302.573       -2466.073       -2680.445       -2530.314       -2498.186   145400261.427   108578150.344   118019728.558   111410600.739   109994386.620          39.500          38.930          39.000          39.120          41.930
G01  22739046.450    22739046.154    22739047.866    22739048.095    22739050.508       -3583.816       -3583.816       -2792.585       -2792.585       -2676.194   119494505.593   119494505.593    93112612.671    93112618.658    89232936.428          44.430          32.180          42.250          32.180          46.250
G07  20386802.440    20386802.007    20386800.557    20386800.423                         534.518         534.518         416.541         416.509                   107133405.106   107133405.106    83480591.266    83480593.252                          49.870          46.000          48.310          46.000
G08  20695871.941    20695871.275    20695873.895    20695872.960    20695875.722        1660.718        1660.718        1294.055        1294.066        1240.145   108757611.045   108757611.045    84746237.714    84746209.708    81215137.437          50.060          55.500          48.810          55.500          53.310
G11  20838212.415    20838211.731                    20838209.822                       -1530.824       -1530.824                       -1192.850                   109505602.328   109505602.328                    85329044.517                          50.000          42.500                          42.500
G13  24107111.013    24107110.611                    24107108.021                       -1784.637       -1784.637                       -1390.615                   126683725.753   126683725.753                    98714576.327                          40.310          20.000                          20.000
G14  22500860.318    22500860.068    22500859.218    22500858.614    22500866.367       -2600.548       -2600.548       -2026.401       -2026.401       -1942.019   118242835.355   118242835.355    92137267.845    92137281.845    88298265.156          46.120          35.180          44.370          35.180          48.060
G21  21846614.261    21846613.121                    21846611.949                       -1500.410       -1500.410                       -1169.146                   114804754.952   114804754.952                    89458266.146                          48.680          38.500                          38.500
G27  23271011.798    23271011.110    23271012.737    23271012.223    23271015.642        3421.689        3421.689        2666.135        2666.251        2555.139   122290057.189   122290057.189    95291000.119    95290997.126    91320548.694          43.180          43.310          42.560          43.310          46.120
G28  23128176.847    23128175.998                    23128175.456                       -2366.047       -2366.047                       -1843.675                   121539404.590   121539404.590                    94706034.623                          42.250          27.930                          27.930
G30  21043020.943    21043020.215    21043021.837    21043021.310    21043025.101       -1511.846       -1511.846       -1178.087       -1178.062       -1128.973   110581848.037   110581848.037    86167694.724    86167683.715    82577383.659          50.680          44.750          48.000          44.750          53.310
R02  23107648.022    23107648.004    23107651.450    23107651.302        1200.697        1200.740         933.890         933.785   123306828.507   123306852.521    95905340.298    95905338.293          47.430          46.750          43.430          43.000
R10  20297102.255    20297101.741                                        2031.023        2031.061                                   108195016.698   108195020.703                                          51.810          52.120
R11  19712633.542    19712633.747    19712635.730    19712635.774       -1740.136       -1740.109       -1353.405       -1353.417   105338372.911   105338366.912    81929887.423    81929869.430          52.810          53.370          51.370          51.180
R12  23382066.462    23382066.458    23382068.546    23382068.796       -3703.660       -3703.702       -2880.602       -2880.647   124902806.417   124902812.413    97146655.281    97146643.281          46.370          45.500          40.310          40.500
R20  20271011.151    20271011.570    20271017.351    20271016.788        2008.570        2008.613        1562.220        1562.236   108398253.954   108398250.956    84309796.667    84309797.668          43.370          42.120          49.560          50.310
R21  20117781.115    20117781.441    20117785.789    20117785.874       -2739.607       -2739.589       -2130.819       -2130.826   107654763.973   107654346.972    83731443.924    83731203.923          53.310          53.750          49.870          49.930
R22  23805653.378    23805653.775                                       -4626.755       -4626.587                                   127076203.022   127076200.061                                          38.810          37.500
> 2021 01 03 00 11 00.0000000  0 25
E02  26616995.672    26617001.623    26617002.379    26616994.918    26616997.490       -2341.994       -1748.920       -1900.876       -1794.458       -1771.704   139873281.306   104450848.623   113533550.421   107175628.877   105813246.328          42.060          44.000          41.620          44.560          47.180
E03  27211406.607    27211414.674    27211412.828    27211407.638    27211409.750        2336.167        1744.634        1895.582        1790.082        1767.350   142996897.670   106783456.494   116068978.671   109569090.232   108176285.444          32.180          35.000          26.370          36.060          38.370
E08  25416000.836    25416005.102    25416009.954    25415999.175    25416001.649         350.141         261.508         284.184         268.293         264.904   133562011.833    99737880.632   108410751.205   102339700.951   101038805.868          40.810          39.620          41.310          41.250          43.430
E11  22644688.505    22644691.563    22644692.297    22644685.265    22644687.645       -2123.267       -1585.524       -1723.434       -1626.900       -1606.211   118998680.745    88862674.810    96589862.121    91180801.435    90021752.200          46.430          46.180          45.620          47.250          49.680
E12  23277329.046    23277332.158    23277332.606    23277325.940    23277328.101         806.023         601.834         654.280         617.548         609.693   122323226.199    91345312.961    99288378.772    93728209.516    92536773.315          44.750          46.500          45.060          47.250          49.810
E24  24859994.422    24859999.122    24860001.054    24859992.859    24859995.038        1609.203        1201.668        1306.179        1232.984        1217.336   130640203.177    97556045.046   106039180.211   100100962.514    98828512.859          48.930          49.680          48.750          51.060          53.310
E25  23667206.566    23667213.103    23667212.683    23667206.809    23667209.011        -758.621        -566.466        -615.712        -581.253        -573.859   124372035.588    92875260.132   100951368.034    95298064.114    94086677.701          49.310          52.000          51.310          53.310          55.620
E36  27649896.196    27649906.230    27649905.444    27649899.404    27649901.498       -3302.047       -2465.852       -2680.277       -2530.235       -2498.035   145301193.714   108504171.248   117939316.510   111334691.738   109919442.573          38.870          38.560          39.680          39.250          41.810
G01  22718609.247    22718608.944    22718611.286    22718611.858    22718613.749       -3575.831       -3575.831       -2786.218       -2786.363       -2670.208   119387111.578   119387111.578    93028929.082    93028935.058    89152739.639          44.370          32.310          41.620          32.310          45.870
G07  20389906.851    20389906.413    20389904.923    20389904.717                         553.062         553.062         430.921         430.957                   107149718.650   107149718.650    83493303.108    83493305.099                          50.180          46.250          48.500          46.250
G08  20705392.356    20705391.699    20705394.019    20705393.313    20705396.107        1674.544        1674.544        1304.852        1304.841        1250.472   108807640.824   108807640.824    84785221.960    84785193.954    81252497.340          50.370          55.680          48.620          55.680          53.120
G11  20829524.643    20829523.959                    20829522.559                       -1512.648       -1512.648                       -1178.686                   109459950.192   109459950.192                    85293471.427                          50.180          42.870                          42.870
G13  24096972.199    24096971.784                    24096969.869                       -1767.316       -1767.316                       -1377.131                   126630447.291   126630447.291                    98673060.641                          40.120          21.500                          21.500
G14  22486028.510    22486028.260    22486027.284    22486027.163    22486034.701       -2595.485       -2595.485       -2022.414       -2022.456       -1938.244   118164894.461   118164894.461    92076534.717    92076548.704    88240062.557          45.810          35.310          44.120          35.310          48.120
G21  21838095.655    21838094.520                    21838093.159                       -1483.989       -1483.989                       -1156.357                   114759988.595   114759988.595                    89423383.301                          48.870          38.680                          38.680
G27  23290558.088    23290557.386    23290559.572    23290558.816    23290562.294        3426.315        3426.315        2669.851        2669.856        2558.635   122392775.921   122392775.921    95371040.716    95371037.708    91397254.253          42.620          43.180          42.430          43.180          45.500
G28  23114680.394    23114679.549                    23114678.592                       -2362.362       -2362.362                       -1840.798                   121468477.575   121468477.575                    94650766.826                          43.310          28.870                          28.870
G30  21034436.179    21034435.451    21034436.966    21034436.505    21034440.332       -1495.683       -1495.683       -1165.503       -1165.468       -1116.918   110536734.796   110536734.796    86132541.548    86132530.539    82543695.204          51.120          45.060          48.000          45.060          53.120
R02  23114463.406    23114462.802    23114466.994    23114467.217        1223.813        1223.792         951.848         951.860   123343197.818   123343221.822    95933627.549    95933625.546          47.250          46.430          44.060          43.430
R10  20308574.704    20308574.583                                        2045.928        2045.958                                   108256171.720   108256175.726                                          51.620          52.180
R11  19702902.504    19702902.808    19702904.862    19702904.996       -1726.398       -1726.359       -1342.723       -1342.696   105286374.948   105286368.951    81889444.570    81889426.579          52.680          53.250          51.180          51.310
R12  23361264.116    23361264.630    23361268.682    23361268.552       -3703.927       -3703.914       -2880.832       -2880.877   124791692.086   124791698.090    97060233.010    97060221.019          44.750          44.250          42.500          42.370
R20  20282345.703    20282345.547    20282351.689    20282351.010        2032.078        2032.012        1580.499        1580.463   108458863.755   108458860.756    84356937.618    84356938.621          42.930          42.120          49.430          50.180
R21  20102482.612    20102482.938    20102487.608    20102487.635       -2718.037       -2718.018       -2114.022       -2114.052   107572899.857   107572482.859    83667771.848    83667531.853          53.310          53.750          49.930          50.060
R22  23779662.715    23779660.090                                       -4623.709       -4623.631                                   126937445.982   126937442.998                                          39.310          37.870
> 2021 01 03 00 11 30.0000000  0 25
E02  26603629.151    26603634.468    26603636.297    26603628.116    26603630.107       -2341.068       -1748.147       -1900.142       -1793.802       -1770.987   139803035.909   104398392.676   113476533.080   107121804.496   105760106.164          42.560          44.000          42.500          45.310          47.560
E03  27224760.952    27224768.482    27224769.426    27224762.054    27224764.501        2342.496        1749.353        1901.157        1794.916        1772.074   143067077.956   106835863.887   116125943.293   109622864.757   108229376.399          31.370          34.060          26.500          35.310          37.620
E08  25418040.089    25418045.812    25418048.840    25418039.040    25418040.794         364.179         272.089         295.591         279.031         275.552   133572727.820    99745882.823   108419449.212   102347911.887   101046912.431          41.120          41.430          40.750          41.500          44.370
E11  22632599.572    22632602.675    22632603.655    22632596.457    22632598.770       -2111.865       -1577.034       -1714.188       -1618.169       -1597.611   118935153.496    88815235.661    96538297.815    91132124.740    89973694.277          46.310          46.310          45.870          47.500          49.870
E12  23281970.961    23281974.310    23281974.776    23281968.218    23281970.249         820.348         612.508         665.863         628.538         620.534   122347620.722    91363529.641    99308179.512    93746901.417    92555227.608          44.750          46.500          45.180          47.620          50.060
E24  24869196.870    24869201.780    24869203.730    24869195.521    24869197.700        1614.819        1205.852        1310.779        1237.305        1221.584   130688563.472    97592158.246   106078433.698   100138017.799    98865097.101          48.750          49.680          48.680          51.120          53.370
E25  23662893.373    23662900.018    23662899.329    23662893.652    23662895.844        -752.484        -561.891        -610.770        -576.541        -569.220   124349369.731    92858334.333   100932970.425    95280696.775    94069531.132          49.250          52.120          51.430          53.500          55.750
E36  27631048.222    27631056.696    27631055.582    27631049.695    27631051.588       -3301.749       -2465.597       -2679.992       -2530.106       -2497.850   145202136.506   108430199.951   117858912.923   111258790.747   109844506.428          40.250          38.680          40.430          40.500          42.560
G01  22698218.117    22698217.826    22698220.526    22698220.406    22698223.530       -3567.635       -3567.635       -2780.092       -2779.974       -2664.227   119279957.157   119279957.157    92945432.141    92945438.133    89072721.759          43.750          31.250          41.810          31.250          46.500
G07  20393116.805    20393116.367    20393115.315    20393114.949                         571.589         571.589         445.393         445.393                   107166587.976   107166587.976    83506448.037    83506450.022                          49.810          46.120          48.500          46.120
G08  20714991.213    20714990.547    20714993.390    20714992.522    20714995.330        1688.314        1688.314        1315.522        1315.569        1260.734   108858084.929   108858084.929    84824529.056    84824501.052    81290166.643          49.810          55.430          48.810          55.430          53.120
G11  20820941.739    20820941.060                    20820939.507                       -1494.344       -1494.344                       -1164.423                   109414845.592   109414845.592                    85258324.996                          50.060          42.810                          42.810
G13  24086932.543    24086932.132                    24086931.081                       -1749.751       -1749.751                       -1363.443                   126577690.526   126577690.526                    98631951.455                          39.250          20.680                          20.680
G14  22471225.440    22471225.195    22471224.442    22471224.143    22471232.088       -2590.284       -2590.284       -2018.518       -2018.402       -1934.378   118087105.210   118087105.210    92015919.717    92015933.713    88181973.194          45.430          34.870          44.180          34.870          48.430
G21  21829670.572    21829669.442                    21829668.166                       -1467.542       -1467.542                       -1143.534                   114715714.950   114715714.950                    89388884.379                          48.810          38.680                          38.680
G27  23310131.842    23310131.136    23310132.374    23310132.150    23310135.659        3430.764        3430.764        2673.460        2673.323        2562.075   122495635.518   122495635.518    95451191.053    95451188.036    91474065.002          43.310          43.430          42.310          43.430          45.370
G28  23101204.315    23101203.465                    23101202.212                       -2358.794       -2358.794                       -1838.021                   121397658.491   121397658.491                    94595583.115                          43.930          29.430                          29.430
G30  21025943.637    21025942.904    21025944.344    21025943.861    21025947.603       -1479.533       -1479.533       -1152.888       -1152.882       -1104.858   110492105.550   110492105.550    86097765.507    86097754.503    82510368.168          50.810          45.000          48.120          45.000          53.120
R02  23121409.235    23121409.513    23121412.349    23121412.305        1246.902        1246.994         969.806         969.839   123380259.913   123380283.916    95962453.604    95962451.605          46.750          46.120          43.430          43.560
R10  20320130.964    20320130.548                                        2060.838        2060.865                                   108317773.196   108317777.201                                          51.620          51.870
R11  19693249.389    19693249.424    19693251.434    19693251.693       -1712.585       -1712.554       -1331.965       -1332.009   105234790.292   105234784.292    81849323.168    81849305.175          52.750          53.310          51.250          51.430
R12  23340462.066    23340462.540    23340466.796    23340466.743       -3703.991       -3704.155       -2880.895       -2880.958   124680572.050   124680578.043    96973806.412    96973794.412          43.930          43.500          42.750          42.870
R20  20293811.301    20293811.189    20293817.130    20293816.240        2055.322        2055.309        1598.634        1598.599   108520174.312   108520171.315    84404623.615    84404624.620          43.120          41.930          49.250          50.310
R21  20087305.791    20087305.849    20087310.608    20087310.492       -2696.396       -2696.383       -2097.172       -2097.236   107491683.827   107491266.824    83604603.832    83604363.831          53.000          53.680          49.810          50.060
R22  23753683.223    23753683.214                                       -4620.397       -4620.482                                   126798783.947   126798780.961                                          41.250          39.620
> 2021 01 03 00 12 00.0000000  0 25
E02  26590267.420    26590271.958    26590274.239    26590266.586    26590268.268       -2340.150       -1747.478       -1899.512       -1793.059       -1770.275   139732818.139   104345957.345   113419538.143   107068001.298   105706986.899          42.680          43.310          42.620          45.500          47.370
E03  27238152.652    27238161.560    27238162.481    27238153.986    27238156.211        2349.095        1754.089        1906.758        1799.990        1777.057   143137452.323   106888416.141   116183065.305   109676787.920   108282614.108          30.000          34.680          27.750          35.060          37.750
E08  25420159.450    25420163.953    25420168.403    25420158.187    25420160.303         378.122         282.390         307.008         289.763         286.087   133583864.383    99754199.072   108428488.663   102356445.123   101055337.177          41.370          40.060          41.180          41.680          43.870
E11  22620575.356    22620578.200    22620579.081    22620572.090    22620574.349       -2100.669       -1568.639       -1705.014       -1609.584       -1589.100   118871965.073    88768049.554    96487008.551    91083707.683    89925892.696          46.060          46.250          45.870          47.370          49.810
E12  23286694.756    23286697.797    23286698.437    23286691.821    23286693.870         834.667         623.223         677.482         639.465         631.341   122372443.612    91382066.223    99328327.971    93765921.561    92574005.969          44.500          46.370          45.060          47.370          49.810
E24  24878431.767    24878436.682    24878438.636    24878430.311    24878432.580        1620.517        1210.122        1315.372        1241.636        1225.875   130737092.923    97628397.762   106117824.478   100175202.692    98901809.305          48.430          49.430          48.750          50.870          53.180
E25  23658615.390    23658622.016    23658621.301    23658615.598    23658617.821        -746.250        -557.264        -605.682        -571.819        -564.545   124326888.611    92841546.483   100914722.766    95263470.979    94052524.310          49.000          51.930          51.310          53.310          55.620
E36  27612198.035    27612208.981    27612207.797    27612202.307    27612203.963       -3301.389       -2465.174       -2679.567       -2529.628       -2497.396   145103091.334   108356237.713   117778519.193   111182899.056   109769579.462          38.680          39.370          40.060          41.060          43.120
G01  22677873.169    22677872.891    22677875.373    22677875.672    22677878.917       -3559.625       -3559.625       -2773.735       -2773.733       -2658.185   119173045.661   119173045.661    92862124.510    92862130.496    88992885.296          43.430          32.060          41.750          32.060          47.060
G07  20396432.969    20396432.531    20396431.422    20396430.961                         590.134         590.134         459.807         459.846                   107184013.247   107184013.247    83520026.158    83520028.146                          49.930          46.180          48.500          46.180
G08  20724669.186    20724668.525    20724670.876    20724670.026    20724672.927        1702.054        1702.054        1326.262        1326.278        1270.980   108908940.839   108908940.839    84864157.040    84864129.032    81328143.458          50.060          55.500          48.680          55.500          53.430
G11  20812463.655    20812462.985                    20812460.837                       -1476.026       -1476.026                       -1150.152                   109370289.741   109370289.741                    85223606.158                          50.060          42.930                          42.930
G13  24076993.200    24076992.798                    24076991.393                       -1732.403       -1732.403                       -1349.937                   126525457.029   126525457.029                    98591250.056                          38.500          20.370                          20.370
G14  22456451.436    22456451.195    22456450.600    22456450.130    22456458.129       -2585.342       -2585.342       -2014.508       -2014.553       -1930.609   118009468.394   118009468.394    91955423.498    91955437.497    88123997.670          45.500          35.000          44.120          35.000          48.750
G21  21821339.345    21821338.205                    21821337.212                       -1451.121       -1451.121                       -1130.741                   114671935.543   114671935.543                    89354770.575                          48.680          38.750                          38.750
G27  23329731.692    23329731.014    23329733.181    23329732.492    23329736.149        3435.568        3435.568        2677.029        2677.066        2565.528   122598633.751   122598633.751    95531449.404    95531446.411    91550979.263          42.870          43.680          42.870          43.680          46.250
G28  23087749.068    23087748.214                    23087746.841                       -2355.254       -2355.254                       -1835.264                   121326947.828   121326947.828                    94540483.908                          44.310          30.120                          30.120
G30  21017543.489    21017542.756    21017544.298    21017543.725    21017547.503       -1463.298       -1463.298       -1140.221       -1140.231       -1092.737   110447962.195   110447962.195    86063368.093    86063357.084    82477403.976          50.930          45.180          48.250          45.180          53.430
R02  23128483.668    23128483.561    23128486.693    23128487.033        1269.910        1269.901         987.671         987.775   123418012.015   123418036.011    95991816.338    95991814.345          47.500          47.310          42.810          42.870
R10  20331770.915    20331770.772                                        2075.634        2075.604                                   108379820.911   108379824.914                                          51.810          51.870
R11  19683673.744    19683673.870    19683675.932    19683676.022       -1698.643       -1698.655       -1321.192       -1321.166   105183621.371   105183615.368    81809525.126    81809507.132          52.750          53.180          51.430          51.560
R12  23319659.098    23319659.760    23319663.909    23319663.722       -3704.106       -3704.111       -2881.048       -2881.065   124569447.982   124569453.982    96887376.567    96887364.576          44.870          44.430          40.120          40.430
R20  20305406.692    20305406.674    20305412.960    20305412.379        2078.575        2078.452        1616.657        1616.662   108582182.375   108582179.377    84452852.125    84452853.125          42.930          41.930          49.430          50.620
R21  20072250.285    20072250.298    20072254.789    20072254.941       -2674.615       -2674.632       -2080.278       -2080.255   107411118.589   107410701.587    83541941.993    83541701.994          53.370          53.810          50.060          50.000
R22  23727725.400    23727725.356                                       -4617.131       -4617.157                                   126660220.055   126660217.057                                          41.250          40.250
> 2021 01 03 00 12 30.0000000  0 25
E02  26576909.588    26576915.741    26576917.498    26576908.910    26576911.590       -2339.159       -1746.845       -1898.692       -1792.352       -1769.622   139662628.418   104293542.935   113362565.968   107014219.564   105653888.827          41.750          44.180          42.750          45.000          47.500
E03  27251581.144    27251589.181    27251586.686    27251581.992    27251584.672        2355.744        1758.812        1912.086        1804.696        1781.771   143208018.562   106941111.726   116240343.154   109730858.189   108335997.041          29.560          34.680          26.000          35.000          37.810
E08  25422358.661    25422363.790    25422367.278    25422357.326    25422359.715         392.380         292.758         318.392         300.507         296.648   133595421.097    99762829.055   108437869.103   102365300.266   101064079.740          41.560          40.620          41.310          42.310          44.430
E11  22608615.872    22608618.465    22608619.441    22608612.655    22608614.722       -2089.240       -1560.162       -1695.811       -1600.858       -1580.506   118809116.882    88721117.490    96435995.430    91035551.305    89878348.474          46.180          46.370          46.000          47.620          50.000
E12  23291499.618    23291502.686    23291503.710    23291496.812    23291498.848         848.759         633.859         688.982         650.367         642.118   122397693.985    91400922.028    99348823.399    93785269.251    92593107.717          44.620          46.310          45.180          47.560          49.930
E24  24887698.923    24887703.721    24887705.788    24887697.530    24887699.642        1626.128        1214.334        1319.904        1245.984        1230.156   130785791.556    97664763.617   106157352.584   100212517.226    98938649.500          48.370          49.750          48.870          51.000          53.310
E25  23654372.647    23654379.184    23654378.590    23654372.837    23654375.052        -740.134        -552.688        -600.805        -567.103        -559.893   124304592.792    92824897.012   100896625.509    95246387.172    94035657.671          49.060          52.250          51.370          53.430          55.810
E36  27593355.637    27593363.386    27593362.340    27593357.092    27593358.931       -3300.788       -2464.931       -2679.280       -2529.120       -2497.008   145004060.015   108282285.742   117698136.606   111107017.924   109694662.912          40.000          39.500          39.310          41.560          43.560
G01  22657576.022    22657575.763    22657578.450    22657577.962    22657580.819       -3551.242       -3551.242       -2767.332       -2767.202       -2651.899   119066380.551   119066380.551    92779008.840    92779014.848    88913232.806          43.810          31.870          42.310          31.870          46.870
G07  20399854.632    20399854.194    20399852.982    20399852.647                         608.628         608.628         474.223         474.257                   107201994.227   107201994.227    83534037.310    83534039.297                          49.810          46.120          48.560          46.120
G08  20734424.893    20734424.232    20734426.342    20734425.618    20734428.527        1715.642        1715.642        1336.842        1336.865        1281.183   108960206.882   108960206.882    84904104.610    84904076.601    81366426.549          50.120          55.370          48.560          55.370          53.500
G11  20804089.338    20804088.663                    20804086.838                       -1457.707       -1457.707                       -1135.873                   109326283.923   109326283.923                    85189315.912                          49.870          42.680                          42.680
G13  24067152.943    24067152.537                    24067151.131                       -1714.841       -1714.841                       -1336.246                   126473748.756   126473748.756                    98550957.891                          38.250          19.810                          19.810
G14  22441706.972    22441706.731    22441706.099    22441705.813    22441713.767       -2580.218       -2580.218       -2010.548       -2010.562       -1926.837   117931984.810   117931984.810    91895046.694    91895060.683    88066136.565          45.620          35.560          44.370          35.560          49.120
G21  21813102.992    21813101.852                    21813100.635                       -1434.504       -1434.504                       -1117.792                   114628651.707   114628651.707                    89321042.938                          48.810          38.750                          38.750
G27  23349357.425    23349356.755    23349358.175    23349358.332    23349361.416        3440.046        3440.046        2680.459        2680.552        2568.910   122701768.317   122701768.317    95611814.006    95611811.002    91627995.341          42.370          43.500          42.250          43.500          45.430
G28  23074314.118    23074313.251                    23074311.480                       -2351.625       -2351.625                       -1832.432                   121256345.668   121256345.668                    94485469.258                          44.250          30.000                          30.000
G30  21009236.001    21009235.268    21009237.042    21009236.394    21009240.065       -1447.027       -1447.027       -1127.641       -1127.552       -1080.584   110404306.596   110404306.596    86029350.749    86029339.741    82444804.025          50.560          44.870          48.310          44.870          53.500
R02  23135688.298    23135687.538    23135690.911    23135690.526        1292.808        1292.808        1005.475        1005.557   123456452.158   123456476.162    96021714.249    96021712.247          47.250          46.560          42.430          42.310
R10  20343494.338    20343493.971                                        2090.476        2090.508                                   108442314.179   108442318.187                                          51.120          51.620
R11  19674176.287    19674176.622    19674178.787    19674178.810       -1684.688       -1684.682       -1310.320       -1310.327   105132870.458   105132864.459    81770052.193    81770034.203          52.620          53.120          51.060          51.560
R12  23298855.912    23298856.287    23298860.285    23298861.063       -3704.280       -3704.203       -2881.045       -2881.048   124458321.783   124458327.779    96800945.118    96800933.125          44.120          43.930          42.120          42.060
R20  20317131.725    20317132.248    20317138.516    20317138.001        2101.494        2101.598        1634.588        1634.575   108644884.674   108644881.678    84501620.577    84501621.579          42.750          41.870          49.500          50.430
R21  20057317.078    20057316.966    20057321.341    20057321.528       -2652.768       -2652.766       -2063.262       -2063.291   107331206.998   107330789.994    83479788.550    83479548.549          53.250          53.750          49.680          49.930
R22  23701789.073    23701788.639                                       -4613.743       -4613.612                                   126521757.672   126521754.693                                          43.310          41.930
> 2021 01 03 00 13 00.0000000  0 25
E02  26563558.910    26563564.701    26563566.226    26563558.389    26563560.384       -2338.172       -1746.076       -1897.904       -1791.546       -1768.805   139592467.203   104241149.850   113305616.970   106960459.705   105600812.356          42.560          44.310          42.750          45.310          47.750
E03  27265045.276    27265053.272                    27265046.946    27265049.157        2361.606        1763.622                        1809.722        1786.669   143278774.869   106993949.212                   109785074.057   108389523.713          28.810          34.680                          35.500          38.060
E08  25424637.999    25424642.462    25424646.518    25424636.794    25424638.427         406.256         303.422         329.701         311.329         307.363   133607397.407    99771772.427   108447590.120   102374476.908   101073139.745          42.000          40.120          41.560          42.810          44.500
E11  22596720.936    22596723.945    22596724.469    22596717.870    22596720.094       -2077.828       -1551.568       -1686.500       -1592.088       -1571.835   118746610.224    88674440.475    96385259.527    90987656.620    89831062.625          46.250          46.310          45.750          47.560          50.000
E12  23296385.719    23296389.064    23296389.910    23296383.025    23296385.012         863.018         644.419         700.486         661.237         652.836   122423370.958    91420096.396    99369665.112    93804943.825    92612532.190          44.430          46.430          44.930          47.430          49.930
E24  24896998.015    24897002.943    24897004.960    24896996.815    24896998.873        1631.794        1218.521        1324.496        1250.260        1234.383   130834659.415    97701255.845   106197018.048   100249961.418    98975617.708          48.430          49.620          48.560          51.000          53.310
E25  23650165.280    23650171.772    23650171.196    23650165.536    23650167.680        -733.867        -548.025        -595.673        -562.295        -555.157   124282482.916    92808386.389   100878679.182    95229445.836    94018931.690          49.060          52.060          51.120          53.310          55.680
E36  27574509.805    27574521.234    27574519.938    27574514.663    27574516.927       -3300.150       -2464.482       -2678.816       -2528.758       -2496.621   144905044.121   108208345.330   117617766.592   111031148.624   109619758.054          37.930          39.620          39.310          42.060          43.810
G01  22637325.707    22637325.444    22637328.407    22637328.108    22637331.014       -3542.992       -3542.992       -2760.753       -2760.774       -2645.739   118959965.088   118959965.088    92696087.771    92696093.750    88833766.771          44.060          32.120          42.560          32.120          46.930
G07  20403382.107    20403381.670    20403380.417    20403380.166                         627.189         627.189         488.688         488.718                   107220531.507   107220531.507    83548481.936    83548483.926                          49.810          46.180          48.430          46.180
G08  20744257.933    20744257.267    20744259.833    20744258.854    20744261.818        1729.224        1729.224        1347.460        1347.447        1291.309   109011880.974   109011880.974    84944370.141    84944342.133    81405014.350          49.750          55.500          48.810          55.500          53.310
G11  20795820.101    20795819.426                    20795817.753                       -1439.302       -1439.302                       -1121.534                   109282829.846   109282829.846                    85155455.594                          49.750          42.810                          42.810
G13  24057414.182    24057413.740                    24057412.049                       -1697.249       -1697.249                       -1322.537                   126422567.357   126422567.357                    98511076.284                          39.620          22.000                          22.000
G14  22426991.770    22426991.529    22426990.933    22426990.624    22426998.082       -2575.063       -2575.063       -2006.546       -2006.540       -1922.900   117854655.206   117854655.206    91834789.880    91834803.873    88008390.464          45.680          35.680          44.930          35.680          48.500
G21  21804960.614    21804959.470                    21804958.691                       -1417.906       -1417.906                       -1104.862                   114585865.269   114585865.269                    89287702.874                          48.430          39.000                          39.000
G27  23369009.598    23369008.950    23369009.553    23369009.334    23369013.250        3444.546        3444.546        2683.913        2684.062        2572.279   122805037.098   122805037.098    95692283.165    95692280.168    91705111.619          42.680          42.500          41.870          42.500          45.310
G28  23060899.394    23060898.545                    23060897.099                       -2348.005       -2348.005                       -1829.613                   121185852.546   121185852.546                    94430539.550                          44.310          30.810                          30.810
G30  21001021.304    21001020.576    21001022.681    21001022.131    21001025.833       -1430.672       -1430.672       -1114.841       -1114.808       -1068.411   110361140.669   110361140.669    85995714.961    85995703.951    82412569.727          50.310          44.930          48.250          44.930          53.310
R02  23143018.628    23143019.129    23143022.306    23143022.521        1315.634        1315.661        1023.407        1023.271   123495577.789   123495601.784    96052145.303    96052143.304          46.250          46.120          42.750          42.750
R10  20355301.407    20355301.179                                        2105.362        2105.357                                   108505252.912   108505256.912                                          51.810          51.680
R11  19664757.467    19664758.052    19664759.954    19664760.034       -1670.663       -1670.676       -1299.419       -1299.378   105082540.082   105082534.080    81730906.346    81730888.356          52.930          53.120          51.120          51.430
R12  23278053.620    23278054.156    23278057.791    23278058.149       -3704.227       -3704.245       -2881.085       -2881.096   124347194.998   124347200.997    96714513.226    96714501.228          46.620          46.060          42.120          42.000
R20  20328987.628    20328987.468    20328993.659    20328993.002        2124.540        2124.610        1652.469        1652.529   108708277.904   108708274.919    84550926.426    84550927.434          43.250          41.870          49.560          50.430
R21  20042505.879    20042505.981    20042510.276    20042510.607       -2630.839       -2630.854       -2046.218       -2046.222   107251951.541   107251534.542    83418145.431    83417905.438          53.250          53.620          49.430          50.180
R22  23675867.891    23675867.381                                       -4610.180       -4610.171                                   126383400.120   126383397.134                                          41.120          40.060
> 2021 01 03 00 13 30.0000000  0 25
E02  26550213.572    26550218.920    26550221.080    26550212.143    26550214.576       -2337.279       -1745.378       -1897.146       -1790.865       -1768.111   139522334.960   104188778.376   113248691.441   106906722.009   105547757.772          42.930          44.370          43.310          44.620          47.430
E03  27278547.211    27278553.512    27278554.214    27278547.137    27278549.473        2367.785        1768.243        1922.342        1814.377        1791.305   143349719.154   107046927.022   116355359.750   109839433.898   108443192.538          30.060          35.120          26.930          35.120          38.120
E08  25426996.730    25427001.914    25427005.496    25426995.338    25426996.636         420.213         313.765         341.152         321.958         317.850   133619792.752    99781028.719   108457651.277   102383974.611   101082516.742          41.870          40.370          41.370          42.000          44.120
E11  22584891.809    22584894.447    22584895.646    22584888.479    22584890.707       -2066.360       -1543.118       -1677.292       -1583.395       -1563.257   118684446.601    88628019.621    96334802.065    90940024.790    89784036.283          46.120          46.310          46.000          47.180          49.750
E12  23301352.802    23301356.094    23301356.675    23301350.233    23301352.180         877.189         655.014         712.044         672.158         663.587   122449473.651    91439588.672    99390852.361    93824944.594    92632278.711          44.310          46.250          44.930          47.180          49.750
E24  24906329.585    24906334.397    24906336.320    24906328.192    24906330.322        1637.393        1222.714        1329.053        1254.643        1238.694   130883696.527    97737874.462   106236820.897   100287535.310    99012713.964          48.370          49.560          48.620          50.680          53.120
E25  23645993.336    23645999.874    23645999.378    23645993.678    23645995.812        -727.679        -543.348        -590.614        -557.544        -550.455   124260559.571    92792015.065   100860884.258    95212647.432    94002346.825          48.750          52.120          51.430          53.180          55.620
E36  27555674.454    27555682.740    27555682.632    27555676.164    27555678.253       -3299.481       -2464.026       -2678.311       -2528.179       -2496.108   144806045.347   108134417.701   117537410.473   110955292.476   109544866.166          40.250          40.680          39.370          42.000          44.250
G01  22617124.047    22617123.775    22617126.395    22617126.242    22617128.835       -3534.483       -3534.483       -2754.231       -2754.144       -2639.393   118853802.816   118853802.816    92613363.928    92613369.927    88754489.764          44.310          33.180          42.500          33.180          46.870
G07  20407015.542    20407015.109    20407014.039    20407013.534                         645.762         645.762         503.149         503.191                   107239625.315   107239625.315    83563360.220    83563362.211                          49.870          46.180          48.310          46.180
G08  20754168.493    20754167.827    20754170.268    20754169.257    20754172.096        1742.736        1742.736        1357.965        1357.975        1301.380   109063960.356   109063960.356    84984951.482    84984923.472    81443904.802          50.000          55.680          48.500          55.680          53.180
G11  20787656.751    20787656.072                    20787654.001                       -1420.810       -1420.810                       -1107.124                   109239928.927   109239928.927                    85122026.314                          49.930          43.000                          43.000
G13  24047775.909    24047775.503                    24047773.355                       -1679.574       -1679.574                       -1308.745                   126371914.403   126371914.403                    98471606.465                          39.370          21.000                          21.000
G14  22412305.955    22412305.719    22412305.159    22412304.595    22412312.232       -2569.920       -2569.920       -2002.477       -2002.538       -1919.037   117777480.431   117777480.431    91774653.709    91774667.703    87950759.961          45.750          35.560          44.620          35.560          48.250
G21  21796913.617    21796912.481                    21796911.554                       -1401.242       -1401.242                       -1091.875                   114543577.592   114543577.592                    89254751.453                          48.560          39.120                          39.120
G27  23388685.645    23388684.993    23388686.659    23388686.163    23388689.739        3448.926        3448.926        2687.500        2687.475        2575.504   122908437.846   122908437.846    95772855.172    95772852.172    91782326.465          42.750          43.680          42.370          43.680          45.250
G28  23047506.039    23047505.199                    23047503.414                       -2344.242       -2344.242                       -1826.679                   121115468.528   121115468.528                    94375694.869                          44.430          30.750                          30.750
G30  20992901.066    20992900.332    20992902.013    20992901.360    20992905.303       -1414.185       -1414.185       -1101.967       -1101.961       -1056.081   110318466.214   110318466.214    85962462.145    85962451.134    82380702.441          50.500          45.060          48.180          45.060          53.430
R02  23150478.569    23150479.088    23150482.864    23150482.368        1338.340        1338.356        1040.930        1040.951   123535386.806   123535410.818    96083107.862    96083105.864          46.180          45.680          42.560          42.250
R10  20367192.802    20367192.060                                        2120.204        2120.208                                   108568636.190   108568640.194                                          51.810          51.750
R11  19655418.103    19655418.344    19655420.277    19655420.514       -1656.519       -1656.513       -1288.369       -1288.378   105032632.672   105032626.671    81692089.479    81692071.486          52.810          53.120          51.500          51.250
R12  23257251.077    23257252.007    23257254.909    23257255.070       -3704.180       -3704.069       -2881.089       -2881.063   124236069.457   124236075.457    96628082.235    96628070.234          46.750          46.250          42.500          42.680
R20  20340970.888    20340970.996    20340976.508    20340976.150        2147.573        2147.518        1670.230        1670.213   108772358.563   108772355.562    84600766.924    84600767.927          43.180          42.250          49.370          50.180
R21  20027818.598    20027818.584    20027822.758    20027823.030       -2608.861       -2608.849       -2029.113       -2029.109   107173354.957   107172937.950    83357014.771    83356774.771          53.250          53.620          49.560          50.370
R22  23649969.800    23649968.986                                       -4606.456       -4606.427                                   126245150.903   126245147.907                                          41.500          40.180
> 2021 01 03 00 14 00.0000000  0 26
E02  26536873.617    26536878.988    26536880.312    26536871.857    26536874.434       -2336.375       -1744.558       -1896.343       -1790.089       -1767.344   139452232.131   104136428.886   113191789.807   106853006.870   105494725.457          42.810          44.370          42.930          44.560          47.370
E03  27292083.161    27292088.764    27292088.706    27292082.197    27292084.953        2374.185        1772.960        1927.024        1819.102        1796.058   143420849.357   107100043.694   116413095.199   109893936.202   108497002.027          29.620          34.310          26.430          34.750          37.500
E08  25429434.999    25429439.368    25429442.928    25429433.052    25429435.338         434.090         324.284         352.419         332.695         328.484   133632606.562    99790597.473   108468052.100   102393793.003   101092210.316          41.930          39.870          40.560          41.120          43.430
E11  22573128.038    22573130.600    22573131.813    22573124.651    22573126.856       -2054.805       -1534.406       -1667.860       -1574.446       -1554.432   118622627.363    88581855.957    96284624.150    90892656.847    89737270.479          46.370          46.370          46.060          47.430          49.870
E12  23306401.273    23306404.202    23306404.515    23306398.315    23306400.190         891.345         665.672         723.462         682.962         674.299   122476001.123    91459398.158    99412384.400    93845270.837    92652346.574          44.810          46.310          44.870          47.500          49.870
E24  24915693.100    24915698.243    24915700.014    24915691.877    24915693.998        1643.061        1226.897        1333.632        1258.963        1242.939   130932902.925    97774619.483   106276761.149   100325238.903    99049938.271          48.560          49.620          48.680          50.810          53.180
E25  23641856.889    23641863.631    23641863.198    23641857.391    23641859.548        -721.456        -538.691        -585.558        -552.765        -545.731   124238823.390    92775783.507   100843241.263    95195992.443    93985903.553          48.930          52.060          51.370          53.310          55.620
E36  27536837.279    27536847.648    27536845.189    27536840.764    27536842.858       -3299.040       -2463.416       -2677.638       -2527.797       -2495.603   144707065.480   108060504.185   117457069.663   110879450.756   109469988.548          40.000          40.750          38.620          41.370          44.000
G01  22596970.476    22596970.195    22596972.841    22596973.167    22596975.604       -3525.863       -3525.863       -2747.408       -2747.427       -2632.975   118747897.061   118747897.061    92530839.987    92530845.982    88675404.319          44.120          33.000          42.430          33.000          46.930
G07  20410754.472    20410754.039    20410753.210    20410752.871                         664.262         664.262         517.627         517.608                   107259275.384   107259275.384    83578671.951    83578673.941                          49.370          46.060          48.060          46.060
G08  20764155.817    20764155.148    20764157.288    20764156.541    20764159.188        1756.140        1756.140        1368.421        1368.422        1311.407   109116443.276   109116443.276    85025847.261    85025819.254    81483096.596          50.120          55.750          48.310          55.750          53.310
G11  20779598.136    20779597.452                    20779595.744                       -1402.320       -1402.320                       -1092.717                   109197582.227   109197582.227                    85089028.892                          49.870          43.060                          43.060
G13  24038237.419    24038237.004                    24038235.361                       -1661.809       -1661.809                       -1294.929                   126321791.768   126321791.768                    98432549.884                          39.930          21.930                          21.930
G14  22397649.269    22397649.032    22397648.723    22397648.383    22397655.890       -2564.668       -2564.668       -1998.509       -1998.437       -1915.219   117700461.277   117700461.277    91714638.789    91714652.783    87893245.658          45.120          35.500          44.180          35.500          48.430
G21  21788962.110    21788960.975                    21788959.825                       -1384.568       -1384.568                       -1078.884                   114501790.598   114501790.598                    89222190.178                          48.750          39.120                          39.120
G27  23408387.117    23408386.479    23408387.685    23408387.095    23408390.953        3453.126        3453.126        2690.784        2690.750        2578.589   123011968.323   123011968.323    95853528.279    95853525.273    91859638.192          42.870          43.060          41.500          43.060          46.000
G28  23034132.270    23034131.425                    23034130.678                       -2340.437       -2340.437                       -1823.717                   121045194.132   121045194.132                    94320935.627                          43.180          30.180                          30.180
G30  20984873.962    20984873.225    20984875.303    20984874.677    20984878.352       -1397.739       -1397.739       -1089.171       -1089.148       -1043.772   110276285.104   110276285.104    85929593.746    85929582.736    82349203.565          50.370          45.120          47.930          45.120          53.560
R02  23158066.967    23158067.047    23158071.055    23158071.279        1360.874        1360.908        1058.568        1058.415   123575876.828   123575900.836    96114600.077    96114598.062          45.500          45.620          41.750          41.120
R03  24162802.817    24162801.516    24162804.310    24162805.593       -1634.820       -1634.994       -1271.461       -1271.884   129345464.714   129345396.705   100601988.593   100601973.604          33.000          30.430          28.810          30.250
R10  20379166.282    20379165.902                                        2134.972        2135.019                                   108632463.629   108632467.633                                          51.930          52.000
R11  19646158.419    19646158.606    19646160.714    19646160.736       -1642.308       -1642.278       -1277.333       -1277.336   104983150.446   104983144.447    81653603.304    81653585.309          52.930          53.120          51.500          51.370
R12  23236448.950    23236449.004    23236451.798    23236451.897       -3703.980       -3704.001       -2880.883       -2880.862   124124946.830   124124952.832    96541653.526    96541641.526          47.310          46.750          41.370          41.370
R20  20353081.893    20353081.840    20353088.103    20353087.388        2170.234        2170.315        1687.928        1687.928   108837123.619   108837120.633    84651139.761    84651140.769          42.680          41.680          49.060          50.250
R21  20013254.116    20013254.393    20013258.692    20013259.005       -2586.854       -2586.820       -2011.966       -2011.978   107095419.594   107095002.594    83296398.399    83296158.404          53.500          53.620          50.060          50.370
R22  23624090.003    23624090.620                                       -4602.805       -4602.618                                   126107013.212   126107010.230                                          40.310          39.870
> 2021 01 03 00 14 30.0000000  0 26
E02  26523538.049    26523544.542    26523545.946    26523537.729    26523539.868       -2335.140       -1743.902       -1895.543       -1789.373       -1766.635   139382159.200   104084101.698   113134912.439   106799314.617   105441715.737          42.060          44.370          42.750          44.810          47.500
E03  27305650.985    27305659.540    27305660.054    27305652.597    27305655.214        2380.275        1777.413        1931.357        1823.810        1800.636   143492163.545   107153297.756   116470980.035   109948579.474   108550950.692          28.560          33.560          27.810          34.120          36.620
E08  25431953.569    25431957.334    25431961.019    25431951.760    25431953.412         447.967         334.664         363.733         343.423         339.052   133645838.320    99800478.312   108478792.169   102403931.634   101102220.052          42.430          40.250          40.930          42.000          44.120
E11  22561429.817    22561432.550    22561433.681    22561426.635    22561428.801       -2043.424       -1525.918       -1658.615       -1565.677       -1545.794   118561153.821    88535950.411    96234726.808    90845553.765    89690766.165          46.370          46.500          46.180          47.500          50.000
E12  23311529.576    23311532.782    23311533.373    23311526.998    23311528.819         905.527         676.155         734.942         693.776         684.942   122502952.450    91479524.147    99434260.478    93865921.857    92672735.079          44.430          46.430          45.250          47.430          49.930
E24  24925089.026    24925094.249    24925096.011    24925087.696    24925089.888        1648.701        1231.152        1338.204        1263.257        1247.208   130982278.634    97811490.950   106316838.828   100363072.231    99087290.669          48.120          49.870          48.930          50.810          53.250
E25  23637756.817    23637763.127    23637762.702    23637756.864    23637758.998        -715.108        -534.021        -580.480        -547.954        -540.988   124217275.006    92759692.179   100825750.690    95179481.340    93969602.338          49.250          52.180          51.560          53.310          55.680
E36  27518006.006    27518015.853    27518015.665    27518009.729    27518011.393       -3298.193       -2462.944       -2677.247       -2527.240       -2495.093   144608106.102   107986605.986   117376745.505   110803624.762   109395126.451          39.120          40.250          38.930          41.500          43.870
G01  22576866.101    22576865.851    22576869.312    22576869.499    22576871.703       -3517.139       -3517.139       -2740.727       -2740.623       -2626.429   118642251.193   118642251.193    92448518.603    92448524.587    88596512.997          43.430          32.560          42.750          32.560          47.120
G07  20414599.759    20414599.325    20414598.256    20414598.005                         682.875         682.875         532.092         532.110                   107279482.023   107279482.023    83594417.381    83594419.372                          49.500          45.680          48.060          45.680
G08  20774219.240    20774218.583    20774220.827    20774220.156    20774222.789        1769.522        1769.522        1378.867        1378.850        1321.382   109169327.907   109169327.907    85067056.069    85067028.060    81522588.370          50.250          55.500          48.370          55.500          53.310
G11  20771645.552    20771644.868                    20771643.182                       -1383.584       -1383.584                       -1078.116                   109155791.295   109155791.295                    85056464.536                          50.120          42.810                          42.810
G13  24028800.234    24028799.810                    24028798.869                       -1644.087       -1644.087                       -1281.091                   126272200.784   126272200.784                    98393907.563                          39.500          23.180                          23.180
G14  22383022.739    22383022.503    22383021.817    22383021.866    22383029.369       -2559.436       -2559.436       -1994.379       -1994.367       -1911.283   117623598.538   117623598.538    91654745.760    91654759.752    87835848.169          45.430          35.120          43.930          35.120          48.500
G21  21781105.894    21781104.759                    21781103.313                       -1367.797       -1367.797                       -1065.817                   114460505.362   114460505.362                    89190019.884                          48.930          38.930                          38.930
G27  23428112.884    23428112.242    23428113.327    23428112.947    23428116.380        3457.368        3457.368        2694.074        2694.052        2581.846   123115626.410   123115626.410    95934300.784    95934297.782    91937045.185          43.430          43.060          42.120          43.060          46.120
G28  23020780.752    23020779.903                    23020778.788                       -2336.938       -2336.938                       -1820.990                   120975029.490   120975029.490                    94266261.906                          43.430          29.430                          29.430
G30  20976941.572    20976940.835    20976942.752    20976942.166    20976945.855       -1381.418       -1381.418       -1076.310       -1076.430       -1031.453   110234599.133   110234599.133    85897111.176    85897100.161    82318074.433          50.620          44.870          48.120          44.870          53.680
R02  23165782.805    23165782.612    23165784.135    23165784.341        1383.510        1383.488        1076.026        1076.189   123617044.407   123617068.406    96146619.286    96146617.309          46.750          46.560          40.120          40.680
R03  24153705.779    24153704.017    24153708.422    24153707.339       -1612.619       -1613.408       -1254.562       -1254.600   129296744.811   129296676.800   100564095.242   100564080.252          29.870          28.370          34.560          32.060
R10  20391224.240    20391223.467                                        2149.794        2149.798                                   108696735.108   108696739.110                                          52.120          52.120
R11  19636978.330    19636978.500    19636980.799    19636980.893       -1628.002       -1627.997       -1266.231       -1266.182   104934095.888   104934089.884    81615449.761    81615431.770          52.180          53.000          51.370          51.430
R12  23215646.184    23215646.408    23215650.981    23215651.295       -3703.902       -3703.843       -2880.677       -2880.747   124013828.915   124013834.922    96455228.555    96455216.551          46.810          46.120          44.370          44.120
R20  20365320.742    20365320.778    20365327.345    20365326.442        2192.754        2192.767        1705.530        1705.501   108902569.555   108902566.548    84702042.145    84702043.147          42.620          41.870          49.560          50.180
R21  19998814.111    19998814.303    19998818.964    19998819.147       -2564.569       -2564.601       -1994.723       -1994.712   107018148.518   107017731.513    83236298.689    83236058.694          53.310          53.560          50.250          50.310
R22  23598233.444    23598233.910                                       -4598.830       -4598.731                                   125968990.437   125968987.445                                          40.500          39.750
> 2021 01 03 00 15 00.0000000  0 26
E02  26510210.164    26510215.122    26510217.144    26510208.506    26510211.231       -2334.157       -1743.099       -1894.723       -1788.576       -1765.841   139312116.590   104031797.178   113078059.689   106745645.629   105388728.982          42.500          43.930          42.620          44.680          47.250
E03  27319255.025    27319264.867    27319264.398    27319258.309    27319260.251        2386.321        1781.904        1936.886        1828.400        1805.161   143563659.636   107206687.645   116529012.610   110003362.126   108605036.965          23.310          33.310          29.810          32.620          35.870
E08  25434550.280    25434554.417    25434558.987    25434548.708    25434550.664         461.845         344.964         374.989         353.961         349.485   133659487.371    99810670.822   108489870.955   102414390.007   101112545.491          41.310          40.370          41.180          41.430          44.000
E11  22549797.804    22549800.509    22549801.963    22549794.707    22549796.828       -2031.651       -1517.160       -1649.107       -1556.794       -1536.976   118500027.355    88490304.034    96185111.181    90798716.608    89644524.398          46.180          46.560          46.250          47.680          50.120
E12  23316738.810    23316741.918    23316742.469    23316736.022    23316737.964         919.546         686.626         746.320         704.591         695.608   122530326.688    91499965.950    99456479.827    93886896.924    92693443.514          44.430          46.370          45.180          47.430          49.930
E24  24934517.182    24934522.110    24934524.092    24934515.736    24934518.009        1654.330        1235.415        1342.803        1267.572        1251.498   131031823.694    97848488.876   106357053.965   100401035.314    99124771.173          48.060          49.810          48.870          50.750          53.180
E25  23633692.206    23633698.373    23633697.850    23633692.253    23633694.330        -708.841        -529.304        -575.339        -543.110        -536.208   124195915.015    92743741.536   100808413.033    95163114.594    93953443.643          49.060          52.250          51.560          53.430          55.810
E36  27499181.222    27499188.618    27499187.089    27499182.449    27499184.351       -3297.333       -2462.515       -2676.471       -2526.646       -2494.557   144509168.938   107912724.333   117296439.370   110727815.777   109320281.133          40.310          40.680          39.060          42.000          44.310
G01  22556813.387    22556813.128    22556815.086    22556815.721    22556817.683       -3508.338       -3508.338       -2733.724       -2733.768       -2619.910   118536868.657   118536868.657    92366402.364    92366408.358    88517818.278          44.370          33.370          42.430          33.370          46.750
G07  20418551.085    20418550.656    20418549.475    20418549.117                         701.345         701.345         546.524         546.503                   107300245.163   107300245.163    83610596.444    83610598.437                          49.810          45.870          48.120          45.870
G08  20784358.640    20784357.987    20784360.616    20784359.748    20784362.573        1782.783        1782.783        1389.180        1389.181        1331.294   109222612.195   109222612.195    85108576.296    85108548.289    81562378.590          50.060          55.560          48.430          55.560          53.430
G11  20763798.933    20763798.249                    20763796.553                       -1365.177       -1365.177                       -1063.777                   109114557.332   109114557.332                    85024334.176                          49.870          43.180                          43.180
G13  24019464.975    24019464.551                    24019463.074                       -1626.348       -1626.348                       -1267.285                   126223143.261   126223143.261                    98355680.937                          39.750          22.870                          22.870
G14  22368426.437    22368426.192    22368424.903    22368425.131    22368432.786       -2554.199       -2554.199       -1990.340       -1990.285       -1907.350   117546893.022   117546893.022    91594975.235    91594989.227    87778568.090          45.810          35.180          43.870          35.180          48.810
G21  21773344.995    21773343.864                    21773342.741                       -1351.005       -1351.005                       -1052.727                   114419723.398   114419723.398                    89158241.743                          48.750          39.180                          39.180
G27  23447861.895    23447861.261    23447862.659    23447862.083    23447865.368        3461.535        3461.535        2697.311        2697.300        2584.885   123219409.846   123219409.846    96015171.007    96015168.001    92014545.785          43.620          43.500          41.620          43.500          45.500
G28  23007449.794    23007448.945                    23007447.679                       -2333.243       -2333.243                       -1818.115                   120904975.135   120904975.135                    94211674.106                          43.500          30.180                          30.180
G30  20969103.310    20969102.572    20969104.624    20969104.123    20969107.757       -1364.612       -1364.612       -1063.342       -1063.333       -1019.044   110193410.147   110193410.147    85865015.859    85865004.846    82287316.420          50.560          45.120          48.250          45.120          53.680
R02  23173624.000    23173624.260    23173626.131    23173627.088        1406.071        1406.052        1093.585        1093.583   123658888.244   123658912.252    96179164.537    96179162.545          46.310          45.500          42.250          42.060
R03  24144725.335    24144725.009    24144731.478    24144729.569       -1590.794       -1590.871       -1236.906       -1237.632   129248689.578   129248621.554   100526718.985   100526703.933          34.620          33.870          32.560          30.810
R10  20403363.810    20403363.367                                        2164.541        2164.558                                   108761449.665   108761453.662                                          51.620          52.060
R11  19627879.271    19627879.244    19627881.508    19627881.584       -1613.646       -1613.644       -1255.036       -1255.012   104885471.344   104885465.341    81577630.678    81577612.684          52.500          53.120          51.620          51.430
R12  23194846.928    23194847.442    23194851.144    23194851.144       -3703.500       -3703.581       -2880.588       -2880.558   123902717.463   123902723.472    96368808.544    96368796.538          47.870          47.180          44.000          43.870
R20  20377685.445    20377685.843    20377692.365    20377691.914        2215.333        2215.492        1723.059        1723.087   108968692.773   108968689.791    84753471.330    84753472.340          42.500          41.750          49.750          50.120
R21  19984498.998    19984498.824    19984503.467    19984503.713       -2542.323       -2542.324       -1977.356       -1977.343   106941543.918   106941126.912    83176717.362    83176477.367          52.930          53.250          50.000          50.370
R22  23572402.424    23572400.926                                       -4594.737       -4594.732                                   125831086.124   125831083.097                                          41.120          40.180
> 2021 01 03 00 15 30.0000000  0 26
E02  26496886.736    26496892.433    26496893.909    26496886.604    26496888.372       -2333.245       -1742.396       -1893.793       -1787.787       -1765.084   139242104.827   103979515.674   113021231.962   106692000.259   105335765.545          42.180          44.120          42.500          45.370          47.750
E03                  27332903.204    27332905.543    27332898.354    27332900.077                        1786.480        1941.863        1832.752        1809.606                   107260211.914   116587191.192   110058282.667   108659259.366                          31.810          30.180          33.250          35.560
E08  25437226.452    25437231.653    25437236.098    25437225.274    25437227.118         475.738         355.341         386.321         364.590         359.984   133673553.148    99821174.492   108501287.991   102425167.676   101123186.162          40.430          40.870          41.180          41.000          43.870
E11  22538232.287    22538234.849    22538235.865    22538228.935    22538231.150       -2020.144       -1508.521       -1639.660       -1547.845       -1528.181   118439249.312    88444917.853    96135778.365    90752146.441    89598546.224          46.370          46.500          46.120          47.750          50.120
E12  23322028.521    23322031.262    23322031.768    23322025.433    23322027.415         933.607         697.140         757.716         715.306         706.217   122558122.908    91520722.864    99479041.688    93908195.325    92714471.171          44.810          46.310          45.060          47.370          49.870
E24  24943977.374    24943982.454    24943984.297    24943976.053    24943978.348        1659.917        1239.630        1347.350        1271.907        1255.758   131081538.142    97885613.299   106397406.596   100439128.207    99162379.830          48.250          49.680          48.750          50.680          53.120
E25  23629663.346    23629669.669    23629669.253    23629663.518    23629665.630        -702.565        -524.622        -570.233        -538.302        -531.470   124174744.039    92727932.045   100791228.805    95146892.682    93937427.941          49.180          52.120          51.560          53.500          55.810
E36  27480355.182    27480366.007    27480365.891    27480359.435    27480361.771       -3296.732       -2461.705       -2675.855       -2526.001       -2493.872   144410255.571   107838860.508   117216152.579   110652025.066   109245453.864          38.430          40.750          39.560          41.810          44.250
G01  22536810.384    22536810.143    22536813.241    22536812.767    22536814.447       -3499.384       -3499.384       -2726.858       -2726.790       -2613.212   118431752.809   118431752.809    92284493.952    92284499.937    88439322.710          44.060          33.560          42.870          33.560          46.560
G07  20422608.081    20422607.652    20422606.431    20422606.127                         719.946         719.946         560.997         560.996                   107321564.911   107321564.911    83627209.233    83627211.224                          49.680          46.060          48.120          46.060
G08  20794574.133    20794573.485    20794576.078    20794575.004    20794577.811        1795.982        1795.982        1399.525        1399.466        1341.206   109276293.961   109276293.961    85150406.247    85150378.236    81602465.625          50.000          55.560          48.430          55.560          53.250
G11  20756059.113    20756058.438                    20756056.327                       -1346.530       -1346.530                       -1049.245                   109073881.796   109073881.796                    84992638.954                          50.060          43.250                          43.250
G13  24010231.714    24010231.281                    24010229.652                       -1608.457       -1608.457                       -1253.346                   126174620.902   126174620.902                    98317871.313                          40.560          23.680                          23.680
G14  22353859.720    22353859.483    22353858.914    22353858.597    22353866.524       -2548.940       -2548.940       -1986.191       -1986.186       -1903.464   117470345.547   117470345.547    91535327.853    91535341.848    87721406.021          45.620          35.680          44.310          35.680          49.060
G21  21765680.723    21765679.589                    21765678.367                       -1334.153       -1334.153                       -1039.601                   114379446.549   114379446.549                    89126857.211                          48.750          39.430                          39.430
G27  23467634.574    23467633.953    23467635.499    23467634.448    23467638.154        3465.598        3465.598        2700.470        2700.468        2587.942   123323316.517   123323316.517    96096137.251    96096134.251    92092138.451          43.060          42.810          41.430          42.810          45.250
G28  22994139.772    22994138.924                    22994137.657                       -2329.642       -2329.642                       -1815.304                   120835031.310   120835031.310                    94157172.431                          43.750          30.620                          30.620
G30  20961360.556    20961359.814    20961361.629    20961360.896    20961364.785       -1347.943       -1347.943       -1050.364       -1050.345       -1006.616   110152719.972   110152719.972    85833309.226    85833298.219    82256930.893          50.680          45.250          48.180          45.250          53.680
R02  23181590.599    23181591.247    23181594.911    23181595.121        1428.563        1428.535        1111.119        1110.953   123701405.537   123701429.531    96212233.476    96212231.471          45.250          45.250          43.060          42.810
R03  24135870.923    24135870.936    24135879.217    24135877.321       -1568.253       -1568.350       -1220.247       -1219.725   129201301.118   129201233.132   100489861.351   100489846.360          30.000          29.680          32.120          31.060
R10  20415586.673    20415586.655                                        2179.276        2179.279                                   108826607.247   108826611.255                                          51.560          51.930
R11  19618860.509    19618860.938    19618862.674    19618862.925       -1599.149       -1599.145       -1243.792       -1243.784   104837279.267   104837273.266    81540147.952    81540129.958          52.620          53.180          51.560          51.310
R12  23174047.466    23174047.538    23174052.009    23174051.870       -3703.200       -3703.322       -2880.311       -2880.209   123791614.292   123791620.288    96282394.983    96282382.982          44.310          43.370          43.180          43.500
R20  20390177.915    20390177.853    20390183.762    20390183.257        2237.693        2237.844        1740.460        1740.490   109035489.990   109035486.998    84805424.710    84805425.717          43.120          41.810          49.680          50.250
R21  19970308.232    19970308.523    19970313.207    19970313.198       -2520.006       -2520.022       -1959.992       -1960.027   106865608.430   106865191.429    83117656.442    83117416.446          53.500          53.560          50.000          50.370
R22  23546592.978    23546592.120                                       -4590.720       -4590.508                                   125693303.505   125693300.528                                          43.750          41.430
> 2021 01 03 00 16 00.0000000  0 26
E02  26483570.316    26483575.883    26483577.631    26483569.325    26483571.549       -2332.062       -1741.551       -1892.950       -1786.987       -1764.269   139172124.367   103927257.549   112964429.644   106638378.876   105282825.790          42.370          43.870          42.620          45.370          47.560
E03                  27346576.827    27346578.074    27346572.616    27346573.441                        1790.612        1946.314        1837.491        1814.091                   107313869.007   116645514.132   110113339.562   108713616.365                          30.750          30.370          35.250          36.250
E08  25439981.848    25439988.516    25439991.069    25439980.880    25439983.256         489.613         365.768         397.491         375.238         370.492   133688035.052    99831988.867   108513042.772   102436264.203   101134141.613          40.870          42.120          40.560          40.310          44.060
E11  22526733.130    22526735.750    22526737.195    22526729.680    22526732.028       -2008.470       -1499.840       -1630.240       -1539.015       -1519.433   118378821.097    88399792.912    96086729.510    90705844.323    89552832.695          46.430          46.370          46.250          47.430          49.930
E12  23327397.558    23327400.916    23327401.614    23327395.185    23327396.971         947.657         707.580         769.130         726.023         716.798   122586340.166    91541794.183    99501945.306    93929816.328    92735817.332          44.370          46.120          45.000          47.310          49.680
E24  24953469.985    24953475.311    24953477.176    24953468.641    24953470.967        1665.559        1243.800        1352.011        1276.260        1260.041   131131422.012    97922864.230   106437896.749   100477350.903    99200116.645          48.250          49.500          48.750          50.560          53.000
E25  23625670.630    23625677.056    23625676.698    23625670.842    23625673.012        -696.187        -519.851        -565.092        -533.429        -526.646   124153762.719    92712264.177   100774198.514    95130816.088    93921555.711          49.060          51.930          51.430          53.310          55.560
E36  27461539.832    27461548.359    27461547.488    27461542.092    27461543.855       -3295.822       -2461.152       -2675.260       -2525.307       -2493.217   144311367.832   107765015.797   117135886.578   110576253.944   109170645.948          40.370          39.870          40.430          41.120          43.370
G01  22516859.077    22516858.814    22516860.933    22516861.004    22516863.252       -3490.340       -3490.340       -2719.709       -2719.746       -2606.408   118326906.987   118326906.987    92202795.919    92202801.912    88361028.775          44.750          33.180          42.430          33.180          46.930
G07  20426771.233    20426770.800    20426769.614    20426769.015                         738.499         738.499         575.482         575.453                   107343441.248   107343441.248    83644255.727    83644257.714                          49.810          45.810          48.000          45.810
G08  20804864.597    20804863.945    20804866.698    20804865.576    20804868.339        1809.204        1809.204        1409.737        1409.769        1350.980   109330371.266   109330371.266    85192544.406    85192516.399    81642848.026          49.870          55.250          48.560          55.250          53.000
G11  20748424.819    20748424.144                    20748422.542                       -1327.858       -1327.858                       -1034.693                   109033765.845   109033765.845                    84961379.779                          49.680          43.120                          43.120
G13  24001100.549    24001100.125                    24001098.675                       -1590.561       -1590.561                       -1239.393                   126126635.079   126126635.079                    98280479.774                          40.680          24.430                          24.430
G14  22339323.441    22339323.209    22339322.479    22339322.345    22339330.536       -2543.615       -2543.615       -1981.994       -1982.035       -1899.469   117393956.912   117393956.912    91475804.264    91475818.249    87664362.587          45.500          35.560          44.250          35.560          49.000
G21  21758112.525    21758111.390                    21758110.257                       -1317.212       -1317.212                       -1026.399                   114339676.139   114339676.139                    89095867.300                          48.750          39.250                          39.250
G27  23487429.821    23487429.213    23487431.622    23487430.693    23487434.792        3469.600        3469.600        2703.497        2703.581        2590.880   123427344.234   123427344.234    96177197.800    96177194.806    92169821.475          41.870          42.680          42.310          42.680          46.120
G28  22980850.884    22980850.030                    22980848.956                       -2325.553       -2325.553                       -1812.117                   120765198.237   120765198.237                    94102757.060                          43.500          30.560                          30.560
G30  20953712.691    20953711.958    20953713.889    20953713.115    20953717.032       -1331.350       -1331.350       -1037.362       -1037.416        -994.122   110112530.346   110112530.346    85801992.641    85801981.627    82226919.170          50.430          45.000          48.250          45.000          53.620
R02  23189684.857    23189684.490    23189687.457    23189687.645        1450.719        1450.716        1128.315        1128.342   123744593.187   123744617.191    96245823.866    96245821.868          47.060          46.310          41.000          41.560
R03                                  24127148.857    24127149.966                                       -1202.683       -1202.679                                   100453524.170   100453509.138                                          27.810          29.560
R10  20427893.553    20427892.972                                        2194.031        2193.999                                   108892206.870   108892210.871                                          51.680          52.000
R11  19609923.524    19609923.640    19609925.698    19609925.627       -1584.610       -1584.587       -1232.500       -1232.477   104789522.076   104789516.075    81503003.473    81502985.482          52.430          53.120          51.250          51.430
R12  23153250.978    23153251.881    23153255.293    23153255.351       -3702.944       -3702.925       -2880.135       -2880.138   123680521.300   123680527.304    96195989.319    96195977.335          45.620          45.000          43.930          44.370
R20  20402794.084    20402794.276    20402800.598    20402799.864        2260.079        2260.121        1757.823        1757.847   109102957.483   109102954.499    84857899.431    84857900.436          42.750          41.620          49.370          50.120
R21  19956243.383    19956243.486    19956248.304    19956248.286       -2497.493       -2497.498       -1942.572       -1942.606   106790344.615   106789927.613    83059117.943    83058877.942          52.870          53.310          50.000          50.310
R22  23520806.379    23520804.563    23520805.384                       -4586.491       -4586.390       -3567.256                   125555645.941   125555642.972    97654376.170                          42.870          40.870          28.870
> 2021 01 03 00 16 30.0000000  0 25
E02  26470259.462    26470264.779    26470266.045    26470258.843    26470260.807       -2331.197       -1740.670       -1892.193       -1786.126       -1763.412   139102175.646   103875023.139   112907653.101   106584781.834   105229910.064          42.810          43.810          42.120          46.000          47.930
E03                  27360285.229    27360284.246    27360279.123    27360280.328                        1795.390        1951.351        1841.855        1818.610                   107367657.502   116703979.928   110168531.187   108768106.416                          32.060          29.370          34.620          36.310
E08  25442817.555    25442821.866    25442825.537    25442815.773    25442818.162         503.526         375.960         408.738         385.780         380.841   133702932.400    99843113.514   108525134.786   102447679.059   101145411.364          41.000          40.870          40.560          41.430          44.120
E11  22515300.733    22515303.519    22515304.718    22515297.386    22515299.668       -1996.585       -1490.995       -1620.715       -1529.865       -1510.436   118318743.989    88354930.165    96037965.642    90659811.241    89507384.780          46.310          46.500          46.430          47.750          50.120
E12  23332847.352    23332850.531    23332851.225    23332844.523    23332846.448         961.592         718.050         780.447         736.833         727.441   122614977.453    91563179.182    99525189.868    93951759.200    92757481.268          44.560          46.060          45.180          47.430          49.750
E24  24962995.033    24962999.974    24963001.799    24962993.609    24962995.801        1671.325        1248.074        1356.568        1280.615        1264.346   131181475.302    97960241.679   106478524.413   100515703.422    99237981.629          48.250          49.500          48.810          50.810          53.060
E25  23621714.022    23621720.609    23621720.238    23621714.395    23621716.592        -689.842        -515.151        -559.943        -528.607        -521.879   124132971.657    92696738.389   100757322.655    95114885.275    93905827.410          48.930          51.930          51.500          53.500          55.680
E36  27442725.373    27442735.479    27442735.189    27442729.985    27442731.453       -3294.880       -2460.327       -2674.355       -2524.574       -2492.463   144212507.375   107691191.423   117055642.735   110500503.736   109095858.656          39.930          39.750          40.250          42.560          44.180
G01  22496959.587    22496959.338    22496961.886    22496961.403    22496964.063       -3481.142       -3481.142       -2712.515       -2712.580       -2599.636   118222334.651   118222334.651    92121311.038    92121317.017    88282939.088          44.870          33.430          42.500          33.430          47.250
G07  20431039.911    20431039.479    20431038.006    20431037.859                         757.046         757.046         589.885         589.907                   107365874.155   107365874.155    83661735.901    83661737.895                          49.680          45.870          47.750          45.870
G08  20815229.850    20815229.202    20815231.982    20815230.972    20815233.667        1822.224        1822.224        1419.939        1419.915        1360.750   109384841.815   109384841.815    85234988.992    85234960.989    81683524.098          49.680          55.430          48.430          55.430          53.000
G11  20740897.638    20740896.968                    20740895.501                       -1309.124       -1309.124                       -1020.096                   108994210.891   108994210.891                    84930557.745                          49.560          43.250                          43.250
G13  23992069.825    23992069.392                    23992068.747                       -1572.481       -1572.481                       -1225.305                   126079187.453   126079187.453                    98243507.607                          40.000          23.680                          23.680
G14  22324817.949    22324817.716    22324816.625    22324816.647    22324824.489       -2538.261       -2538.261       -1977.895       -1977.866       -1895.461   117317727.967   117317727.967    91416405.085    91416419.086    87607438.388          46.120          36.310          44.680          36.310          49.180
G21  21750640.966    21750639.823                    21750638.806                       -1300.300       -1300.300                       -1013.219                   114300413.431   114300413.431                    89065273.004                          48.930          39.430                          39.430
G27  23507249.201    23507248.584    23507249.254    23507249.161    23507252.804        3473.528        3473.528        2706.619        2706.644        2593.854   123531490.872   123531490.872    96258351.011    96258348.002    92247593.300          43.250          43.180          41.370          43.180          46.060
G28  22967583.262    22967582.408                    22967581.478                       -2322.262       -2322.262                       -1809.556                   120695476.161   120695476.161                    94048428.189                          43.680          30.750                          30.750
G30  20946160.277    20946159.535    20946161.314    20946160.867    20946164.699       -1314.489       -1314.489       -1024.300       -1024.275        -981.626   110072843.091   110072843.091    85771067.505    85771056.496    82197282.581          50.500          45.310          48.120          45.310          53.680
R02  23197902.139    23197902.591    23197905.150    23197905.087        1473.059        1473.074        1145.737        1145.760   123788448.734   123788472.749    96279933.778    96279931.772          44.870          44.930          38.370          38.310
R10  20440282.295    20440282.107                                        2208.751        2208.702                                   108958248.168   108958252.172                                          51.870          52.060
R11  19601068.048    19601068.245    19601070.442    19601070.576       -1570.020       -1570.067       -1221.143       -1221.145   104742202.188   104742196.180    81466199.114    81466181.123          52.370          53.060          51.810          51.680
R12  23132453.931    23132455.420    23132461.408    23132461.005       -3702.456       -3702.537       -2879.688       -2879.740   123569440.074   123569446.071    96109592.892    96109580.876          43.180          43.370          43.870          43.560
R20  20415535.745    20415535.937    20415542.030    20415541.467        2282.155        2282.359        1775.073        1775.053   109171091.898   109171088.912    84910892.868    84910893.870          42.750          41.680          49.560          50.120
R21  19942304.612    19942304.679    19942308.937    19942309.344       -2475.052       -2475.058       -1925.029       -1925.074   106715754.790   106715337.785    83001103.653    83000863.659          53.310          53.560          49.560          50.120
R22  23495039.919    23495036.615    23495038.021                       -4582.092       -4582.128       -3564.170                   125418116.691   125418113.753    97547409.052                          40.930          39.750          26.180
> 2021 01 03 00 17 00.0000000  0 26
E02  26456955.299    26456960.580    26456961.787    26456954.245    26456956.210       -2330.000       -1739.917       -1891.239       -1785.313       -1762.636   139032259.225   103822812.830   112850902.777   106531209.519   105177018.751          44.000          44.180          42.310          46.060          48.120
E03                  27374024.415    27374023.977    27374018.233    27374020.541                        1799.565        1955.967        1846.409        1822.978                   107421575.749   116762586.804   110223856.080   108822727.995                          30.750          30.310          33.810          35.310
E08  25445731.649    25445736.845    25445739.756    25445730.462    25445731.862         517.355         386.344         419.796         396.444         391.375   133718244.587    99854547.944   108537563.508   102459411.783   101156994.941          41.430          41.370          40.620          42.180          44.680
E11  22503935.376    22503938.242    22503939.405    22503932.167    22503934.400       -1985.027       -1482.251       -1611.225       -1520.934       -1501.599   118259019.239    88310330.544    95989487.783    90614048.148    89462203.423          46.750          46.500          46.500          47.810          50.120
E12  23338376.402    23338379.563    23338380.284    23338373.748    23338375.694         975.494         728.427         791.791         747.470         737.949   122644033.819    91584877.125    99548774.583    93974023.169    92779462.224          44.930          46.000          45.120          47.430          49.680
E24  24972552.066    24972556.865    24972559.145    24972550.535    24972552.884        1676.968        1252.204        1361.177        1284.921        1268.564   131231698.073    97997745.678   106519289.643   100554185.786    99275974.810          48.750          49.250          48.870          50.680          52.930
E25  23617794.300    23617800.605    23617800.109    23617794.374    23617796.508        -683.458        -510.399        -554.797        -523.710        -517.049   124112371.487    92681355.148   100740601.739    95099100.733    93890243.519          49.560          51.870          51.620          53.560          55.680
E36  27423920.067    27423928.809    27423927.294    27423922.940    27423924.582       -3293.927       -2459.708       -2673.760       -2523.926       -2491.812   144113675.814   107617388.666   116975422.318   110424775.703   109021093.263          41.870          41.120          38.870          43.000          45.060
G01  22477112.076    22477111.799    22477113.811    22477114.307    22477117.360       -3471.837       -3471.837       -2705.355       -2705.332       -2592.584   118118039.200   118118039.200    92040041.868    92040047.852    88205056.168          44.180          32.810          41.750          32.810          47.430
G07  20435414.406    20435413.973    20435413.059    20435412.599                         775.559         775.559         604.351         604.330                   107388863.626   107388863.626    83679649.775    83679651.763                          49.430          45.310          47.930          45.310
G08  20825669.980    20825669.331    20825671.580    20825670.829    20825673.649        1835.230        1835.230        1429.997        1430.049        1370.399   109439703.711   109439703.711    85277738.528    85277710.523    81724492.397          49.620          54.930          48.310          54.930          53.000
G11  20733477.508    20733476.847                    20733475.348                       -1290.524       -1290.524                       -1005.604                   108955217.883   108955217.883                    84900173.594                          49.500          42.750                          42.750
G13  23983145.061    23983144.642                    23983143.156                       -1554.578       -1554.578                       -1211.362                   126032279.863   126032279.863                    98206956.262                          42.060          25.180                          25.180
G14  22310342.323    22310342.087    22310341.817    22310341.401    22310349.159       -2532.949       -2532.949       -1973.766       -1973.727       -1891.525   117241659.519   117241659.519    91357130.976    91357144.982    87550634.034          46.120          36.370          45.180          36.370          49.120
G21  21743266.586    21743265.437                    21743264.104                       -1283.195       -1283.195                        -999.891                   114261659.804   114261659.804                    89035075.390                          48.750          39.060                          39.060
G27  23527089.831    23527089.219    23527090.116    23527090.058    23527093.112        3477.420        3477.420        2709.571        2709.679        2596.625   123635754.239   123635754.239    96339595.204    96339592.194    92325452.302          43.250          43.000          41.870          43.000          45.430
G28  22954337.073    22954336.224                    22954334.926                       -2318.506       -2318.506                       -1806.627                   120625865.514   120625865.514                    93994186.138                          43.430          30.060                          30.060
G30  20938704.195    20938703.449    20938705.017    20938704.584    20938708.442       -1297.611       -1297.611       -1011.180       -1011.125        -969.046   110033659.950   110033659.950    85740535.184    85740524.175    82168022.441          50.750          45.060          48.250          45.060          53.680
R02  23206245.225    23206244.787    23206250.615    23206250.119        1495.140        1495.105        1162.880        1162.823   123832970.039   123832994.043    96314561.414    96314559.410          43.060          42.500          42.430          42.560
R03  24110066.213                                                       -1501.125                                                                                                                          27.310
R10  20452754.751    20452754.437                                        2223.352        2223.373                                   109024730.485   109024734.492                                          51.750          52.060
R11  19592295.190    19592295.453    19592297.252    19592297.382       -1555.294       -1555.320       -1209.716       -1209.729   104695321.915   104695315.913    81429736.689    81429718.695          52.680          53.180          51.310          51.560
R12  23111663.064    23111663.927    23111667.884    23111668.121       -3702.020       -3701.950       -2879.241       -2879.222   123458372.547   123458378.549    96023207.052    96023195.052          45.310          44.810          41.930          41.370
R20  20428401.698    20428402.007    20428407.537    20428407.005        2304.365        2304.317        1792.223        1792.243   109239890.198   109239887.191    84964402.646    84964403.651          43.120          42.180          49.180          50.060
R21  19928492.346    19928492.355    19928496.922    19928496.913       -2452.505       -2452.524       -1907.548       -1907.489   106641841.475   106641424.469    82943615.550    82943375.555          53.250          53.620          50.370          50.310
R22  23469292.285    23469293.559    23469297.814                       -4577.674       -4577.800       -3560.549                   125280719.314   125280716.310    97440544.442                          37.430          39.810          27.250
> 2021 01 03 00 17 30.0000000  0 25
E02  26443656.260    26443661.791    26443663.374    26443655.622    26443657.796       -2328.929       -1739.189       -1890.354       -1784.497       -1761.841   138962375.536   103770626.964   112794178.996   106477662.295   105124152.208          43.000          44.370          42.750          46.180          48.250
E03                  27387795.863    27387795.604    27387790.960    27387792.893                        1803.856        1960.739        1850.842        1827.348                   107475622.454   116821333.151   110279312.622   108877479.612                          28.370          28.120          32.370          33.560
E08  25448723.303    25448728.651    25448731.665    25448722.652    25448724.612         531.169         396.682         431.135         407.093         401.886   133733971.039    99866291.693   108550328.441   102471461.904   101168891.876          39.870          41.180          40.120          42.120          44.560
E11  22492637.553    22492640.317    22492641.497    22492634.260    22492636.448       -1973.122       -1473.422       -1601.580       -1511.857       -1492.640   118199648.250    88265995.085    95941297.056    90568556.110    89417289.674          46.560          46.430          46.500          48.060          50.250
E12  23343984.782    23343988.664    23343989.120    23343982.557    23343984.504         989.355         738.918         803.098         758.101         748.491   122673508.287    91606887.280    99572698.660    93996607.501    92801759.468          44.120          46.000          45.180          47.560          49.680
E24  24982141.210    24982146.286    24982148.316    24982139.782    24982142.242        1682.549        1256.464        1365.730        1289.199        1272.833   131282090.327    98035376.256   106560192.441   100592798.030    99314096.221          48.060          49.180          48.680          50.680          52.870
E25  23613910.831    23613916.988    23613916.416    23613910.779    23613912.886        -677.085        -505.652        -549.626        -518.825        -512.231   124091962.844    92666114.928   100724036.280    95083462.943    93874804.514          49.250          51.870          51.620          53.750          55.750
E36  27405118.535    27405127.505    27405126.839    27405121.354    27405123.287       -3292.910       -2458.997       -2672.761       -2523.109       -2491.037   144014874.929   107543608.789   116895226.782   110349071.123   108946351.035          41.120          41.060          39.430          42.560          44.810
G01  22457318.676    22457318.395    22457321.314    22457321.045    22457324.215       -3462.497       -3462.497       -2697.997       -2698.049       -2585.605   118014023.954   118014023.954    91958991.069    91958997.054    88127382.501          44.120          33.180          42.930          33.180          47.500
G07  20439894.980    20439894.548    20439893.442    20439893.173                         794.167         794.167         618.825         618.832                   107412409.656   107412409.656    83697997.318    83697999.309                          49.250          45.500          47.750          45.500
G08  20836183.676    20836183.019    20836185.750    20836184.709    20836187.534        1848.184        1848.184        1440.114        1440.145        1380.133   109494954.541   109494954.541    85320791.128    85320763.117    81765751.137          49.500          55.120          48.430          55.120          52.870
G11  20726164.581    20726163.915                    20726162.314                       -1271.537       -1271.537                        -990.806                   108916788.472   108916788.472                    84870228.612                          49.180          42.870                          42.870
G13  23974321.334    23974320.923                    23974320.131                       -1536.502       -1536.502                       -1197.284                   125985913.526   125985913.526                    98170826.634                          40.930          24.560                          24.560
G14  22295897.484    22295897.256    22295896.679    22295896.611    22295904.342       -2527.569       -2527.569       -1969.502       -1969.533       -1887.429   117165752.389   117165752.389    91297982.584    91297996.578    87493950.154          45.430          36.370          44.500          36.370          48.810
G21  21735989.038    21735987.898                    21735986.587                       -1266.262       -1266.262                        -986.700                   114223416.602   114223416.602                    89005275.504                          48.560          39.370                          39.370
G27  23546952.581    23546951.951    23546952.532    23546952.076    23546955.867        3481.134        3481.134        2712.526        2712.574        2599.530   123740132.249   123740132.249    96420928.707    96420925.697    92403396.920          42.750          41.870          41.060          41.870          45.370
G28  22941111.829    22941110.975                    22941109.674                       -2314.802       -2314.802                       -1803.741                   120556366.578   120556366.578                    93940031.148                          43.310          30.060                          30.060
G30  20931344.200    20931343.454    20931345.076    20931344.450    20931348.326       -1280.789       -1280.789        -997.971        -998.019        -956.424   109994982.688   109994982.688    85710397.057    85710386.047    82139140.071          50.560          45.310          48.250          45.310          53.560
R02  23214715.042    23214714.948    23214718.058    23214717.740        1517.144        1517.175        1179.971        1179.966   123878154.353   123878178.354    96349704.747    96349702.748          48.430          47.250          44.000          43.810
R10  20465309.149    20465308.943                                        2238.092        2238.126                                   109091653.464   109091657.476                                          51.620          52.120
R11  19583604.873    19583605.262    19583607.177    19583607.324       -1540.559       -1540.532       -1198.169       -1198.234   104648883.722   104648877.727    81393618.110    81393600.113          52.870          53.250          51.810          51.810
R12  23090875.716    23090875.559    23090878.747    23090878.868       -3701.387       -3701.438       -2878.787       -2878.842   123347320.681   123347326.688    95936833.374    95936821.377          46.870          45.750          40.310          40.120
R20  20441390.769    20441390.706    20441396.455    20441395.834        2326.208        2326.295        1809.278        1809.369   109309348.465   109309345.473    85018425.763    85018426.774          43.120          41.870          48.870          49.810
R21  19914806.440    19914806.574    19914811.240    19914811.235       -2429.833       -2429.819       -1889.874       -1889.886   106568606.979   106568189.975    82886655.419    82886415.419          53.250          53.430          50.060          50.250
R22  23443581.497    23443581.488    23443587.112                       -4573.059       -4573.020       -3556.859                   125143457.011   125143453.974    97333784.821                          40.500          40.500          25.310
