     3.03           OBSERVATION DATA    M (MIXED)           RINEX VERSION / TYPE
RTCM2RINEX 1.2.19   NRCan               20210103 01:29:11UTCPGM / RUN BY / DATE
gfzrnx-1.11-7352    FILE MERGE          20210104 003015 UTC COMMENT
  -417603.6000 -4064529.8000  4881432.1600                  APPROX POSITION XYZ
This data is subject to the Open Government Licence- Canada COMMENT
https://open.canada.ca/en/open-government-licence-canada    COMMENT
DBHZ                                                        SIGNAL STRENGTH UNIT
    18                  GPS                                 LEAP SECONDS
     1     1                                                WAVELENGTH FACT L1/2
E L1C  0.00000                                              SYS / PHASE SHIFT
E L5Q  0.00000                                              SYS / PHASE SHIFT
E L6C  0.00000                                              SYS / PHASE SHIFT
E L7Q  0.00000                                              SYS / PHASE SHIFT
E L8Q  0.00000                                              SYS / PHASE SHIFT
G L1C                                                       SYS / PHASE SHIFT
G L1W  0.00000                                              SYS / PHASE SHIFT
G L2L  0.00000                                              SYS / PHASE SHIFT
G L2W                                                       SYS / PHASE SHIFT
G L5Q  0.00000                                              SYS / PHASE SHIFT
R L1C                                                       SYS / PHASE SHIFT
R L1P  0.00000                                              SYS / PHASE SHIFT
R L2C                                                       SYS / PHASE SHIFT
R L2P  0.00000                                              SYS / PHASE SHIFT
3015989             SEPT POLARX5        5.2.0               REC # / TYPE / VERS
DUBO CACS-GSD 924000 LAC DU BONNET MB Canada                MARKER NAME
        0.1000        0.0000        0.0000                  ANTENNA: DELTA H/E/N
40137M001                                                   MARKER NUMBER
ACSOPS              NRCan                                   OBSERVER / AGENCY
 24 R01  1 R02 -4 R03  5 R04  6 R05  1 R06 -4 R07  5 R08  6 GLONASS SLOT / FRQ #
    R09 -2 R10 -7 R11  0 R12 -1 R13 -2 R14 -7 R15  0 R16 -1 GLONASS SLOT / FRQ #
    R17  4 R18 -3 R19  3 R20  2 R21  4 R22 -3 R23  3 R24  2 GLONASS SLOT / FRQ #
 C1C    0.000 C1P    0.000 C2C    0.000 C2P    0.000        GLONASS COD/PHS/BIS
464                 AOAD/M_T        NONE                    ANT # / TYPE
E   20 C1C C5Q C6C C7Q C8Q D1C D5Q D6C D7Q D8Q L1C L5Q L6C  SYS / # / OBS TYPES
       L7Q L8Q S1C S5Q S6C S7Q S8Q                          SYS / # / OBS TYPES
G   20 C1C C1W C2L C2W C5Q D1C D1W D2L D2W D5Q L1C L1W L2L  SYS / # / OBS TYPES
       L2W L5Q S1C S1W S2L S2W S5Q                          SYS / # / OBS TYPES
R   16 C1C C1P C2C C2P D1C D1P D2C D2P L1C L1P L2C L2P S1C  SYS / # / OBS TYPES
       S1P S2C S2P                                          SYS / # / OBS TYPES
    81                                                      # OF SATELLITES
   E01   946   947   938   947   942   946   947   938   947PRN / # OF OBS
         942   946   947   938   947   942   946   947   938PRN / # OF OBS
         947   942                                          PRN / # OF OBS
   E02  1131  1174  1171  1173  1173  1131  1174  1171  1173PRN / # OF OBS
        1173  1131  1174  1171  1173  1173  1131  1174  1171PRN / # OF OBS
        1173  1173                                          PRN / # OF OBS
   E03   846   873   869   880   881   846   873   869   880PRN / # OF OBS
         881   846   873   869   880   881   846   873   869PRN / # OF OBS
         880   881                                          PRN / # OF OBS
   E04   828   828   828   828   823   828   828   828   828PRN / # OF OBS
         823   828   828   828   828   823   828   828   828PRN / # OF OBS
         828   823                                          PRN / # OF OBS
   E05   692   703   698   703   702   692   703   698   703PRN / # OF OBS
         702   692   703   698   703   702   692   703   698PRN / # OF OBS
         703   702                                          PRN / # OF OBS
   E07  1260  1287  1286  1285  1284  1260  1287  1286  1285PRN / # OF OBS
        1284  1260  1287  1286  1285  1284  1260  1287  1286PRN / # OF OBS
        1285  1284                                          PRN / # OF OBS
   E08  1096  1131  1135  1137  1104  1096  1131  1135  1137PRN / # OF OBS
        1104  1096  1131  1135  1137  1104  1096  1131  1135PRN / # OF OBS
        1137  1104                                          PRN / # OF OBS
   E09   781   774   782   773   708   781   774   782   773PRN / # OF OBS
         708   781   774   782   773   708   781   774   782PRN / # OF OBS
         773   708                                          PRN / # OF OBS
   E11   714   808   812   816   801   714   808   812   816PRN / # OF OBS
         801   714   808   812   816   801   714   808   812PRN / # OF OBS
         816   801                                          PRN / # OF OBS
   E12   713   715   718   722   723   713   715   718   722PRN / # OF OBS
         723   713   715   718   722   723   713   715   718PRN / # OF OBS
         722   723                                          PRN / # OF OBS
   E13  1217  1246  1252  1261  1259  1217  1246  1252  1261PRN / # OF OBS
        1259  1217  1246  1252  1261  1259  1217  1246  1252PRN / # OF OBS
        1261  1259                                          PRN / # OF OBS
   E14   657   657   657   657   657   657   657   657   657PRN / # OF OBS
         657   657   657   657   657   657   657   657   657PRN / # OF OBS
         657   657                                          PRN / # OF OBS
   E15  1200  1205  1206  1203  1203  1200  1205  1206  1203PRN / # OF OBS
        1203  1200  1205  1206  1203  1203  1200  1205  1206PRN / # OF OBS
        1203  1203                                          PRN / # OF OBS
   E18   649   660   660   661   655   649   660   660   661PRN / # OF OBS
         655   649   660   660   661   655   649   660   660PRN / # OF OBS
         661   655                                          PRN / # OF OBS
   E19   909   892   914   918   922   909   892   914   918PRN / # OF OBS
         922   909   892   914   918   922   909   892   914PRN / # OF OBS
         918   922                                          PRN / # OF OBS
   E20   807                           807                  PRN / # OF OBS
               807                           807            PRN / # OF OBS
                                                            PRN / # OF OBS
   E21  1348  1337  1357  1366  1319  1348  1337  1357  1366PRN / # OF OBS
        1319  1348  1337  1357  1366  1319  1348  1337  1357PRN / # OF OBS
        1366  1319                                          PRN / # OF OBS
   E24   282   283   283   283   283   282   283   283   283PRN / # OF OBS
         283   282   283   283   283   283   282   283   283PRN / # OF OBS
         283   283                                          PRN / # OF OBS
   E25   697   730   733   733   730   697   730   733   733PRN / # OF OBS
         730   697   730   733   733   730   697   730   733PRN / # OF OBS
         733   730                                          PRN / # OF OBS
   E26  1010  1012  1012  1019  1007  1010  1012  1012  1019PRN / # OF OBS
        1007  1010  1012  1012  1019  1007  1010  1012  1012PRN / # OF OBS
        1019  1007                                          PRN / # OF OBS
   E27  1343  1356  1389  1385  1359  1343  1356  1389  1385PRN / # OF OBS
        1359  1343  1356  1389  1385  1359  1343  1356  1389PRN / # OF OBS
        1385  1359                                          PRN / # OF OBS
   E30  1386  1382  1395  1402  1372  1386  1382  1395  1402PRN / # OF OBS
        1372  1386  1382  1395  1402  1372  1386  1382  1395PRN / # OF OBS
        1402  1372                                          PRN / # OF OBS
   E31   416   438   449   453   454   416   438   449   453PRN / # OF OBS
         454   416   438   449   453   454   416   438   449PRN / # OF OBS
         453   454                                          PRN / # OF OBS
   E33   709   740   739   741   741   709   740   739   741PRN / # OF OBS
         741   709   740   739   741   741   709   740   739PRN / # OF OBS
         741   741                                          PRN / # OF OBS
   E36   798   824   832   846   823   798   824   832   846PRN / # OF OBS
         823   798   824   832   846   823   798   824   832PRN / # OF OBS
         846   823                                          PRN / # OF OBS
   G01   990   990   987   990   990   990   990   987   990PRN / # OF OBS
         990   990   990   987   990   990   990   990   987PRN / # OF OBS
         990   990                                          PRN / # OF OBS
   G02   771   771         771         771   771         771PRN / # OF OBS
               771   771         771         771   771      PRN / # OF OBS
         771                                                PRN / # OF OBS
   G03   965   965   942   965   963   965   965   942   965PRN / # OF OBS
         963   965   965   942   965   963   965   965   942PRN / # OF OBS
         965   963                                          PRN / # OF OBS
   G04   815   812   813   811   813   815   812   813   811PRN / # OF OBS
         813   815   812   813   811   813   815   812   813PRN / # OF OBS
         811   813                                          PRN / # OF OBS
   G05   864   864   820   864         864   864   820   864PRN / # OF OBS
               864   864   820   864         864   864   820PRN / # OF OBS
         864                                                PRN / # OF OBS
   G06   859   855   835   855   858   859   855   835   855PRN / # OF OBS
         858   856   855   835   855   858   859   855   835PRN / # OF OBS
         855   858                                          PRN / # OF OBS
   G07   735   735   701   735         735   735   701   735PRN / # OF OBS
               735   735   701   735         735   735   701PRN / # OF OBS
         735                                                PRN / # OF OBS
   G08   930   927   924   927   929   930   927   924   927PRN / # OF OBS
         929   930   927   924   927   929   930   927   924PRN / # OF OBS
         927   929                                          PRN / # OF OBS
   G09   927   926   918   926   923   927   926   918   926PRN / # OF OBS
         923   927   926   918   926   923   927   926   918PRN / # OF OBS
         926   923                                          PRN / # OF OBS
   G10   782   782   778   782   782   782   782   778   782PRN / # OF OBS
         782   782   782   778   782   782   782   782   778PRN / # OF OBS
         782   782                                          PRN / # OF OBS
   G11   941   941         941         941   941         941PRN / # OF OBS
               941   941         941         941   941      PRN / # OF OBS
         941                                                PRN / # OF OBS
   G12   976   976   937   976         976   976   937   976PRN / # OF OBS
               976   976   937   976         976   976   937PRN / # OF OBS
         976                                                PRN / # OF OBS
   G13   987   987         987         987   987         987PRN / # OF OBS
               987   987         987         987   987      PRN / # OF OBS
         987                                                PRN / # OF OBS
   G14   772   770   762   770   764   772   770   762   770PRN / # OF OBS
         764   771   770   762   770   764   772   770   762PRN / # OF OBS
         770   764                                          PRN / # OF OBS
   G15   905   905   858   905         905   905   858   905PRN / # OF OBS
               905   905   858   905         905   905   858PRN / # OF OBS
         905                                                PRN / # OF OBS
   G16   913   913         913         913   913         913PRN / # OF OBS
               913   913         913         913   913      PRN / # OF OBS
         913                                                PRN / # OF OBS
   G17   766   765   765   765         766   765   765   765PRN / # OF OBS
               766   765   765   765         766   765   765PRN / # OF OBS
         765                                                PRN / # OF OBS
   G18   774   773   767   773   774   774   773   767   773PRN / # OF OBS
         774   773   773   767   773   774   774   773   767PRN / # OF OBS
         773   774                                          PRN / # OF OBS
   G19   760   760         760         760   760         760PRN / # OF OBS
               760   760         760         760   760      PRN / # OF OBS
         760                                                PRN / # OF OBS
   G20   778   778         778         778   778         778PRN / # OF OBS
               778   778         778         778   778      PRN / # OF OBS
         778                                                PRN / # OF OBS
   G21  1018  1018        1018        1018  1018        1018PRN / # OF OBS
              1018  1018        1018        1018  1018      PRN / # OF OBS
        1018                                                PRN / # OF OBS
   G22   967   967         967         967   967         967PRN / # OF OBS
               967   967         967         967   967      PRN / # OF OBS
         967                                                PRN / # OF OBS
   G23   791   790   787   790   791   791   790   787   790PRN / # OF OBS
         791   790   790   787   790   791   791   790   787PRN / # OF OBS
         790   791                                          PRN / # OF OBS
   G24  1002  1002   997  1002  1002  1002  1002   997  1002PRN / # OF OBS
        1002  1002  1002   997  1002  1002  1002  1002   997PRN / # OF OBS
        1002  1002                                          PRN / # OF OBS
   G25   944   943   938   943   944   944   943   938   943PRN / # OF OBS
         944   944   943   938   943   944   944   943   938PRN / # OF OBS
         943   944                                          PRN / # OF OBS
   G26   930   930   913   930   926   930   930   913   930PRN / # OF OBS
         926   930   930   913   930   926   930   930   913PRN / # OF OBS
         930   926                                          PRN / # OF OBS
   G27  1018  1017  1012  1016  1017  1018  1017  1012  1016PRN / # OF OBS
        1017  1018  1017  1012  1016  1017  1018  1017  1012PRN / # OF OBS
        1016  1017                                          PRN / # OF OBS
   G28   803   803         803         803   803         803PRN / # OF OBS
               803   803         803         803   803      PRN / # OF OBS
         803                                                PRN / # OF OBS
   G29   937   937   900   937         937   937   900   937PRN / # OF OBS
               937   937   900   937         937   937   900PRN / # OF OBS
         937                                                PRN / # OF OBS
   G30   850   848   839   847   850   850   848   839   847PRN / # OF OBS
         850   848   846   839   846   850   850   848   839PRN / # OF OBS
         847   850                                          PRN / # OF OBS
   G31   854   854   795   854         854   854   795   854PRN / # OF OBS
               854   854   795   854         854   854   795PRN / # OF OBS
         854                                                PRN / # OF OBS
   G32   780   780   772   780   780   780   780   772   780PRN / # OF OBS
         780   780   780   772   780   780   780   780   772PRN / # OF OBS
         780   780                                          PRN / # OF OBS
   R01  1034  1045  1015  1007  1034  1045  1015  1007  1032PRN / # OF OBS
        1031  1015  1006  1034  1045  1015  1007            PRN / # OF OBS
   R02  1118  1117  1103  1093  1118  1117  1103  1093  1118PRN / # OF OBS
        1115  1102  1090  1118  1117  1103  1093            PRN / # OF OBS
   R03  1085  1089  1080  1084  1085  1089  1080  1084  1084PRN / # OF OBS
        1083  1077  1077  1085  1089  1080  1084            PRN / # OF OBS
   R04   900   900   875   879   900   900   875   879   889PRN / # OF OBS
         882   870   862   900   900   875   879            PRN / # OF OBS
   R05   906   904   896   890   906   904   896   890   900PRN / # OF OBS
         894   895   888   906   904   896   890            PRN / # OF OBS
   R06   894   906               894   906               893PRN / # OF OBS
         888               894   906                        PRN / # OF OBS
   R07   975   979   984   978   975   979   984   978   974PRN / # OF OBS
         972   976   972   975   979   984   978            PRN / # OF OBS
   R08  1017  1018   999   996  1017  1018   999   996  1017PRN / # OF OBS
        1016   999   993  1017  1018   999   996            PRN / # OF OBS
   R09   888   888   881   879   888   888   881   879   884PRN / # OF OBS
         883   877   874   888   888   881   879            PRN / # OF OBS
   R10  1052  1043              1052  1043              1051PRN / # OF OBS
        1038              1052  1043                        PRN / # OF OBS
   R11  1119  1119  1108  1099  1119  1119  1108  1099  1112PRN / # OF OBS
        1110  1106  1099  1119  1119  1108  1099            PRN / # OF OBS
   R12  1150  1150  1126  1123  1150  1150  1126  1123  1141PRN / # OF OBS
        1138  1123  1112  1150  1150  1126  1123            PRN / # OF OBS
   R13   942   938   922   929   942   938   922   929   941PRN / # OF OBS
         929   922   911   942   938   922   929            PRN / # OF OBS
   R14   938   937   937   935   938   937   937   935   938PRN / # OF OBS
         937   937   935   938   937   937   935            PRN / # OF OBS
   R15   952   953   940   940   952   953   940   940   952PRN / # OF OBS
         953   940   940   952   953   940   940            PRN / # OF OBS
   R16   887   888   878   871   887   888   878   871   887PRN / # OF OBS
         887   875   867   887   888   878   871            PRN / # OF OBS
   R17   904   901   885   880   904   901   885   880   895PRN / # OF OBS
         891   883   874   904   901   885   880            PRN / # OF OBS
   R18   892   892   885   876   892   892   885   876   882PRN / # OF OBS
         881   883   875   892   892   885   876            PRN / # OF OBS
   R19   844   847   879   866   844   847   879   866   844PRN / # OF OBS
         844   870   857   844   847   879   866            PRN / # OF OBS
   R20  1052  1057  1135  1088  1052  1057  1135  1088  1052PRN / # OF OBS
        1050  1126  1079  1052  1057  1135  1088            PRN / # OF OBS
   R21  1157  1156  1147  1145  1157  1156  1147  1145  1156PRN / # OF OBS
        1155  1147  1143  1157  1156  1147  1145            PRN / # OF OBS
   R22  1088  1097   809   784  1088  1097   809   784  1081PRN / # OF OBS
        1080   809   739  1088  1097   809   784            PRN / # OF OBS
   R23   970   968               970   968               970PRN / # OF OBS
         967               970   968                        PRN / # OF OBS
   R24   918   919   913   911   918   919   913   911   914PRN / # OF OBS
         913   911   903   918   919   913   911            PRN / # OF OBS
    30.000                                                  INTERVAL
  2021     1     3     0     0    0.0000000     GPS         TIME OF FIRST OBS
  2021     1     3    23    59   30.0000000     GPS         TIME OF LAST OBS
                                                            END OF HEADER
> 2021 01 03 00 00 00.0000000  0 25
E02  25645558.225    25645562.437    25645562.706    25645557.641    25645559.042       -2151.938       -1606.897       -1746.727       -1648.871       -1627.883   134768343.508   100638736.067   109389913.220   103264075.361   101951411.290          44.560          45.500          46.620          46.930          49.250
E03  25987046.721    25987052.441    25987049.342    25987046.482    25987048.670        2349.523        1754.414        1906.978        1800.289        1777.352   136562893.637   101978812.446   110846527.860   104639106.327   103308970.963          43.120          45.310          44.500          45.680          48.430
E08  24128164.435    24128167.610    24128169.896    24128162.837    24128164.439        -126.325         -94.306        -102.586         -96.802         -95.545   126794388.576    94684132.624   102917555.886    97154137.991    95919144.384          44.180          44.000          45.680          45.560          47.810
E11  23900447.250    23900449.280    23900449.128    23900444.605    23900446.109       -2587.919       -1932.590       -2100.689       -1982.939       -1957.765   125597723.119    93790537.610   101946216.221    96237217.268    95013873.514          40.750          41.680          42.680          42.930          45.370
E12  24001349.918    24001350.750    24001350.066    24001346.701    24001347.784           7.434           5.525           5.972           5.636           5.572   126127960.853    94186507.000   102376609.657    96643516.046    95415026.599          42.500          42.500          43.560          44.560          46.620
E24  25614698.586    25614702.039    25614701.989    25614697.461    25614698.518        2069.569        1545.386        1679.786        1585.773        1565.572   134606202.123   100517647.688   109258306.113   103139830.777   101828738.309          45.680          46.500          47.060          48.250          50.430
E25  23447678.258    23447683.244    23447680.865    23447678.412    23447679.951        -155.147        -115.841        -125.917        -118.832        -117.343   123218429.024    92013809.085   100014999.978    94414141.698    93213982.968          48.370          52.000          53.060          53.370          55.680
E33  28389261.015    28389264.463    28389265.295    28389259.716    28389261.166        2327.116        1737.869        1888.961        1783.217        1760.570   149186587.510   111405585.613   121093095.721   114311822.939   112858714.355          35.680          36.500          38.430          36.430          39.370
G07  20464802.684    20464802.264    20464800.413    20464800.332                         904.408         904.408         704.686         704.734                   107543303.688   107543303.688    83800006.069    83799990.060                          49.870          44.560          47.620          44.560
G08  20987132.306    20987131.672    20987133.504    20987132.757    20987134.536        1477.748        1477.748        1151.519        1151.494        1103.526   110288175.106   110288175.106    85938858.284    85938844.278    82358110.124          50.370          53.680          47.250          53.680          52.250
G09  24708000.863    24708000.448    24708003.023    24708001.162    24708003.205        3799.056        3799.056        2960.257        2960.322        2836.861   129841436.123   129841436.123   101175163.560   101175158.566    96959539.503          33.310           9.060          30.060           9.060          34.180
G11  21875380.593    21875379.909                    21875377.056                       -2081.509       -2081.509                       -1621.956                   114955929.939   114955929.939                    89576051.778                          48.930          35.750                          35.750
G13  23178555.536    23178555.094                    23178553.063                       -2293.920       -2293.920                       -1787.474                   121804140.518   121804140.518                    94912301.306                          42.250          24.680                          24.680
G14  21737443.284    21737442.963    21737442.443    21737441.884    21737449.046       -2388.701       -2388.701       -1861.405       -1861.326       -1783.793   114231062.532   114231062.532    89011234.951    89011242.947    85302457.255          46.870          36.810          45.180          36.810          49.560
G21  23205555.181    23205554.041                    23205553.593                       -2055.604       -2055.604                       -1601.779                   121946040.702   121946040.702                    95022890.266                          41.500          26.060                          26.060
G27  23475526.129    23475525.491    23475527.185    23475527.180    23475528.141        3433.626        3433.626        2675.603        2675.551        2564.077   123364795.105   123364795.105    96128431.089    96128430.086    92123118.171          42.930          41.680          41.180          41.680          44.180
G28  22270054.375    22270053.405                    22270052.242                       -2265.437       -2265.437                       -1765.274                   117029970.901   117029970.901                    91192185.737                          45.680          32.680                          32.680
G30  20588144.432    20588143.735    20588144.713    20588144.159    20588146.930       -1102.786       -1102.786        -859.288        -859.314        -823.540   108191480.548   108191480.548    84305063.662    84305064.658    80792367.164          51.430          45.250          48.500          45.250          54.000
R01  23156616.071    23156615.499    23156620.966    23156621.323        3914.900        3914.795        3044.993        3045.210   123785393.695   123785436.720    96277586.672    96277551.698          39.120          38.430          35.250          35.000
R02  21767467.999    21767468.406    21767472.401    21767472.213         271.573         271.578         211.161         211.270   116155412.435   116155482.452    90343106.475    90343122.472          49.250          48.870          45.000          44.810
R10  20978314.437    20978314.008                                        2563.679        2563.600                                   111826293.089   111826276.094                                          49.680          49.370
R11  19470363.944    19470364.356    19470365.443    19470365.497        -886.677        -886.695        -689.608        -689.594   104043773.313   104043775.319    80923064.125    80922960.130          53.000          53.060          50.750          50.750
R12  22476540.502    22476541.348    22476546.025    22476546.244       -3360.259       -3360.327       -2613.640       -2613.462   120065673.154   120065663.165    93384438.416    93384437.427          45.180          45.750          43.250          43.180
R20  20589215.287    20589215.006    20589219.427    20589218.855         909.170         909.306         707.223         707.159   110099807.862   110099815.886    85633246.748    85633232.747          42.370          41.430          47.180          48.120
R21  21087932.717    21087933.410    21087936.304    21087936.662       -3530.819       -3530.857       -2746.235       -2746.188   112845822.334   112845823.334    87768999.304    87768996.306          49.810          50.310          47.120          47.120
> 2021 01 03 00 00 30.0000000  0 26
E02  25633283.500    25633287.216    25633288.258    25633282.456    25633283.995       -2148.528       -1604.401       -1743.984       -1646.283       -1625.335   134703838.812   100590566.988   109337555.504   103214649.678   101902613.910          44.500          45.180          46.560          46.680          48.930
E03  26000484.966    26000490.046    26000487.641    26000484.973    26000486.696        2358.228        1761.018        1914.197        1806.964        1784.006   136633510.278   102031545.645   110903846.569   104693215.183   103362391.992          43.620          44.810          44.500          46.250          48.560
E08  24127485.921    24127489.900    24127491.421    24127484.801    24127486.058        -111.470         -83.278         -90.452         -85.443         -84.359   126790823.602    94681470.489   102914662.260    97151406.415    95916447.529          43.620          44.120          45.430          45.930          48.060
E11  23885699.052    23885700.344    23885699.123    23885695.619    23885696.927       -2579.327       -1926.032       -2093.565       -1976.290       -1951.177   125520216.134    93732659.045   101883304.723    96177828.813    94955240.004          41.060          41.560          42.120          42.870          45.250
E12  24001435.769    24001437.245    24001436.485    24001433.271    24001434.194          22.785          16.975          18.481          17.535          17.266   126128414.727    94186845.938   102376978.063    96643863.829    95415369.960          42.000          42.560          43.620          44.750          46.680
E24  25626524.069    25626527.937    25626527.553    25626523.084    25626524.243        2073.303        1548.260        1682.926        1588.641        1568.452   134668346.743   100564054.384   109308748.174   103187448.074   101875750.306          45.310          46.500          46.620          48.180          50.310
E25  23446813.643    23446818.557    23446816.036    23446813.725    23446815.099        -147.982        -110.549        -120.139        -113.391        -111.965   123213884.304    92010415.305   100011311.084    94410659.383    93210544.921          48.680          51.810          53.000          53.370          55.620
E33  28402573.594    28402578.370    28402577.727    28402571.915    28402573.777        2336.312        1744.753        1896.576        1790.335        1767.562   149256545.382   111457826.859   121149879.690   114365427.028   112911637.023          33.560          36.180          38.000          36.250          39.060
G07  20470011.597    20470011.186    20470009.768    20470009.531                         920.468         920.468         717.221         717.246                   107570677.987   107570677.987    83821336.698    83821320.694                          49.120          44.370          47.620          44.370
G08  20995619.204    20995618.565    20995620.371    20995619.861    20995621.658        1495.417        1495.417        1165.292        1165.261        1116.727   110332774.886   110332774.886    85973611.363    85973597.353    82391415.162          50.120          53.500          47.000          53.500          52.370
G09  24729690.026    24729689.678    24729693.469    24729691.510    24729693.700        3799.767        3799.767        2961.113        2960.855        2837.504   129955421.082   129955421.082   101263982.955   101263977.971    97044658.112          32.000           7.870          30.180           7.870          34.180
G11  21863543.851    21863543.158                    21863541.378                       -2065.151       -2065.151                       -1609.208                   114893732.287   114893732.287                    89527586.101                          47.560          35.620                          35.620
G13  23165507.789    23165507.316                    23165504.931                       -2277.740       -2277.740                       -1774.863                   121735568.091   121735568.091                    94858868.276                          43.620          26.060                          26.060
G14  21723831.991    21723831.683    21723831.155    21723830.788    21723837.678       -2379.935       -2379.935       -1854.414       -1854.496       -1777.211   114159534.345   114159534.345    88955498.718    88955506.711    85249043.358          47.000          37.120          45.620          37.120          49.810
G21  23193857.296    23193856.178                    23193854.527                       -2043.195       -2043.195                       -1592.091                   121884561.394   121884561.394                    94974984.350                          43.430          26.870                          26.870
G27  23495152.278    23495151.652    23495153.212    23495153.181    23495154.414        3441.948        3441.948        2682.045        2682.038        2570.242   123467929.541   123467929.541    96208795.570    96208794.572    92200134.138          43.310          41.870          41.430          41.870          44.560
G28  22257142.972    22257141.998                    22257140.798                       -2258.036       -2258.036                       -1759.504                   116962120.941   116962120.941                    91139315.643                          45.250          32.310                          32.310
G30  20581892.714    20581892.012    20581892.853    20581892.379    20581895.047       -1087.633       -1087.633        -847.486        -847.507        -812.177   108158626.361   108158626.361    84279463.007    84279463.996    80767833.200          51.620          45.370          48.620          45.370          54.180
R01  23178608.155    23178609.988    23178614.377    23178615.996        3922.626        3922.709        3050.977        3051.007   123902959.307   123903002.342    96369026.561    96368991.565          41.500          41.000          35.250          35.000
R02  21769071.170    21769071.228    21769074.883    21769074.678         298.575         298.611         232.262         232.177   116163967.350   116164037.364    90349760.284    90349776.282          48.930          48.250          44.060          44.060
R03                  23923020.165                                                       -2907.423                                                                                                                          31.120
R10  20992771.627    20992771.493                                        2573.825        2573.884                                   111903357.320   111903340.321                                          49.680          49.680
R11  19465425.891    19465426.137    19465427.064    19465427.041        -872.667        -872.652        -678.789        -678.794   104017384.673   104017386.679    80902539.620    80902435.631          53.120          53.120          50.750          50.560
R12  22457679.637    22457679.543    22457683.679    22457683.831       -3357.202       -3357.210       -2611.145       -2611.143   119964913.186   119964903.179    93306069.573    93306068.570          45.810          45.810          43.750          43.560
R20  20594395.054    20594394.987    20594399.981    20594399.489         937.249         937.368         729.013         728.983   110127508.532   110127516.548    85654791.711    85654777.712          42.060          40.810          47.930          48.620
R21  21068188.138    21068188.348    21068191.081    21068191.001       -3513.331       -3513.327       -2732.565       -2732.605   112740160.025   112740161.030    87686817.567    87686814.573          51.250          51.120          47.120          47.060
> 2021 01 03 00 01 00.0000000  0 26
E02  25621027.467    25621031.599    25621032.342    25621027.348    25621028.467       -2145.157       -1601.950       -1741.183       -1643.725       -1622.829   134639435.813   100542473.862   109285280.366   103165301.948   101853893.482          44.060          44.750          46.620          47.120          49.000
E03  26013973.160    26013978.343    26013976.188    26013973.811    26013974.863        2367.002        1767.615        1921.242        1813.678        1790.653   136704391.949   102084476.757   110961380.356   104747527.079   103416013.495          43.120          44.430          45.060          46.870          48.750
E08  24126892.349    24126896.418    24126898.296    24126891.743    24126892.786         -96.586         -72.067         -78.461         -74.026         -73.056   126787705.622    94679142.141   102912131.436    97149017.328    95914088.810          43.370          43.870          45.750          46.250          48.120
E11  23870998.418    23871000.766    23870999.094    23870995.568    23870996.767       -2570.889       -1919.747       -2086.778       -1969.850       -1944.792   125442966.750    93674972.846   101820602.303    96118637.749    94896801.375          40.620          41.560          42.250          43.000          45.250
E12  24001610.251    24001612.152    24001611.647    24001607.960    24001609.021          38.273          28.588          31.076          29.328          28.962   126129333.025    94187531.694   102377723.445    96644567.472    95416064.658          41.500          42.810          43.870          44.620          46.750
E24  25638371.092    25638374.754    25638374.965    25638369.659    25638371.319        2077.008        1550.990        1685.851        1591.421        1571.202   134730603.621   100610544.897   109359281.355   103235151.386   101922847.219          45.180          46.310          46.620          47.810          50.060
E25  23445989.143    23445994.097    23445991.791    23445989.395    23445990.720        -140.970        -105.271        -114.444        -108.041        -106.652   123209552.129    92007180.247   100007794.709    94407339.928    93207267.664          48.680          51.750          53.180          53.560          55.680
E33  28415939.131    28415945.002    28415944.104    28415939.030    28415939.783        2345.884        1751.906        1904.037        1797.613        1774.751   149326784.351   111510277.989   121206891.767   114419246.444   112964772.296          32.000          35.370          38.060          37.120          39.180
G07  20475312.048    20475311.629    20475309.906    20475310.013                         936.339         936.339         729.643         729.614                   107598532.539   107598532.539    83843041.540    83843025.533                          49.310          44.310          47.310          44.310
G08  21004206.794    21004206.160    21004207.921    21004207.192    21004209.458        1512.993        1512.993        1178.972        1178.956        1129.831   110377903.772   110377903.772    86008776.733    86008762.730    82425115.312          49.870          53.430          46.680          53.430          52.560
G09  24751384.085    24751384.068    24751387.277    24751384.545    24751388.180        3799.946        3799.946        2961.116        2960.923        2837.725   130069418.488   130069418.488   101352812.077   101352807.060    97129785.990          33.060           8.680          29.750           8.680          34.250
G11  21851801.969    21851801.285                    21851799.434                       -2048.776       -2048.776                       -1596.444                   114832025.609   114832025.609                    89479503.007                          48.370          35.750                          35.750
G13  23152550.153    23152549.662                    23152548.905                       -2261.605       -2261.605                       -1762.281                   121667481.058   121667481.058                    94805813.500                          42.430          25.120                          25.120
G14  21710271.474    21710271.157    21710269.823    21710269.672    21710276.656       -2371.140       -2371.140       -1847.650       -1847.642       -1770.686   114088271.321   114088271.321    88899969.105    88899977.099    85195827.478          48.120          37.370          45.000          37.370          49.930
G21  23182228.828    23182227.702                    23182225.992                       -2030.686       -2030.686                       -1582.352                   121823455.059   121823455.059                    94927369.048                          42.810          26.680                          26.680
G27  23514825.673    23514825.061    23514826.022    23514825.570    23514827.085        3449.970        3449.970        2688.288        2688.289        2576.274   123571310.025   123571310.025    96289351.810    96289350.809    92277333.869          44.180          42.250          41.620          42.250          44.500
G28  22244274.809    22244273.844                    22244272.488                       -2250.605       -2250.605                       -1753.718                   116894494.450   116894494.450                    91086619.705                          46.370          33.000                          33.000
G30  20575726.960    20575726.245    20575727.402    20575726.843    20575729.753       -1072.416       -1072.416        -835.639        -835.648        -800.840   108126228.093   108126228.093    84254217.608    84254218.599    80743639.698          51.000          45.250          48.370          45.250          54.250
R01  23200645.183    23200645.049    23200651.441    23200651.213        3930.289        3930.366        3056.885        3057.034   124020756.329   124020799.336    96460646.487    96460611.499          40.250          39.430          33.180          33.560
R02  21770826.724    21770826.881    21770830.523    21770830.165         325.445         325.461         253.165         253.201   116173331.275   116173401.283    90357043.327    90357059.324          49.180          48.810          44.810          43.930
R03  23906771.983    23906772.846                                       -2889.788       -2889.587                                   127974829.291   127974851.313                                          31.430          29.810
R10  21007285.919    21007285.472                                        2583.977        2583.938                                   111980726.716   111980709.713                                          49.680          49.620
R11  19460565.752    19460565.895    19460567.381    19460567.497        -858.823        -858.759        -667.958        -667.954   103991414.462   103991416.466    80882340.575    80882236.583          52.680          52.870          51.060          51.060
R12  22438834.587    22438834.797    22438837.967    22438838.209       -3354.101       -3354.150       -2608.821       -2608.713   119864245.632   119864235.635    93227772.603    93227771.623          46.870          45.750          43.120          43.500
R20  20599732.110    20599732.177    20599737.399    20599736.849         965.194         965.208         750.762         750.750   110156049.567   110156057.583    85676990.307    85676976.308          42.120          40.810          47.750          48.560
R21  21048541.036    21048541.787    21048543.904    21048543.962       -3495.744       -3495.715       -2718.895       -2718.897   112635025.948   112635026.958    87605046.658    87605043.659          51.370          51.500          46.500          46.810
> 2021 01 03 00 01 30.0000000  0 26
E02  25608791.820    25608795.442    25608795.885    25608790.766    25608792.453       -2141.570       -1599.286       -1738.306       -1640.977       -1620.113   134575134.756   100494456.835   109233087.944   103116032.309   101805250.149          44.500          44.680          46.500          46.930          48.870
E03  26027511.708    26027516.587    26027514.571    26027511.675    26027513.161        2375.922        1774.255        1928.519        1820.487        1797.357   136775536.739   102137604.349   111019127.759   104802040.605   103469834.052          43.870          44.180          44.810          46.180          48.250
E08  24126384.135    24126387.905    24126390.029    24126383.194    24126384.590         -81.424         -60.889         -66.234         -62.477         -61.674   126785034.601    94677147.534   102909963.400    97146970.700    95912068.193          43.560          43.870          45.870          45.870          47.930
E11  23856347.778    23856349.302    23856348.690    23856344.605    23856345.974       -2561.937       -1913.181       -2079.533       -1963.060       -1938.125   125365976.847    93617480.405   101758110.519    96059645.499    94838559.029          40.680          40.750          42.870          42.680          44.750
E12  24001873.898    24001875.566    24001874.055    24001870.793    24001872.046          53.885          40.120          43.748          41.299          40.727   126130715.608    94188564.126   102378845.663    96645626.847    95417110.564          41.930          43.250          43.060          44.430          46.810
E24  25650239.458    25650243.268    25650243.675    25650238.029    25650239.779        2080.801        1553.928        1689.047        1594.491        1574.212   134792972.292   100657118.914   109409905.294   103282940.387   101970028.727          45.310          46.180          47.370          47.750          50.000
E25  23445205.218    23445210.213    23445208.063    23445205.609    23445206.755        -133.698         -99.850        -108.517        -102.474        -101.156   123205432.440    92004103.858   100004450.804    94404183.285    93204151.148          48.680          51.750          53.370          53.560          55.680
E33  28429359.771    28429363.456    28429363.220    28429357.632    28429358.756        2354.979        1758.883        1911.720        1804.698        1781.773   149397302.375   111562937.573   121264130.427   114473279.740   113018118.731          34.000          34.370          37.250          36.310          38.310
G07  20480704.061    20480703.640    20480701.802    20480701.583                         952.606         952.606         742.290         742.288                   107626867.297   107626867.297    83865120.572    83865104.563                          49.370          44.310          47.120          44.310
G08  21012894.611    21012893.982    21012896.431    21012895.340    21012897.285        1530.662        1530.662        1192.706        1192.726        1143.042   110423559.400   110423559.400    86044352.550    86044338.547    82459208.801          49.680          53.620          47.430          53.620          52.500
G09  24773078.408    24773078.345    24773081.479    24773079.216    24773081.898        3800.266        3800.266        2961.222        2961.253        2837.949   130183425.647   130183425.647   101441648.744   101441643.766    97214921.133          31.620           8.180          30.680           8.180          32.310
G11  21840153.348    21840152.655                    21840150.526                       -2032.129       -2032.129                       -1583.478                   114770812.247   114770812.247                    89431804.281                          48.060          35.810                          35.810
G13  23139686.458    23139686.011                    23139684.056                       -2245.095       -2245.095                       -1749.428                   121599881.737   121599881.737                    94753138.686                          42.560          25.370                          25.370
G14  21696760.989    21696760.682    21696759.612    21696759.196    21696766.408       -2362.073       -2362.073       -1840.582       -1840.576       -1763.885   114017274.171   114017274.171    88844646.656    88844654.657    85142810.141          47.430          37.500          45.370          37.500          50.180
G21  23170671.374    23170670.251                    23170669.598                       -2018.053       -2018.053                       -1572.513                   121762724.014   121762724.014                    94880046.188                          42.430          26.310                          26.310
G27  23534544.183    23534543.580    23534544.822    23534544.281    23534545.107        3458.168        3458.168        2694.694        2694.677        2582.510   123674933.763   123674933.763    96370097.591    96370096.580    92354715.246          43.500          42.000          40.810          42.000          43.930
G28  22231448.394    22231447.438                    22231445.988                       -2242.949       -2242.949                       -1747.755                   116827091.989   116827091.989                    91034098.320                          46.310          32.680                          32.680
G30  20569648.450    20569647.741    20569649.622    20569648.942    20569651.490       -1057.035       -1057.035        -823.638        -823.665        -789.314   108094287.215   108094287.215    84229328.609    84229329.601    80719787.747          50.430          45.120          49.000          45.120          54.310
R01  23222723.452    23222724.334    23222728.360    23222729.608        3937.929        3937.735        3062.996        3062.507   124138779.923   124138822.928    96552442.608    96552407.598          40.060          38.810          33.680          33.750
R02  21772732.360    21772732.602    21772735.801    21772735.980         352.599         352.616         274.228         274.187   116183503.665   116183573.676    90364955.193    90364971.186          49.000          48.810          43.870          43.750
R03  23890632.998    23890635.624                                       -2871.340       -2871.144                                   127888418.746   127888440.778                                          34.250          33.250
R10  21021857.256    21021857.028                                        2594.205        2594.258                                   112058399.906   112058382.923                                          49.870          49.430
R11  19455784.514    19455784.733    19455785.763    19455785.759        -844.600        -844.614        -656.951        -656.937   103965863.685   103965865.682    80862467.757    80862363.765          52.930          53.180          50.810          50.810
R12  22420005.421    22420005.734    22420010.715    22420010.898       -3350.838       -3350.824       -2606.134       -2606.156   119763671.933   119763661.951    93149548.681    93149547.690          45.810          45.560          43.810          43.680
R20  20605226.514    20605226.523    20605231.140    20605230.599         993.397         993.371         772.552         772.612   110185428.955   110185436.957    85699840.928    85699826.932          42.120          40.870          47.310          48.180
R21  21028993.794    21028993.937    21028996.836    21028996.979       -3477.731       -3477.694       -2704.918       -2704.851   112530424.236   112530425.243    87523689.796    87523686.796          51.000          51.370          47.060          47.180
> 2021 01 03 00 02 00.0000000  0 26
E02  25596576.098    25596579.112    25596579.215    25596574.217    25596575.802       -2138.554       -1596.937       -1735.860       -1638.663       -1617.806   134510936.003   100446516.230   109180978.602   103066841.074   101756684.229          45.310          45.370          46.430          47.060          49.250
E03  26041099.762    26041104.529    26041103.206    26041099.563    26041101.406        2384.256        1780.379        1935.205        1826.884        1803.642   136846942.968   102190927.175   111077087.371   104856754.477   103523852.403          43.560          44.500          44.750          46.000          48.250
E08  24125961.393    24125964.572    24125966.678    24125960.317    24125961.378         -66.938         -49.996         -54.295         -51.336         -50.664   126782810.696    94675486.826   102908158.292    97145266.658    95910385.818          43.750          44.250          45.810          46.370          48.370
E11  23841746.365    23841748.046    23841747.876    23841743.711    23841745.174       -2553.585       -1906.829       -2072.761       -1956.540       -1931.662   125289248.409    93560183.237   101695830.982    96000853.633    94780514.512          39.810          40.870          42.750          43.120          45.120
E12  24002224.604    24002226.835    24002224.881    24002222.298    24002223.471          69.032          51.593          56.004          52.857          52.216   126132562.512    94189943.336   102380344.780    96647042.022    95418507.755          41.000          43.620          42.500          44.620          47.120
E24  25662129.449    25662132.450    25662132.892    25662127.886    25662129.363        2084.215        1556.424        1691.745        1597.047        1576.731   134855452.613   100703776.305   109460619.838   103330814.920   102017294.688          45.180          46.060          46.870          48.060          50.060
E25  23444462.030    23444466.623    23444464.642    23444462.117    23444463.268        -126.962         -94.784        -103.097         -97.269         -96.022   123201525.395    92001186.271   100001279.510    94401189.587    93201195.506          48.870          52.000          53.250          53.870          55.930
E33  28442830.150    28442833.388    28442832.351    28442828.851    28442830.632        2364.306        1765.340        1918.817        1811.580        1788.556   149468097.923   111615804.358   121321594.290   114527525.631   113071675.074          32.930          33.680          34.370          34.930          37.310
G07  20486187.625    20486187.205    20486185.442    20486185.093                         968.233         968.233         754.447         754.467                   107655682.318   107655682.318    83887573.838    83887557.832                          49.750          44.500          47.430          44.500
G08  21021682.499    21021681.869    21021684.422    21021683.344    21021685.105        1547.753        1547.753        1206.036        1206.041        1155.830   110469740.015   110469740.015    86080337.456    86080323.450    82493694.334          49.870          53.560          47.310          53.560          52.370
G09  24794774.447    24794774.376    24794778.109    24794775.372    24794777.402        3800.555        3800.555        2961.346        2961.386        2837.857   130297439.867   130297439.867   101530490.986   101530485.976    97300061.626          30.060           5.560          30.870           5.560          31.430
G11  21828599.087    21828598.403                    21828596.059                       -2015.918       -2015.918                       -1570.845                   114710094.455   114710094.455                    89384491.731                          48.180          35.560                          35.560
G13  23126917.037    23126916.614                    23126912.852                       -2229.059       -2229.059                       -1736.923                   121532772.430   121532772.430                    94700845.718                          44.310          25.930                          25.930
G14  21683300.762    21683300.449    21683300.323    21683299.907    21683306.833       -2353.523       -2353.523       -1833.871       -1833.912       -1757.499   113946543.761   113946543.761    88789532.089    88789540.075    85089992.007          46.810          37.310          45.430          37.310          50.060
G21  23159186.266    23159185.140                    23159184.786                       -2005.861       -2005.861                       -1563.000                   121702370.569   121702370.569                    94833017.571                          42.250          26.370                          26.370
G27  23554308.535    23554307.955    23554308.513    23554308.151    23554309.988        3465.932        3465.932        2700.613        2700.724        2588.179   123778798.081   123778798.081    96451030.824    96451029.815    92432276.273          42.430          40.430          39.250          40.430          43.870
G28  22218665.044    22218664.097                    22218661.887                       -2235.791       -2235.791                       -1742.175                   116759914.018   116759914.018                    90981751.860                          46.930          33.000                          33.000
G30  20563657.827    20563657.121    20563658.868    20563658.327    20563660.643       -1042.030       -1042.030        -811.947        -811.973        -778.134   108062805.258   108062805.258    84204797.225    84204798.215    80696278.503          50.930          45.370          48.810          45.370          54.120
R01  23244844.789    23244845.053    23244847.715    23244849.866        3944.942        3944.980        3068.310        3068.267   124257025.699   124257068.711    96644411.474    96644376.478          41.060          40.310          34.060          34.560
R02  21774789.790    21774790.058    21774793.132    21774793.494         379.215         379.204         295.003         295.007   116194483.083   116194553.090    90373494.728    90373510.729          48.750          48.370          43.620          43.680
R03                  23874586.339                                                       -2853.481                                                                                                                          24.750
R10  21036485.266    21036484.895                                        2603.937        2603.992                                   112136376.850   112136359.852                                          49.500          49.060
R11  19451081.310    19451081.463    19451083.355    19451083.498        -830.905        -830.945        -646.321        -646.256   103940733.572   103940735.577    80842922.123    80842818.133          52.810          52.810          51.120          51.000
R12  22401196.752    22401197.204    22401200.455    22401200.611       -3348.102       -3348.017       -2603.990       -2603.877   119663193.442   119663183.462    93071398.776    93071397.777          47.250          46.870          43.810          43.930
R20  20610876.592    20610876.534    20610881.948    20610881.568        1020.880        1020.825         793.940         794.019   110215645.842   110215653.845    85723342.957    85723328.963          41.500          40.500          47.560          48.500
R21  21009546.287    21009546.578    21009549.280    21009549.812       -3460.131       -3460.138       -2691.252       -2691.190   112426358.944   112426359.954    87442750.129    87442747.139          50.750          51.120          47.250          47.180
> 2021 01 03 00 02 30.0000000  0 26
E02  25584377.784    25584382.497    25584382.230    25584377.599    25584378.723       -2134.857       -1594.152       -1732.750       -1635.789       -1614.969   134446839.969   100398652.330   109128952.612   103017728.551   101708196.017          44.870          45.810          46.430          47.250          49.500
E03  26054737.500    26054742.093    26054740.921    26054737.561    26054739.055        2393.084        1787.119        1942.473        1833.761        1810.449   136918608.908   102244443.938   111135257.768   104911667.330   103578067.211          44.250          44.370          45.250          46.120          48.310
E08  24125623.790    24125626.656    24125629.053    24125621.721    24125623.332         -51.762         -38.688         -42.010         -39.726         -39.212   126781034.034    94674160.096   102906716.195    97143905.328    95909041.789          44.370          44.500          46.120          45.870          48.180
E11  23827195.808    23827197.243    23827197.029    23827192.545    23827194.429       -2544.565       -1900.072       -2065.438       -1949.674       -1924.882   125212783.436    93503082.816   101633765.310    95942263.629    94722669.298          40.500          41.500          42.750          42.810          45.180
E12  24002664.804    24002666.467    24002665.170    24002662.248    24002663.286          84.803          63.330          68.843          64.951          64.132   126134873.754    94191669.272   102382220.791    96648812.976    95420256.199          41.870          43.310          43.000          44.620          47.000
E24  25674040.470    25674043.251    25674043.833    25674039.023    25674040.227        2088.293        1559.346        1694.998        1600.049        1579.698   134918044.415   100750516.917   109511424.841   103378774.860   102064644.965          46.060          46.120          47.000          48.180          50.180
E25  23443758.783    23443763.567    23443761.479    23443759.093    23443760.284        -119.558         -89.335         -97.067         -91.630         -90.479   123197831.147    91998427.581    99998280.935    94398358.936    93198400.835          48.810          52.000          53.250          53.750          55.930
E33  28456353.816    28456357.940    28456357.323    28456352.147    28456355.108        2373.502        1772.465        1926.549        1818.642        1795.511   149539169.183   111668877.077   121379282.020   114581982.857   113125440.040          33.310          33.810          33.500          33.810          36.750
G07  20491762.138    20491761.722    20491760.255    20491760.049                         984.512         984.512         767.131         767.152                   107684977.795   107684977.795    83910401.482    83910385.472                          49.500          44.250          47.500          44.250
G08  21030570.309    21030569.683    21030571.691    21030570.895    21030572.741        1565.462        1565.462        1219.865        1219.841        1169.016   110516443.842   110516443.842    86116730.045    86116716.042    82528570.568          50.250          53.620          47.180          53.620          52.180
G09  24816472.307    24816472.214    24816474.172    24816472.803    24816474.569        3800.431        3800.431        2961.444        2961.326        2838.275   130411458.492   130411458.492   101619336.781   101619331.680    97385205.496          28.750           7.000          29.810           7.000          31.500
G11  21817138.953    21817138.269                    21817136.471                       -1999.076       -1999.076                       -1557.725                   114649874.604   114649874.604                    89337567.202                          47.430          35.060                          35.060
G13  23114239.617    23114239.202                    23114235.985                       -2212.320       -2212.320                       -1723.889                   121466155.703   121466155.703                    94648936.601                          43.810          25.430                          25.430
G14  21669892.566    21669892.271    21669891.908    21669891.622    21669897.890       -2344.338       -2344.338       -1826.764       -1826.756       -1750.608   113876080.988   113876080.988    88734626.023    88734634.021    85037373.702          47.370          37.750          46.060          37.750          49.680
G21  23147774.725    23147773.600                    23147772.078                       -1992.673       -1992.673                       -1552.723                   121642396.730   121642396.730                    94786284.752                          43.750          28.310                          28.310
G27  23574118.034    23574117.480    23574118.713    23574117.572    23574120.523        3474.032        3474.032        2706.909        2707.038        2594.309   123882900.319   123882900.319    96532149.441    96532148.456    92510014.966          41.750          39.500          39.180          39.500          44.120
G28  22205924.185    22205923.255                    22205921.305                       -2227.990       -2227.990                       -1736.101                   116692960.884   116692960.884                    90929580.588                          46.750          33.120                          33.120
G30  20557754.776    20557754.065    20557755.517    20557754.994    20557757.658       -1026.380       -1026.380        -799.778        -799.777        -766.459   108031783.786   108031783.786    84180624.654    84180625.647    80673113.124          51.310          45.310          49.000          45.310          54.060
R01  23267005.917    23267006.083    23267009.980    23267011.227        3952.267        3952.387        3074.128        3073.916   124375489.140   124375532.160    96736549.714    96736514.704          41.930          40.930          34.180          33.560
R02  21776998.369    21776998.664    21777002.382    21777002.588         406.354         406.316         316.034         316.021   116206269.563   116206339.570    90382662.011    90382678.007          48.500          48.250          44.430          44.370
R03                  23858656.489                                                       -2834.282                                                                                                                          26.250
R10  21051169.596    21051169.654                                        2614.383        2614.361                                   112214656.901   112214639.910                                          49.180          48.750
R11  19446457.483    19446457.644    19446459.232    19446459.331        -816.551        -816.521        -635.050        -635.111   103916025.544   103916027.551    80823704.773    80823600.774          52.560          52.750          50.870          50.750
R12  22382406.825    22382406.557    22382410.778    22382410.308       -3344.420       -3344.418       -2601.246       -2601.162   119562811.606   119562801.614    92993324.016    92993323.018          48.870          47.930          45.680          44.500
R20  20616683.066    20616683.209    20616688.985    20616688.202        1049.050        1049.129         815.925         815.841   110246698.032   110246706.036    85747494.656    85747480.657          41.430          40.500          47.810          48.310
R21  20990200.134    20990200.317    20990203.270    20990203.516       -3441.771       -3441.804       -2676.935       -2676.989   112322834.318   112322835.314    87362231.007    87362228.009          49.870          50.000          47.370          47.370
> 2021 01 03 00 03 00.0000000  0 26
E02  25572200.600    25572205.142    25572205.201    25572200.034    25572201.206       -2131.399       -1591.564       -1729.979       -1633.097       -1612.331   134382846.754   100350865.211   109077010.079   102968694.806   101659785.586          44.750          46.060          46.870          47.000          49.560
E03  26068424.130    26068428.254    26068427.404    26068424.602    26068425.690        2401.767        1793.473        1949.507        1840.331        1816.905   136990532.491   102298153.115   111193637.299   104966777.617   103632476.941          43.680          44.000          45.250          46.370          48.250
E08  24125369.784    24125373.996    24125375.423    24125368.127    24125370.257         -36.845         -27.460         -29.877         -28.318         -27.885   126779704.414    94673167.215   102905636.972    97142886.538    95908035.955          42.930          44.680          46.000          45.370          48.060
E11  23812695.950    23812697.327    23812696.948    23812692.876    23812693.928       -2535.497       -1893.327       -2058.040       -1942.891       -1918.094   125136583.640    93446180.391   101571914.836    95883876.773    94665024.658          41.000          41.930          43.180          43.180          45.560
E12  24003192.965    24003194.271    24003193.484    24003190.494    24003191.332         100.325          74.856          81.320          76.789          75.823   126137649.056    94193741.732   102384473.467    96650939.493    95422355.687          41.180          42.750          43.750          44.870          46.870
E24  25685972.717    25685975.235    25685975.870    25685970.649    25685972.077        2091.964        1562.199        1698.055        1602.928        1582.568   134980747.143   100797340.389   109562319.908   103426819.802   102112079.173          46.060          46.120          46.810          47.870          50.060
E25  23443096.424    23443101.221    23443098.991    23443096.658    23443097.777        -112.507         -83.997         -91.283         -86.209         -85.103   123194349.501    91995827.662    99995454.938    94395691.194    93195767.004          48.560          52.060          53.370          53.680          55.870
E33  28469932.699    28469935.136    28469935.387    28469929.996    28469931.468        2382.833        1779.352        1933.787        1825.605        1802.503   149610514.353   111722154.311   121437192.018   114636649.938   113179412.201          36.370          34.120          34.430          34.180          37.120
G07  20497428.184    20497427.760    20497426.239    20497425.957                        1000.551        1000.551         779.566         779.652                   107714753.499   107714753.499    83933603.324    83933587.319                          49.120          44.120          47.310          44.120
G08  21039557.068    21039556.438    21039558.517    21039557.662    21039559.182        1582.796        1582.796        1233.344        1233.346        1181.972   110563668.583   110563668.583    86153528.550    86153514.544    82563835.806          50.250          53.750          47.620          53.750          52.120
G09  24838167.010    24838166.586    24838171.593    24838170.654    24838171.328        3801.137        3801.137        2961.597        2961.866        2838.265   130525479.027   130525479.027   101708183.842   101708178.919    97470350.587          25.620           5.430          29.000           5.430          30.120
G11  21805774.973    21805774.280                    21805772.366                       -1982.366       -1982.366                       -1544.698                   114590154.791   114590154.791                    89291032.299                          47.750          35.870                          35.870
G13  23101656.154    23101655.743                    23101654.015                       -2195.735       -2195.735                       -1710.965                   121400034.106   121400034.106                    94597413.298                          42.430          25.870                          25.870
G14  21656535.047    21656534.766    21656534.568    21656534.166    21656540.461       -2335.340       -2335.340       -1819.727       -1819.746       -1743.912   113805886.326   113805886.326    88679928.896    88679936.898    84984955.634          47.500          37.680          46.120          37.680          49.810
G21  23136434.494    23136433.377                    23136432.768                       -1979.960       -1979.960                       -1542.827                   121582805.301   121582805.301                    94739849.897                          42.930          27.810                          27.810
G27  23593972.803    23593972.267    23593973.357    23593972.516    23593975.605        3481.793        3481.793        2713.030        2713.085        2600.063   123987237.506   123987237.506    96613451.140    96613450.162    92587929.093          41.310          39.250          39.560          39.250          44.180
G28  22193226.042    22193225.103                    22193223.376                       -2220.513       -2220.513                       -1730.270                   116626232.634   116626232.634                    90877584.577                          46.310          33.370                          33.370
G30  20551939.444    20551938.734    20551940.061    20551939.640    20551942.510       -1010.898       -1010.898        -787.676        -787.713        -754.899   108001224.046   108001224.046    84156811.875    84156812.869    80650292.544          51.120          45.430          48.870          45.430          54.120
R01  23289204.953    23289204.810    23289211.586    23289211.828        3959.395        3959.254        3079.639        3079.824   124494165.666   124494208.661    96828853.624    96828818.652          38.310          38.250          34.310          34.060
R02  21779359.274    21779359.202    21779362.285    21779361.758         433.164         433.121         336.865         336.784   116218861.585   116218931.581    90392455.751    90392471.760          49.120          48.620          43.870          43.810
R03                  23842819.723                                                       -2816.358                                                                                                                          25.810
R10  21065912.191    21065911.816                                        2624.408        2624.411                                   112293238.823   112293221.824                                          49.250          48.930
R11  19441912.732    19441913.089    19441914.253    19441914.441        -802.406        -802.419        -624.063        -624.144   103891740.444   103891742.446    80804816.361    80804712.363          52.620          52.750          50.620          50.750
R12  22363631.778    22363631.801    22363636.486    22363636.486       -3341.088       -3341.121       -2598.589       -2598.650   119462527.462   119462517.449    92915325.227    92915324.228          47.000          47.060          45.000          45.060
R20  20622646.936    20622646.391    20622651.621    20622650.843        1076.820        1076.756         837.489         837.453   110278583.666   110278591.674    85772294.607    85772280.611          41.870          40.750          47.500          48.250
R21  20970955.683    20970956.064    20970958.905    20970959.034       -3423.523       -3423.551       -2662.712       -2662.763   112219854.091   112219855.098    87282135.329    87282132.322          50.750          50.680          47.180          47.370
> 2021 01 03 00 03 30.0000000  0 26
E02  25560042.330    25560047.244    25560046.725    25560042.094    25560043.285       -2127.767       -1588.943       -1727.123       -1630.389       -1609.657   134318956.610   100303155.046   109025151.191   102919740.022   101611453.111          44.180          45.870          46.500          47.370          49.620
E03  26082158.585    26082164.009    26082162.369    26082159.674    26082160.838        2410.512        1799.994        1956.490        1846.850        1823.420   137062711.912   102352053.323   111252224.477   105022083.899   103687080.187          42.750          43.750          45.120          46.560          48.310
E08  24125202.527    24125205.747    24125207.594    24125200.991    24125202.316         -21.845         -16.316         -17.662         -16.774         -16.548   126778821.786    94672508.116   102904920.573    97142210.249    95907368.259          43.750          44.500          45.370          46.310          48.500
E11  23798245.469    23798247.744    23798246.756    23798243.449    23798244.322       -2526.565       -1886.712       -2050.732       -1935.875       -1911.277   125060650.762    93389477.289   101510281.017    95825694.468    94607581.955          40.120          41.620          42.620          43.500          45.620
E12  24003808.940    24003810.876    24003809.978    24003806.577    24003807.767         115.764          86.545          93.950          88.767          87.659   126140888.191    94196160.572   102387102.652    96653421.439    95424806.081          41.000          42.560          43.750          44.930          46.870
E24  25697925.217    25697928.616    25697929.023    25697923.252    25697925.073        2095.730        1565.023        1701.171        1605.824        1585.416   135043560.413   100844246.418   109613304.729   103474949.461   102159597.015          45.120          46.120          46.750          47.750          50.000
E25  23442474.224    23442479.071    23442476.885    23442474.374    23442475.698        -105.282         -78.608         -85.448         -80.688         -79.655   123191080.465    91993386.501    99992801.502    94393186.351    93193294.002          48.250          51.870          53.250          53.620          55.750
E33  28483559.736    28483563.354    28483566.154    28483559.609    28483559.852        2391.765        1786.046        1941.458        1832.791        1809.427   149682131.504   111775634.658   121495322.849   114691525.447   113233590.128          36.310          33.620          35.060          35.310          37.430
G01  24103712.675    24103712.455                    24103716.587    24103717.020       -3631.493       -3631.493                       -2829.822       -2711.874   126665880.208   126665880.208                    98700705.133    94588171.572          32.930           9.870                           9.870          36.810
G07  20503185.872    20503185.443    20503183.877    20503183.506                        1016.678        1016.678         792.224         792.218                   107745009.552   107745009.552    83957179.468    83957163.460                          49.310          44.120          47.430          44.120
G08  21048641.974    21048641.336    21048643.977    21048643.029    21048644.486        1600.210        1600.210        1246.926        1246.918        1194.936   110611412.085   110611412.085    86190731.297    86190717.287    82599488.439          49.810          53.560          47.430          53.560          52.180
G11  21794506.476    21794505.765                    21794504.038                       -1965.375       -1965.375                       -1531.464                   114530937.296   114530937.296                    89244888.797                          47.870          35.870                          35.870
G13  23089168.830    23089168.459                    23089167.095                       -2179.064       -2179.064                       -1697.963                   121334409.095   121334409.095                    94546276.927                          43.370          27.060                          27.060
G14  21643229.036    21643228.773    21643227.408    21643227.448    21643233.668       -2326.241       -2326.241       -1812.670       -1812.654       -1737.110   113735960.539   113735960.539    88625441.285    88625449.287    84932738.340          47.810          37.750          45.430          37.750          49.870
G21  23125167.665    23125166.556                    23125164.467                       -1966.920       -1966.920                       -1532.659                   121523598.417   121523598.417                    94693714.696                          43.120          26.370                          26.370
G27  23613872.708    23613872.181    23613872.484    23613871.661    23613874.120        3489.607        3489.607        2719.183        2719.176        2605.862   124091806.860   124091806.860    96694933.761    96694932.756    92666016.592          42.930          39.370          39.500          39.370          44.310
G28  22180571.028    22180570.098                    22180568.260                       -2212.854       -2212.854                       -1724.300                   116559730.149   116559730.149                    90825764.468                          46.310          33.430                          33.430
G30  20546212.476    20546211.766    20546212.739    20546212.409    20546214.943        -995.339        -995.339        -775.612        -775.588        -743.295   107971127.422   107971127.422    84133359.960    84133360.957    80627817.799          51.180          45.430          48.620          45.430          54.000
R01  23311448.082    23311447.948    23311452.113    23311452.542        3966.323        3966.431        3085.061        3085.173   124613050.854   124613093.860    96921319.895    96921284.907          41.680          40.560          34.310          34.750
R02  21781868.391    21781869.008    21781873.106    21781873.437         460.146         460.115         357.865         357.914   116232258.274   116232328.270    90402875.425    90402891.426          48.120          48.000          44.930          44.810
R03  23827101.728    23827107.989                                       -2796.970       -2796.750                                                                                                          38.930          36.060
R10  21080710.619    21080710.007                                        2634.590        2634.584                                   112372121.719   112372104.720                                          49.430          49.310
R11  19437447.481    19437447.826    19437449.401    19437449.437        -788.128        -788.147        -613.037        -612.967   103867879.359   103867881.365    80786257.751    80786153.759          52.870          52.870          50.810          51.180
R12  22344876.791    22344877.033    22344880.861    22344881.178       -3337.763       -3337.733       -2595.995       -2596.030   119362341.939   119362331.953    92837403.235    92837402.228          47.500          46.810          44.750          44.310
R20  20628764.926    20628764.858    20628769.744    20628769.324        1104.423        1104.620         859.079         859.148   110311300.924   110311308.940    85797741.374    85797727.383          41.750          40.930          47.750          48.310
R21  20951814.693    20951814.921    20951817.118    20951817.123       -3405.084       -3405.100       -2648.383       -2648.375   112117422.156   112117423.159    87202466.042    87202463.050          51.310          51.060          47.310          47.310
> 2021 01 03 00 04 00.0000000  0 26
E02  25547905.018    25547908.385    25547908.832    25547903.240    25547905.070       -2124.625       -1586.523       -1724.532       -1627.977       -1607.256   134255170.104   100255522.280   108973376.435   102870864.658   101563199.045          45.310          45.810          46.870          46.810          49.250
E03  26095942.429    26095947.674    26095945.484    26095943.607    26095944.520        2418.544        1806.052        1963.114        1853.135        1829.584   137135145.587   102406143.393   111311018.043   105077585.027   103741875.787          42.430          43.750          44.750          46.250          48.060
E08  24125118.693    24125122.615    24125124.869    24125118.611    24125119.492          -7.290          -5.415          -5.858          -5.520          -5.461   126778386.453    94672183.037   102904567.212    97141876.691    95907038.940          42.870          44.310          45.620          46.500          48.500
E11  23783847.756    23783848.833    23783848.695    23783845.204    23783846.002       -2517.776       -1880.081       -2043.644       -1929.084       -1904.593   124984986.998    93332975.178   101448865.653    95767718.388    94550342.858          41.120          41.430          42.810          43.750          45.680
E12  24004513.533    24004515.577    24004514.916    24004511.313    24004512.584         131.034          97.828         106.401         100.400          99.135   126144591.381    94198925.930   102390108.500    96656258.960    95427607.523          40.870          43.000          43.500          44.750          46.930
E24  25709898.867    25709902.699    25709902.450    25709897.832    25709899.076        2099.146        1567.485        1703.798        1608.490        1587.996   135106484.290   100891235.006   109664379.297   103523163.859   102207198.509          44.810          46.500          46.310          47.930          50.250
E25  23441892.318    23441897.304    23441895.386    23441892.696    23441894.115         -98.441         -73.477         -79.888         -75.446         -74.468   123188024.354    91991104.355    99990320.894    94390844.660    93190982.084          48.180          51.870          53.310          53.500          55.750
E33  28497240.661    28497243.027    28497246.434    28497239.233    28497239.735        2400.566        1792.607        1948.311        1839.482        1816.028   149754019.118   111829317.007   121553673.232   114746608.180   113287972.669          36.620          34.250          34.430          35.120          37.750
G01  24082992.777    24082992.549                    24082993.478    24082994.779       -3628.165       -3628.165                       -2827.177       -2709.292   126556985.916   126556985.916                    98615852.564    94506854.547          33.680           8.120                           8.120          36.620
G07  20509034.987    20509034.563    20509032.965    20509032.782                        1032.448        1032.448         804.494         804.503                   107775746.454   107775746.454    83981130.288    83981114.284                          49.500          44.430          47.430          44.430
G08  21057825.485    21057824.832    21057827.326    21057826.463    21057828.309        1617.131        1617.131        1260.085        1260.101        1207.617   110659672.822   110659672.822    86228337.052    86228323.049    82635527.292          49.680          53.250          47.310          53.250          52.000
G11  21783333.232    21783332.508                    21783331.358                       -1948.819       -1948.819                       -1518.562                   114472224.391   114472224.391                    89199138.506                          47.310          35.620                          35.620
G13  23076775.804    23076775.429                    23076774.686                       -2162.691       -2162.691                       -1685.210                   121269283.213   121269283.213                    94495529.501                          43.430          26.810                          26.810
G14  21629973.421    21629973.176    21629972.589    21629971.752    21629979.148       -2317.480       -2317.480       -1805.820       -1805.829       -1730.598   113666304.716   113666304.716    88571164.003    88571172.009    84880722.631          46.930          37.430          45.810          37.430          49.810
G21  23113974.960    23113973.875                    23113971.901                       -1954.331       -1954.331                       -1522.866                   121464778.833   121464778.833                    94647881.258                          43.870          28.000                          28.000
G27  23633815.827    23633815.273    23633815.303    23633814.409    23633816.943        3496.959        3496.959        2724.899        2724.905        2611.355   124196605.929   124196605.929    96776595.371    96776594.371    92744275.612          43.250          39.930          39.930          39.930          44.370
G28  22167958.965    22167958.012                    22167956.607                       -2205.528       -2205.528                       -1718.591                   116493453.526   116493453.526                    90774120.376                          46.680          33.750                          33.750
G30  20540573.362    20540572.652    20540573.827    20540573.451    20540576.129        -980.130        -980.130        -763.651        -763.738        -731.881   107941495.624   107941495.624    84110270.268    84110271.257    80605690.177          50.810          45.120          48.370          45.120          53.750
R01  23333725.580    23333726.041    23333729.244    23333730.993        3972.665        3972.791        3090.122        3090.055   124732139.988   124732183.010    97013944.760    97013909.772          41.120          40.310          35.250          34.870
R02  21784529.847    21784529.950    21784533.834    21784534.044         486.600         486.606         378.469         378.488   116246459.260   116246529.269    90413920.654    90413936.660          48.060          47.810          44.060          44.250
R03  23811468.310    23811469.016                                       -2778.756       -2778.315                                   127464667.054   127464755.126                                          32.430          28.500
R10  21095565.560    21095565.524                                        2644.273        2644.306                                   112451305.388   112451288.397                                          50.060          49.810
R11  19433062.791    19433062.760    19433063.607    19433063.799        -774.267        -774.281        -602.160        -602.196   103844443.745   103844445.747    80768030.047    80767926.054          53.000          53.120          51.000          50.930
R12  22326140.407    22326141.051    22326145.030    22326145.308       -3334.618       -3334.603       -2593.647       -2593.566   119262257.133   119262247.136    92759559.505    92759558.511          47.680          47.560          44.250          44.370
R20  20635038.183    20635038.169    20635044.012    20635043.422        1131.921        1132.007         880.409         880.422   110344848.335   110344856.347    85823833.808    85823819.812          41.370          40.750          48.310          48.750
R21  20932777.105    20932776.854    20932778.609    20932778.814       -3386.894       -3386.925       -2634.193       -2634.193   112015542.869   112015543.870    87123226.620    87123223.624          51.870          51.310          47.560          47.370
> 2021 01 03 00 04 30.0000000  0 26
E02  25535786.013    25535789.872    25535790.413    25535785.076    25535786.588       -2121.075       -1583.917       -1721.653       -1625.239       -1604.570   134191486.984   100207966.731   108921685.633   102822068.527   101515023.205          44.750          45.750          47.060          47.000          49.370
E03  26109774.490    26109779.297    26109778.023    26109775.172    26109775.942        2427.055        1812.428        1969.950        1859.644        1836.037   137207831.152   102460421.578   111370016.058   105133279.141   103796861.936          42.870          43.620          45.500          45.930          47.870
E08  24125121.698    24125124.493    24125127.579    24125120.498    24125121.594           7.878           5.875           6.319           6.014           5.949   126778397.854    94672191.558   102904576.466    97141885.427    95907047.569          44.310          44.120          46.000          46.370          48.310
E11  23769500.703    23769502.420    23769501.950    23769497.275    23769499.230       -2508.629       -1873.300       -2036.104       -1922.261       -1897.794   124909593.745    93276675.039   101387669.860    95709949.547    94493308.368          41.500          42.120          43.120          42.870          45.430
E12  24005306.858    24005308.347    24005307.090    24005304.069    24005305.542         146.651         109.458         118.986         112.323         110.898   126148757.913    94202037.309   102393490.418    96659451.505    95430759.483          41.370          43.000          43.060          44.810          47.000
E24  25721894.209    25721897.335    25721897.148    25721892.808    25721894.029        2102.904        1570.360        1706.933        1611.344        1590.852   135169517.884   100938305.549   109715542.928   103571462.321   102254883.011          45.560          46.310          46.560          48.000          50.180
E25  23441351.342    23441356.171    23441354.173    23441351.478    23441352.968         -91.267         -68.175         -74.076         -69.945         -69.059   123185180.718    91988980.860    99988012.753    94388665.776    93188830.894          48.370          51.810          53.500          53.430          55.680
E33  28510971.113    28510973.913    28510976.069    28510970.141    28510970.607        2409.440        1799.353        1955.643        1846.340        1822.895   149826174.880   111883199.577   121612241.307   114801896.411   113342558.070          36.120          34.310          32.560          36.310          38.370
G01  24062288.145    24062287.831                    24062290.917    24062291.859       -3624.517       -3624.517                       -2824.324       -2706.940   126448194.343   126448194.343                    98531079.959    94425614.083          33.370          12.000                          12.000          37.000
G07  20514975.703    20514975.283    20514973.065    20514972.912                        1048.555        1048.555         816.998         817.055                   107806963.025   107806963.025    84005454.900    84005438.893                          50.180          44.310          47.060          44.310
G08  21067107.482    21067106.834    21067108.890    21067108.045    21067109.927        1634.320        1634.320        1273.473        1273.494        1220.477   110708447.863   110708447.863    86266343.579    86266329.579    82671950.224          50.000          53.370          47.120          53.370          52.180
G11  21772258.016    21772257.297                    21772254.438                       -1931.741       -1931.741                       -1505.249                   114414018.102   114414018.102                    89153782.971                          48.930          36.120                          36.120
G13  23064477.867    23064477.438                    23064476.074                       -2145.759       -2145.759                       -1672.019                   121204658.649   121204658.649                    94445172.714                          42.750          25.680                          25.680
G14  21616769.869    21616769.624    21616768.751    21616768.518    21616775.193       -2308.423       -2308.423       -1798.735       -1798.772       -1723.801   113596918.965   113596918.965    88517097.229    88517105.223    84828908.622          47.620          37.430          45.680          37.430          49.810
G21  23102856.083    23102854.961                    23102853.583                       -1941.215       -1941.215                       -1512.637                   121406348.054   121406348.054                    94602350.801                          44.430          28.370                          28.370
G27  23653800.358    23653799.849    23653800.724    23653800.210    23653802.423        3504.564        3504.564        2730.905        2730.829        2616.968   124301631.364   124301631.364    96858433.400    96858432.392    92822703.708          42.500          39.560          39.810          39.560          44.430
G28  22155389.922    22155388.997                    22155387.176                       -2197.985       -2197.985                       -1712.714                   116427402.538   116427402.538                    90722652.068                          46.810          33.750                          33.750
G30  20535023.278    20535022.563    20535023.868    20535023.171    20535026.156        -964.534        -964.534        -751.553        -751.586        -720.251   107912329.579   107912329.579    84087543.476    84087544.465    80583910.329          51.000          45.000          48.500          45.000          54.120
R01  23356039.017    23356039.930    23356045.584    23356045.704        3979.424        3979.567        3095.437        3095.115   124851428.517   124851471.550    97106724.701    97106689.696          39.000          39.120          35.250          35.370
R02  21787342.422    21787342.628    21787346.292    21787346.153         513.380         513.382         399.381         399.280   116261462.364   116261532.368    90425589.748    90425605.738          48.870          48.310          45.310          45.120
R03  23795957.222    23795952.093                                       -2759.536       -2759.650                                   127381596.773   127381684.788                                          29.810          29.180
R10  21110475.773    21110475.577                                        2654.368        2654.375                                   112530788.435   112530771.442                                          49.060          48.750
R11  19428755.492    19428755.756    19428757.260    19428757.618        -759.865        -759.900        -591.065        -591.030   103821434.146   103821436.151    80750133.702    80750029.709          52.500          52.620          50.680          50.680
R12  22307423.572    22307424.158    22307427.762    22307427.552       -3331.154       -3331.093       -2590.935       -2590.798   119162273.545   119162263.570    92681794.565    92681793.564          48.250          48.000          43.750          43.250
R20  20641467.271    20641467.204    20641472.515    20641471.791        1159.471        1159.627         901.903         901.853   110379223.518   110379231.535    85850570.063    85850556.061          42.000          41.180          48.310          49.310
R21  20913841.098    20913841.554    20913843.885    20913844.055       -3368.165       -3368.179       -2619.630       -2619.690   111914219.694   111914220.701    87044419.746    87044416.743          51.430          51.430          47.370          47.120
> 2021 01 03 00 05 00.0000000  0 26
E02  25523687.613    25523691.249    25523691.517    25523686.305    25523687.943       -2117.509       -1581.276       -1718.759       -1622.377       -1601.831   134127908.006   100160488.929   108870079.328   102773352.190   101466926.137          45.250          46.060          46.870          46.680          49.370
E03  26123653.538    26123658.936    26123656.799    26123654.056    26123655.219        2435.356        1818.697        1976.743        1866.008        1842.358   137280767.145   102514886.769   111429217.355   105189165.161   103852037.542          42.930          44.060          45.430          45.310          47.680
E08  24125209.007    24125211.770    24125215.026    24125207.234    24125208.742          22.812          16.989          18.490          17.495          17.242   126778856.370    94672533.964   102904948.640    97142236.755    95907394.435          44.430          44.370          46.250          45.930          48.180
E11  23755206.508    23755207.563    23755206.741    23755202.486    23755204.088       -2499.488       -1866.413       -2028.760       -1915.281       -1890.849   124834473.238    93220578.599   101326695.440    95652389.701    94436480.226          42.310          42.500          42.810          43.000          45.750
E12  24006187.785    24006189.261    24006188.277    24006185.485    24006186.599         162.166         120.994         131.486         124.186         122.588   126153388.048    94205494.889   102397248.637    96662999.281    95434262.159          41.500          43.430          43.060          44.500          47.000
E24  25733909.920    25733913.144    25733913.225    25733909.220    25733909.753        2106.636        1573.185        1709.953        1614.205        1593.688   135232661.330   100985458.119   109766795.714   103619844.951   102302650.610          45.430          46.250          46.870          48.250          50.310
E25  23440850.676    23440855.550    23440853.744    23440850.889    23440852.379         -84.159         -62.782         -68.294         -64.461         -63.633   123182549.985    91987016.359    99985877.423    94386650.025    93186840.767          48.500          52.000          53.680          53.250          55.680
E33  28524753.088    28524755.963    28524754.859    28524751.083    28524752.269        2418.586        1806.029        1963.340        1853.176        1829.624   149898597.498   111937281.382   121671025.952   114857389.058   113397345.299          35.560          35.310          29.120          35.750          38.500
G01  24041607.440    24041607.101    24041609.188    24041608.889    24041611.231       -3620.882       -3620.882       -2821.744       -2821.487       -2703.965   126339509.079   126339509.079    98446370.281    98446390.254    94344453.077          34.180          11.250          32.750          11.250          38.810
G07  20521007.059    20521006.639    20521004.935    20521004.595                        1064.604        1064.604         829.580         829.562                   107838659.808   107838659.808    84030153.701    84030137.690                          49.370          44.250          47.060          44.250
G08  21076486.996    21076486.344    21076488.100    21076487.050    21076488.900        1651.546        1651.546        1286.880        1286.920        1233.294   110757736.198   110757736.198    86304750.081    86304736.075    82708756.451          50.250          53.500          47.060          53.500          52.060
G11  21761278.058    21761277.349                    21761274.736                       -1914.659       -1914.659                       -1491.943                   114356321.000   114356321.000                    89108824.204                          48.310          36.120                          36.120
G13  23052276.026    23052275.548                    23052273.718                       -2128.975       -2128.975                       -1658.942                   121140537.758   121140537.758                    94395208.383                          42.560          25.870                          25.870
G14  21603617.427    21603617.173    21603616.899    21603616.358    21603623.396       -2299.244       -2299.244       -1791.606       -1791.618       -1716.981   113527804.530   113527804.530    88463241.832    88463249.831    84777297.204          46.930          37.870          45.680          37.870          50.120
G21  23091810.639    23091809.499                    23091809.020                       -1928.192       -1928.192                       -1502.492                   121348308.955   121348308.955                    94557125.535                          43.250          27.750                          27.750
G27  23673829.212    23673828.716    23673828.804    23673828.965    23673830.570        3512.054        3512.054        2736.719        2736.663        2622.783   124406880.950   124406880.950    96940446.062    96940445.059    92901299.200          43.120          40.120          39.500          40.120          44.310
G28  22142863.593    22142862.681                    22142861.213                       -2190.345       -2190.345                       -1706.769                   116361577.869   116361577.869                    90671360.133                          46.000          33.310                          33.310
G30  20529562.229    20529561.510    20529562.814    20529562.197    20529565.143        -948.756        -948.756        -739.320        -739.290        -708.510   107883631.098   107883631.098    84065181.027    84065182.019    80562479.653          50.810          45.370          48.620          45.370          54.180
R01  23378391.371    23378390.186    23378396.417    23378397.454        3986.106        3986.096        3100.178        3100.490   124970912.284   124970955.286    97199656.452    97199621.486          38.560          37.750          34.810          34.810
R02  21790303.477    21790303.794    21790306.815    21790306.841         540.255         540.264         420.169         420.267   116277267.006   116277337.011    90437882.207    90437898.218          48.000          48.250          44.310          44.310
R03  23780541.173    23780545.712                    23780541.285       -2740.490       -2740.458                       -2131.034   127299096.079   127299184.050                                          36.060          35.500                          30.430
R10  21125442.554    21125442.531                                        2664.481        2664.434                                   112610570.600   112610553.608                                          48.810          48.680
R11  19424530.587    19424530.739    19424531.299    19424531.501        -745.574        -745.583        -579.887        -579.824   103798852.124   103798854.121    80732569.900    80732465.911          52.810          53.000          50.620          50.620
R12  22288725.348    22288725.670    22288729.704    22288729.390       -3327.519       -3327.529       -2588.128       -2588.080   119062392.976   119062382.987    92604109.698    92604108.697          47.620          47.370          43.120          43.000
R20  20648049.939    20648049.939    20648054.797    20648054.220        1187.090        1187.080         923.382         923.331   110414424.952   110414432.962    85877948.965    85877934.964          42.250          41.430          47.750          48.930
R21  20895010.764    20895011.346    20895013.476    20895013.382       -3349.351       -3349.354       -2605.047       -2605.055   111813456.954   111813457.955    86966048.737    86966045.748          51.060          51.310          46.310          46.680
> 2021 01 03 00 05 30.0000000  0 25
E02  25511608.916    25511612.748    25511612.354    25511607.455    25511609.134       -2114.036       -1578.650       -1715.958       -1619.898       -1599.275   134064433.476   100113089.138   108818557.808   102724715.870   101418908.081          45.430          46.250          46.620          46.870          49.560
E03  26137579.974    26137585.394    26137583.816    26137580.293    26137581.886        2443.734        1824.847        1983.455        1872.376        1848.612   137353951.775   102569537.594   111488620.422   105245241.668   103907401.207          42.370          43.870          45.810          45.120          47.500
E08  24125381.317    24125384.554    24125386.142    24125379.297    24125381.136          37.696          28.199          30.644          28.909          28.569   126779761.928    94673210.198   102905683.662    97142930.633    95908079.492          44.250          44.750          45.430          46.000          48.370
E11  23740963.675    23740964.319    23740963.845    23740959.760    23740961.451       -2490.249       -1859.618       -2021.265       -1908.004       -1883.810   124759627.323    93164687.191   101265943.902    95595040.279    94379859.810          42.180          42.060          43.060          43.120          45.620
E12  24007157.466    24007159.080    24007157.314    24007154.673    24007155.712         177.573         132.611         144.063         136.124         134.385   126158481.641    94209298.543   102401383.039    96666902.157    95438115.428          41.370          43.810          42.680          44.620          47.250
E24  25745946.544    25745949.513    25745950.140    25745945.446    25745946.351        2110.331        1575.935        1712.975        1616.985        1596.454   135295914.321   101032692.481   109818137.417   103668311.507   102350501.071          45.370          45.750          47.000          48.060          50.000
E25  23440390.672    23440395.402    23440393.480    23440390.857    23440392.267         -76.977         -57.481         -62.456         -58.998         -58.236   123180132.196    91985210.868    99983914.931    94384797.431    93185011.726          48.250          51.870          53.560          53.430          55.680
G01  24020943.916    24020943.586    24020948.087    24020947.497    24020948.534       -3617.336       -3617.336       -2818.652       -2818.717       -2701.176   126230933.701   126230933.701    98361766.097    98361786.083    94263374.089          34.810          13.060          31.750          13.060          38.120
G07  20527129.681    20527129.261    20527128.236    20527127.972                        1080.628        1080.628         842.047         842.048                   107870836.709   107870836.709    84055226.593    84055210.589                          49.060          44.180          47.370          44.180
G08  21085963.214    21085962.571    21085964.345    21085963.464    21085965.565        1668.523        1668.523        1300.149        1300.148        1246.033   110807535.512   110807535.512    86343554.742    86343540.735    82745944.253          50.120          53.500          46.870          53.500          52.120
G11  21750395.954    21750395.252                    21750393.091                       -1897.542       -1897.542                       -1478.603                   114299135.182   114299135.182                    89064263.842                          48.370          36.620                          36.620
G13  23040170.414    23040169.962                    23040167.954                       -2111.966       -2111.966                       -1645.679                   121076922.900   121076922.900                    94345638.404                          42.620          26.120                          26.120
G14  21590517.500    21590517.260    21590516.686    21590516.566    21590522.847       -2290.155       -2290.155       -1784.503       -1784.536       -1710.179   113458962.172   113458962.172    88409598.452    88409606.446    84725888.964          47.680          38.370          46.120          38.370          50.000
G21  23080841.718    23080840.559                    23080838.677                       -1914.736       -1914.736                       -1491.992                   121290663.739   121290663.739                    94512207.203                          43.500          26.560                          26.560
G27  23693899.879    23693899.365    23693899.414    23693899.334    23693900.987        3519.471        3519.471        2742.460        2742.443        2628.149   124512351.913   124512351.913    97022631.215    97022630.223    92980059.959          43.250          40.250          39.750          40.250          44.250
G28  22130380.683    22130379.758                    22130378.487                       -2182.836       -2182.836                       -1700.914                   116295980.041   116295980.041                    90620244.963                          45.810          33.250                          33.250
G30  20524189.847    20524189.132    20524190.875    20524190.410    20524193.128        -933.069        -933.069        -727.068        -727.067        -696.757   107855401.552   107855401.552    84043183.982    84043184.973    80541399.155          50.500          45.430          48.560          45.430          54.120
R01  23400780.306    23400780.391    23400784.512    23400785.102        3992.297        3992.364        3105.307        3104.997   125090586.644   125090629.658    97292736.537    97292701.536          40.560          39.310          34.620          33.870
R02  21793415.029    21793415.624    21793418.501    21793418.662         566.821         566.856         440.868         440.910   116293872.242   116293942.256    90450797.449    90450813.442          48.810          48.930          44.000          44.310
R03  23765235.234    23765234.233    23765238.444    23765238.932       -2721.169       -2721.267       -2116.701       -2116.259   127217167.856   127217255.839    98946708.863    98946698.891          31.930          29.620          32.500          32.620
R10  21140465.837    21140465.873                                        2674.285        2674.319                                   112690650.595   112690633.597                                          49.250          49.310
R11  19420384.427    19420384.655    19420386.525    19420386.494        -731.229        -731.235        -568.728        -568.800   103776698.910   103776700.915    80715339.641    80715235.647          52.680          52.930          51.500          51.180
R12  22270047.085    22270047.519    22270050.256    22270050.618       -3323.972       -3324.048       -2585.306       -2585.344   118962616.749   118962606.760    92526505.991    92526504.988          47.930          47.810          42.560          43.060
R20  20654787.095    20654786.701    20654792.057    20654791.547        1214.613        1214.658         944.693         944.666   110450450.768   110450458.786    85905969.044    85905955.048          42.060          41.180          48.180          49.060
R21  20876286.194    20876286.234    20876289.406    20876289.357       -3330.490       -3330.504       -2590.282       -2590.274   111713258.514   111713259.520    86888116.660    86888113.663          50.370          50.500          46.810          47.310
> 2021 01 03 00 06 00.0000000  0 25
E02  25499549.526    25499553.457    25499553.462    25499548.616    25499550.200       -2110.486       -1576.030       -1713.023       -1617.198       -1596.622   134001063.650   100065767.528   108767121.263   102676159.785   101370969.233          45.250          46.000          46.810          46.930          49.500
E03  26151553.177    26151559.093    26151557.484    26151554.302    26151555.524        2451.804        1830.977        1990.186        1878.674        1854.820   137427383.079   102624372.678   111548223.755   105301507.244   103962951.537          42.120          43.810          45.680          45.620          47.750
E08  24125638.225    24125642.003    24125643.976    24125637.323    24125638.635          52.528          39.317          42.748          40.214          39.754   126781114.439    94674220.188   102906781.490    97143966.985    95909102.662          44.000          44.810          45.750          46.250          48.560
E11  23726773.499    23726774.273    23726773.424    23726769.763    23726771.432       -2481.008       -1852.787       -2013.793       -1901.061       -1876.936   124685057.936    93109002.279   101205416.811    95537902.709    94323448.569          42.060          42.000          42.750          43.060          45.500
E12  24008215.000    24008216.668    24008215.201    24008211.859    24008213.072         193.110         144.159         156.615         147.831         145.987   126164038.424    94213448.103   102405893.433    96671159.944    95442319.099          41.560          43.680          43.180          44.370          47.000
E24  25758003.956    25758007.338    25758007.481    25758002.421    25758003.754        2113.931        1578.578        1715.844        1619.765        1599.178   135359276.535   101080008.429   109869567.788   103716861.787   102398434.185          45.180          45.750          46.930          47.430          49.680
E25  23439971.090    23439975.898    23439973.747    23439971.446    23439972.686         -69.942         -52.214         -56.787         -53.578         -52.901   123177927.386    91983564.429    99982125.319    94383108.040    93183343.811          48.560          51.870          53.430          53.560          55.750
G01  24000304.972    24000304.695    24000307.100    24000307.270    24000308.074       -3613.261       -3613.261       -2815.667       -2815.500       -2698.291   126122471.489   126122471.489    98277250.118    98277270.116    94182379.620          34.310           9.250          30.430           9.250          36.810
G07  20533344.521    20533344.106    20533342.231    20533342.347                        1096.659        1096.659         854.515         854.542                   107903494.015   107903494.015    84080673.844    84080657.837                          49.370          44.250          46.930          44.250
G08  21095536.287    21095535.645    21095537.767    21095536.860    21095539.108        1685.414        1685.414        1313.294        1313.311        1258.591   110857843.661   110857843.661    86382755.910    86382741.904    82783512.039          49.430          53.560          47.060          53.560          52.120
G11  21739611.142    21739610.436                    21739608.575                       -1880.480       -1880.480                       -1465.303                   114242462.791   114242462.791                    89020103.550                          47.500          36.180                          36.180
G13  23028161.142    23028160.686                    23028159.461                       -2095.034       -2095.034                       -1632.497                   121013816.175   121013816.175                    94296464.324                          42.370          26.310                          26.310
G14  21577469.279    21577469.034    21577468.367    21577468.111    21577474.644       -2281.088       -2281.088       -1777.479       -1777.470       -1703.370   113390392.579   113390392.579    88356167.615    88356175.610    84674684.419          47.750          38.370          46.250          38.370          50.000
G21  23069948.063    23069946.896                    23069944.718                       -1901.580       -1901.580                       -1481.754                   121233414.406   121233414.406                    94467597.378                          44.370          28.310                          28.310
G27  23714011.275    23714010.734    23714011.296    23714011.162    23714012.968        3526.557        3526.557        2747.823        2747.964        2633.452   124618041.507   124618041.507    97104986.743    97104985.751    93058984.019          42.000          39.370          39.680          39.370          43.500
G28  22117941.094    22117940.160                    22117938.844                       -2175.165       -2175.165                       -1694.929                   116230609.141   116230609.141                    90569306.603                          45.870          33.060                          33.060
G30  20518908.092    20518907.382    20518908.623    20518908.064    20518910.769        -917.420        -917.420        -714.881        -714.874        -685.075   107827642.336   107827642.336    84021553.438    84021554.422    80520669.879          51.000          45.560          48.930          45.560          54.120
R01  23423202.506    23423202.896    23423206.019    23423206.730        3998.328        3998.506        3109.657        3110.163   125210447.108   125210490.131    97385961.351    97385926.395          39.500          39.370          34.120          34.370
R02  21796676.680    21796677.131    21796681.252    21796681.359         593.421         593.434         461.544         461.645   116311277.430   116311347.442    90464334.792    90464350.794          48.620          48.930          45.180          45.060
R03  23750043.210    23750040.643    23750040.669    23750040.750       -2701.833       -2701.950       -2101.365       -2101.542   127135815.603   127135903.615    98883434.958    98883424.930          37.560          34.810          34.000          34.000
R10  21155543.893    21155543.791                                        2684.312        2684.284                                   112771027.999   112771010.997                                          49.120          48.870
R11  19416319.311    19416319.481    19416320.654    19416320.917        -716.938        -716.918        -557.596        -557.572   103754975.479   103754977.483    80698443.644    80698339.654          52.930          52.810          51.120          50.810
R12  22251389.008    22251389.098    22251391.584    22251392.223       -3320.554       -3320.572       -2582.602       -2582.607   118862946.272   118862936.277    92448984.531    92448983.541          48.060          47.750          42.930          43.180
R20  20661677.423    20661677.566    20661681.889    20661681.741        1241.953        1242.101         965.990         966.065   110487298.841   110487306.854    85934628.655    85934614.661          42.250          41.000          46.870          48.310
R21  20857668.173    20857668.463    20857671.546    20857671.511       -3311.446       -3311.459       -2575.538       -2575.614   111613628.193   111613629.200    86810626.455    86810623.453          51.250          50.810          48.000          47.810
> 2021 01 03 00 06 30.0000000  0 25
E02  25487510.501    25487514.530    25487515.094    25487509.917    25487511.466       -2106.983       -1573.376       -1710.219       -1614.447       -1593.916   133937798.902   100018524.391   108715770.027   102627684.228   101323109.886          45.620          45.930          47.370          47.250          49.620
E03  26165573.552    26165579.405    26165577.107    26165574.891    26165575.626        2460.064        1836.944        1996.684        1884.891        1860.903   137501059.365   102679390.668   111608025.925   105357960.492   104018687.156          42.430          43.680          44.750          45.500          47.620
E08  24125981.095    24125984.387    24125986.135    24125980.042    24125981.099          67.495          50.439          54.779          51.766          51.098   126782913.915    94675563.945   102908242.082    97145345.801    95910463.950          44.680          44.560          45.750          46.370          48.500
E11  23712635.982    23712637.869    23712636.671    23712632.822    23712634.358       -2471.645       -1845.655       -2006.162       -1893.902       -1869.769   124610766.952    93053525.274   101145115.709    95480978.485    94267247.957          42.180          42.560          42.810          42.810          45.680
E12  24009359.892    24009362.137    24009360.907    24009356.978    24009358.603         208.330         155.503         169.187         159.743         157.631   126170058.306    94217943.468   102410779.703    96675772.595    95446873.107          41.930          43.500          43.310          44.120          46.750
E24  25770082.131    25770085.177    25770085.414    25770080.260    25770081.983        2117.545        1581.382        1718.773        1622.558        1601.956   135422747.784   101127405.785   109921086.634   103765495.589   102446449.762          45.810          45.370          46.310          46.930          49.180
E25  23439591.924    23439596.918    23439595.049    23439592.373    23439593.653         -62.764         -46.867         -50.968         -48.090         -47.485   123175935.667    91982077.107    99980508.663    94381581.919    93181837.089          48.750          51.810          53.370          53.430          55.680
G01  23979688.753    23979688.610    23979688.972    23979689.115    23979691.202       -3609.438       -3609.438       -2812.375       -2812.559       -2695.388   126014125.756   126014125.756    98192824.919    98192844.949    94101472.175          35.750          10.430          30.620          10.430          36.870
G07  20539650.072    20539649.661    20539648.502    20539648.225                        1112.652        1112.652         866.942         866.997                   107936631.503   107936631.503    84106495.260    84106479.260                          49.310          44.060          47.370          44.060
G08  21105205.747    21105205.107    21105207.450    21105206.744    21105208.639        1702.259        1702.259        1326.449        1326.436        1271.151   110908658.399   110908658.399    86422351.802    86422337.803    82821458.110          49.430          53.120          46.930          53.120          52.180
G11  21728925.212    21728924.519                    21728922.274                       -1863.203       -1863.203                       -1451.841                   114186306.240   114186306.240                    88976345.224                          48.370          36.500                          36.500
G13  23016250.202    23016249.742                    23016248.820                       -2078.052       -2078.052                       -1619.266                   120951219.886   120951219.886                    94247687.995                          43.120          27.000                          27.000
G14  21564473.014    21564472.772    21564471.605    21564471.681    21564478.097       -2271.895       -2271.895       -1770.310       -1770.308       -1696.538   113322096.595   113322096.595    88302949.977    88302957.969    84623684.175          48.000          38.250          45.810          38.250          49.870
G21  23059128.985    23059127.818                    23059126.874                       -1888.331       -1888.331                       -1471.430                   121176563.767   121176563.767                    94423298.184                          44.120          29.060                          29.060
G27  23734164.560    23734163.993    23734164.586    23734163.826    23734166.334        3533.827        3533.827        2753.642        2753.629        2638.888   124723947.100   124723947.100    97187510.582    97187509.584    93138069.344          42.060          38.930          39.680          38.930          43.500
G28  22105544.866    22105543.936                    22105541.839                       -2167.565       -2167.565                       -1689.010                   116165466.085   116165466.085                    90518545.779                          46.500          33.180                          33.180
G30  20513715.156    20513714.446    20513716.019    20513715.483    20513718.218        -901.721        -901.721        -702.636        -702.638        -673.346   107800354.899   107800354.899    84000290.496    84000291.487    80500292.897          50.810          45.500          49.000          45.500          54.310
R01  23445656.710    23445656.536    23445663.040    23445664.184        4004.521        4004.542        3114.537        3114.498   125330489.398   125330532.393    97479327.513    97479292.523          35.560          36.000          35.560          36.120
R02  21800088.125    21800088.666    21800091.763    21800091.678         620.179         620.168         482.350         482.271   116329480.533   116329550.546    90478492.765    90478508.760          48.930          48.870          44.430          44.310
R03  23734944.360    23734946.954    23734950.003    23734950.320       -2682.541       -2682.771       -2086.407       -2086.158   127055042.982   127055131.026    98820611.893    98820601.887          33.500          32.370          33.370          33.120
R10  21170678.199    21170678.025                                        2694.159        2694.148                                   112851701.894   112851684.900                                          49.000          49.060
R11  19412334.644    19412335.163    19412336.460    19412336.447        -702.478        -702.458        -546.398        -546.359   103733683.104   103733685.109    80681882.918    80681778.927          52.870          53.000          51.310          51.180
R12  22232751.173    22232751.459    22232753.601    22232753.946       -3316.975       -3316.907       -2579.929       -2579.860   118763382.971   118763372.981    92371546.417    92371545.428          48.180          47.500          43.620          44.000
R20  20668721.230    20668721.557    20668726.715    20668726.076        1269.298        1269.357         987.203         987.257   110524967.168   110524975.181    85963926.236    85963912.246          42.250          41.060          47.310          48.370
R21  20839157.037    20839157.239    20839159.870    20839159.963       -3292.312       -3292.293       -2560.665       -2560.657   111514570.344   111514571.354    86733581.478    86733578.479          51.310          51.180          47.620          47.750
> 2021 01 03 00 07 00.0000000  0 25
E02  25475492.085    25475495.492    25475496.673    25475490.925    25475492.638       -2103.454       -1570.764       -1707.362       -1611.801       -1591.291   133874639.297    99971359.757   108664504.123   102579289.214   101275330.061          46.060          45.930          47.680          47.620          49.810
E03  26179640.038    26179645.762    26179644.130    26179640.832    26179641.960        2468.072        1843.000        2003.288        1891.179        1867.095   137574978.413   102734589.954   111668025.172   105414599.761   104074606.434          43.000          43.930          45.370          45.500          47.680
E08  24126409.123    24126411.185    24126413.488    24126407.185    24126408.340          82.340          61.601          66.881          63.182          62.380   126785159.942    94677241.185   102910065.162    97147066.775    95912163.055          45.180          44.060          45.870          46.620          48.430
E11  23698552.052    23698553.944    23698552.759    23698549.219    23698550.298       -2462.291       -1838.742       -1998.761       -1886.780       -1862.757   124536755.909    92998257.328   101085041.829    95424268.738    94211259.110          42.310          42.560          43.000          43.680          46.120
E12  24010593.881    24010595.442    24010594.691    24010590.842    24010592.355         223.966         167.257         181.669         171.541         169.393   126176540.778    94222784.283   102416041.452    96680739.700    95451777.068          42.310          43.250          44.120          44.430          46.870
E24  25782180.991    25782184.180    25782183.805    25782179.071    25782180.762        2121.230        1584.030        1721.760        1625.291        1604.657   135486327.475   101174884.119   109972693.538   103814212.494   102494547.383          45.620          45.620          46.180          47.120          49.370
E25  23439253.373    23439258.452    23439256.543    23439253.715    23439255.169         -55.669         -41.562         -45.145         -42.604         -42.080   123174156.797    91980748.736    99979064.781    94380218.897    93180491.393          49.000          51.870          53.620          53.500          55.750
G01  23959093.363    23959093.270    23959094.650    23959094.364    23959095.629       -3605.576       -3605.576       -2809.497       -2809.548       -2692.379   125905899.743   125905899.743    98108492.962    98108512.945    94020654.117          35.370          12.560          31.370          12.560          34.000
G07  20546047.520    20546047.105    20546045.480    20546045.400                        1128.661        1128.661         879.484         879.476                   107970248.584   107970248.584    84132690.387    84132674.383                          49.680          44.000          47.120          44.000
G08  21114971.439    21114970.796    21114973.308    21114972.432    21114974.295        1719.067        1719.067        1339.532        1339.533        1283.752   110959977.514   110959977.514    86462340.730    86462326.729    82859780.833          49.310          52.810          47.000          52.810          52.000
G11  21718338.065    21718337.367                    21718334.876                       -1845.880       -1845.880                       -1438.348                   114130667.355   114130667.355                    88932990.250                          49.000          36.870                          36.870
G13  23004435.961    23004435.501                    23004434.042                       -2060.798       -2060.798                       -1605.813                   120889135.589   120889135.589                    94199310.634                          43.560          26.810                          26.810
G14  21551528.342    21551528.091    21551527.505    21551527.339    21551533.599       -2262.748       -2262.748       -1763.145       -1763.179       -1689.695   113254074.673   113254074.673    88249945.898    88249953.891    84572888.608          47.310          38.120          45.680          38.120          49.560
G21  23048386.355    23048385.211                    23048385.085                       -1875.069       -1875.069                       -1461.085                   121120113.536   121120113.536                    94379311.017                          43.000          28.810                          28.810
G27  23754358.712    23754358.130    23754358.465    23754358.143    23754360.007        3540.955        3540.955        2759.154        2759.185        2644.200   124830065.677   124830065.677    97270200.358    97270199.362    93217313.741          42.500          40.120          39.810          40.120          42.870
G28  22093192.049    22093191.106                    22093188.749                       -2159.929       -2159.929                       -1683.062                   116100550.642   116100550.642                    90467962.333                          46.680          33.560                          33.560
G30  20508613.004    20508612.289    20508613.441    20508612.865    20508615.399        -885.817        -885.817        -690.264        -690.249        -661.479   107773540.327   107773540.327    83979396.017    83979397.017    80480269.037          51.500          45.370          49.060          45.370          54.120
R01  23468146.803    23468148.493    23468154.299    23468154.103        4010.500        4010.339        3119.053        3119.044   125450708.759   125450751.771    97572831.419    97572796.421          38.500          38.810          36.810          36.120
R02  21803648.623    21803648.995    21803652.409    21803652.775         646.740         646.727         502.981         502.866   116348480.898   116348550.905    90493270.817    90493286.820          48.310          48.180          44.310          44.430
R03  23719968.793    23719969.107    23719972.124    23719970.765       -2663.053       -2663.125       -2071.446       -2071.458   126974853.254   126974941.288    98758242.128    98758232.143          34.750          34.180          32.250          32.000
R10  21185868.546    21185868.269                                        2703.913        2703.978                                   112932671.457   112932654.464                                          49.310          49.500
R11  19408430.465    19408430.770    19408432.671    19408432.711        -688.035        -688.006        -535.157        -535.164   103712822.567   103712824.575    80665658.063    80665554.066          52.370          52.810          51.120          51.180
R12  22214132.186    22214132.732    22214136.734    22214136.448       -3313.303       -3313.287       -2576.958       -2576.963   118663927.869   118663917.879    92294192.517    92294191.516          47.810          47.620          44.680          44.370
R20  20675918.844    20675918.973    20675924.208    20675923.475        1296.644        1296.520        1008.458        1008.416   110563453.677   110563461.685    85993860.187    85993846.188          42.250          41.060          48.000          48.560
R21  20820753.507    20820753.927    20820756.227    20820756.057       -3273.008       -3273.021       -2545.623       -2545.683   111416088.339   111416089.348    86656984.401    86656981.397          51.930          51.620          47.620          47.500
> 2021 01 03 00 07 30.0000000  0 25
E02  25463492.522    25463496.824    25463497.191    25463492.394    25463493.786       -2100.078       -1568.180       -1704.526       -1609.111       -1588.641   133811585.058    99924273.827   108613323.752   102530974.955   101227629.967          44.810          46.000          46.750          48.000          50.060
E03  26193752.380    26193757.603    26193755.940    26193752.977    26193754.159        2476.027        1848.969        2009.738        1897.203        1873.080   137649138.350   102789969.113   111728219.911   105471423.599   104130707.933          42.870          44.000          45.120          45.370          47.680
E08  24126920.333    24126923.467    24126926.509    24126919.374    24126920.694          97.187          72.553          78.963          74.494          73.519   126787852.383    94679251.780   102912250.593    97149129.821    95914199.876          44.120          43.870          45.930          45.810          47.870
E11  23684522.578    23684522.940    23684522.100    23684518.913    23684520.082       -2453.000       -1831.626       -1990.976       -1879.594       -1855.632   124463026.594    92943199.757   101025196.629    95367774.880    94155483.392          42.930          42.180          42.930          43.680          46.000
E12  24011915.522    24011916.873    24011915.961    24011913.124    24011913.894         239.230         178.666         194.176         183.251         180.966   126183485.528    94227970.314   102421678.434    96686061.015    95457030.740          41.930          43.120          43.680          44.810          47.000
E24  25794299.947    25794303.458    25794303.543    25794298.071    25794300.179        2124.628        1586.663        1724.648        1628.043        1607.357   135550015.240   101222443.161   110024388.146   103863012.212   102542726.762          44.810          45.750          45.930          46.810          49.250
E25  23438955.822    23438960.370    23438958.519    23438955.762    23438957.171         -48.633         -36.366         -39.507         -37.290         -36.822   123172590.777    91979579.314    99977793.668    94379018.968    93179306.718          49.120          51.870          53.250          53.430          55.680
G01  23938520.898    23938520.806    23938523.313    23938523.300    23938525.172       -3601.410       -3601.410       -2806.081       -2806.331       -2689.398   125797796.715   125797796.715    98024256.881    98024276.885    93939927.785          33.120          14.180          33.430          14.180          33.680
G07  20552535.755    20552535.353    20552533.983    20552533.653                        1144.518        1144.518         891.832         891.833                   108004345.451   108004345.451    84159259.378    84159243.370                          49.250          43.750          47.180          43.750
G08  21124832.606    21124831.958    21124834.327    21124833.357    21124835.400        1735.722        1735.722        1352.485        1352.511        1296.143   111011798.584   111011798.584    86502720.780    86502706.779    82898478.380          49.120          52.430          46.680          52.430          52.120
G11  21707848.434    21707847.741                    21707845.778                       -1828.596       -1828.596                       -1424.877                   114075548.052   114075548.052                    88890040.156                          48.250          36.370                          36.370
G13  22992719.563    22992719.103                    22992717.170                       -2043.781       -2043.781                       -1592.561                   120827565.594   120827565.594                    94151334.037                          42.870          26.430                          26.430
G14  21538637.280    21538637.039    21538635.799    21538635.415    21538641.879       -2253.690       -2253.690       -1756.075       -1756.118       -1682.931   113186327.517   113186327.517    88197155.913    88197163.908    84522298.205          48.060          38.310          45.930          38.310          50.060
G21  23037721.329    23037720.190                    23037719.125                       -1861.566       -1861.566                       -1450.568                   121064065.732   121064065.732                    94335637.447                          43.000          28.250                          28.250
G27  23774592.969    23774592.370    23774592.204    23774591.475    23774594.019        3547.780        3547.780        2764.412        2764.504        2649.331   124936394.495   124936394.495    97353053.977    97353052.982    93296715.137          43.430          39.930          39.620          39.930          42.870
G28  22080881.874    22080880.952                    22080879.530                       -2152.499       -2152.499                       -1677.277                   116035863.179   116035863.179                    90417556.531                          45.620          32.680                          32.680
G30  20503600.181    20503599.471    20503600.923    20503600.448    20503603.117        -870.050        -870.050        -678.003        -677.962        -649.731   107747199.926   107747199.926    83958871.038    83958872.033    80460599.261          50.870          45.180          48.930          45.180          54.250
R01  23490671.220    23490670.527    23490674.044    23490674.656        4015.816        4015.834        3123.371        3123.201   125571100.618   125571143.622    97666469.527    97666434.505          41.370          40.620          34.870          34.930
R02  21807358.429    21807358.537    21807362.156    21807362.125         673.084         673.054         523.474         523.470   116368276.230   116368346.237    90508667.213    90508683.211          47.750          47.930          43.930          43.930
R03  23705096.432    23705095.734    23705100.670    23705100.273       -2643.662       -2644.201       -2055.999       -2056.388   126895249.573   126895337.595    98696328.220    98696318.207          33.500          32.500          30.180          30.810
R10  21201113.529    21201113.180                                        2713.736        2713.680                                   113013935.682   113013918.684                                          49.120          49.180
R11  19404607.997    19404608.328    19404609.671    19404609.703        -673.648        -673.667        -523.986        -524.040   103692395.221   103692397.228    80649770.124    80649666.128          52.370          52.560          50.810          50.870
R12  22195533.926    22195534.489    22195538.541    22195538.733       -3309.646       -3309.696       -2574.138       -2574.169   118564582.206   118564572.206    92216923.690    92216922.690          47.680          47.120          44.120          44.310
R20  20683268.349    20683268.545    20683273.999    20683273.467        1323.571        1323.676        1029.481        1029.457   110602755.916   110602763.923    86024428.600    86024414.603          42.430          41.250          48.370          48.870
R21  20802457.322    20802457.711    20802460.387    20802460.610       -3253.773       -3253.782       -2530.757       -2530.713   111318185.896   111318186.895    86580838.072    86580835.069          51.370          51.250          47.370          47.620
> 2021 01 03 00 08 00.0000000  0 25
E02  25451514.257    25451518.299    25451518.452    25451513.843    25451515.190       -2096.479       -1565.521       -1701.667       -1606.362       -1585.939   133748637.097    99877267.242   108562229.630   102482742.115   101180010.255          45.120          46.120          46.870          47.930          50.060
E03  26207910.306    26207915.346    26207914.237    26207910.675    26207911.888        2483.979        1854.966        2016.236        1903.386        1879.170   137723537.846   102845527.176   111788609.105   105528430.998   104186990.662          42.250          44.000          45.250          45.000          47.430
E08  24127517.071    24127521.328    24127522.983    24127516.653    24127518.089         112.106          83.789          91.046          85.948          84.873   126790991.686    94681596.068   102914798.732    97151535.267    95916574.743          42.810          44.250          45.430          45.560          47.930
E11  23670545.936    23670546.490    23670546.249    23670541.980    23670543.873       -2443.342       -1824.616       -1983.111       -1872.160       -1848.370   124389581.472    92888354.405   100965582.108    95311498.770    94099922.664          42.310          41.750          42.870          42.870          45.370
E12  24013324.889    24013326.530    24013325.716    24013322.458    24013323.385         254.701         190.171         206.723         195.139         192.669   126190892.921    94233501.806   102427690.926    96691736.801    95462634.379          41.560          43.250          43.750          44.500          46.870
E24  25806440.407    25806443.380    25806444.078    25806438.942    25806440.196        2128.387        1589.403        1727.586        1630.879        1610.138   135613811.379   101270083.133   110076170.723   103911894.968   102590988.126          44.930          46.060          46.430          47.500          49.810
E25  23438698.333    23438703.023    23438701.003    23438698.433    23438699.767         -41.454         -30.963         -33.662         -31.790         -31.374   123171238.232    91978569.305    99976695.822    94377982.606    93178283.531          48.620          51.870          53.310          53.430          55.680
G01  23917973.936    23917973.914    23917976.301    23917976.744    23917978.692       -3596.811       -3596.811       -2802.923       -2802.733       -2685.959   125689820.680   125689820.680    97940119.738    97940139.737    93859296.266          32.430          13.000          33.180          13.000          36.810
G07  20559115.846    20559115.440    20559113.328    20559113.341                        1160.693        1160.693         904.396         904.436                   108038922.435   108038922.435    84186202.477    84186186.473                          48.870          43.750          46.430          43.750
G08  21134789.707    21134789.058    21134791.115    21134790.095    21134792.017        1752.449        1752.449        1365.574        1365.544        1308.653   111064120.446   111064120.446    86543491.077    86543477.069    82937549.911          49.370          53.060          46.930          53.060          52.120
G11  21697459.308    21697458.615                    21697456.262                       -1811.137       -1811.137                       -1411.276                   114020950.811   114020950.811                    88847496.874                          48.370          36.930                          36.930
G13  22981101.156    22981100.696                    22981098.943                       -2026.406       -2026.406                       -1579.010                   120766512.823   120766512.823                    94103760.459                          42.060          25.870                          25.870
G14  21525797.655    21525797.414    21525796.693    21525796.219    21525802.894       -2244.273       -2244.273       -1748.861       -1748.785       -1676.027   113118856.437   113118856.437    88144581.047    88144589.046    84471913.962          47.370          38.750          46.180          38.750          50.120
G21  23027133.104    23027131.978                    23027129.889                       -1847.926       -1847.926                       -1439.939                   121008423.379   121008423.379                    94292279.799                          43.430          27.430                          27.430
G27  23794865.258    23794864.646    23794866.264    23794865.060    23794867.233        3554.650        3554.650        2769.830        2769.858        2654.464   125042931.370   125042931.370    97436069.748    97436068.745    93376271.919          42.120          39.870          40.120          39.870          43.060
G28  22068616.409    22068615.485                    22068613.373                       -2144.723       -2144.723                       -1671.213                   115971404.478   115971404.478                    90367328.995                          46.310          33.500                          33.500
G30  20498678.601    20498677.891    20498679.209    20498678.485    20498681.252        -854.127        -854.127        -665.554        -665.554        -637.799   107721335.618   107721335.618    83938717.049    83938718.035    80441285.012          50.560          45.310          48.870          45.310          54.250
R01  23513224.438    23513224.403    23513228.403    23513228.849        4021.394        4021.573        3127.633        3127.689   125691660.993   125691704.010    97760238.663    97760203.685          42.370          41.120          34.120          33.180
R02  21811217.914    21811217.815    21811220.773    21811221.046         699.681         699.669         544.185         544.128   116388866.376   116388936.389    90524681.773    90524697.765          49.180          48.620          44.310          44.000
R03  23690338.070    23690337.448    23690337.783    23690339.446       -2623.875       -2623.646       -2040.697       -2040.818   126816236.188   126816324.193    98634873.321    98634863.320          36.750          35.180          30.750          30.000
R10  21216413.329    21216413.065                                        2723.561        2723.515                                   113095494.299   113095477.310                                          48.430          48.560
R11  19400866.694    19400866.712    19400868.269    19400868.502        -659.121        -659.131        -512.649        -512.674   103672402.381   103672404.384    80634220.138    80634116.144          52.310          52.680          50.870          51.120
R12  22176956.387    22176957.228    22176961.730    22176961.954       -3305.806       -3305.895       -2571.242       -2571.185   118465348.097   118465338.106    92139741.620    92139740.627          47.370          46.930          44.680          44.250
R20  20690770.641    20690770.618    20690775.508    20690774.932        1350.851        1350.816        1050.675        1050.627   110642872.516   110642880.529    86055630.418    86055616.419          41.930          41.180          47.250          48.310
R21  20784271.985    20784271.891    20784274.285    20784274.115       -3234.133       -3234.089       -2515.475       -2515.450   111220867.357   111220868.370    86505145.918    86505142.914          52.060          51.430          47.250          47.180
> 2021 01 03 00 08 30.0000000  0 25
E02  25439556.096    25439560.403    25439560.300    25439555.441    25439556.761       -2093.160       -1563.069       -1698.953       -1603.814       -1583.452   133685795.403    99830340.030   108511221.779   102434590.709   101132470.945          45.750          46.430          47.000          47.680          50.060
E03  26222112.971    26222118.793    26222117.220    26222114.069    26222114.928        2491.618        1860.604        2022.383        1909.159        1884.884   137798174.750   102901262.516   111849191.003   105585620.317   104243452.992          42.750          44.370          45.060          45.120          47.750
E08  24128200.898    24128203.523    24128206.077    24128199.381    24128200.446         126.818          94.702         102.971          97.165          95.932   126794577.433    94684273.724   102917709.236    97154282.778    95919287.327          45.060          44.060          46.000          45.750          48.000
E11  23656624.022    23656624.411    23656624.604    23656620.782    23656622.062       -2434.062       -1817.763       -1975.736       -1865.110       -1841.416   124316422.035    92833722.356   100906199.442    95255441.545    94044578.027          43.120          41.680          43.120          43.180          45.430
E12  24014822.359    24014824.139    24014823.070    24014819.857    24014820.892         269.816         201.528         218.986         206.733         204.129   126198762.385    94239378.375   102434078.494    96697766.660    95468587.593          41.620          43.250          43.560          44.180          46.750
E24  25818600.770    25818604.423    25818604.410    25818599.350    25818600.742        2131.812        1591.919        1730.289        1633.405        1612.655   135677715.331   101317803.602   110128040.807   103960860.316   102639331.034          45.560          46.310          46.250          47.500          50.000
E25  23438481.454    23438486.230    23438484.254    23438481.380    23438482.951         -34.603         -25.832         -28.095         -26.527         -26.184   123170098.942    91977718.536    99975771.074    94377109.642    93177421.665          49.180          51.750          53.250          53.250          55.560
G01  23897451.550    23897451.442    23897454.031    23897454.612    23897456.449       -3592.940       -3592.940       -2799.144       -2799.757       -2682.728   125581974.636   125581974.636    97856083.892    97856103.854    93778761.984          32.120          10.060          30.560          10.060          37.370
G07  20565786.554    20565786.148    20565784.394    20565784.175                        1176.399        1176.399         916.615         916.679                   108073979.215   108073979.215    84213519.452    84213503.440                          49.120          43.680          46.500          43.680
G08  21144840.684    21144840.037    21144842.486    21144841.529    21144843.250        1768.849        1768.849        1378.288        1378.322        1320.857   111116940.764   111116940.764    86584649.754    86584635.757    82976993.656          49.250          53.000          47.060          53.000          51.930
G11  21687169.197    21687168.500                    21687166.625                       -1793.840       -1793.840                       -1397.794                   113966878.139   113966878.139                    88805362.346                          48.060          36.680                          36.680
G13  22969581.309    22969580.818                    22969580.101                       -2009.354       -2009.354                       -1565.729                   120705979.021   120705979.021                    94056591.278                          42.120          26.180                          26.180
G14  21513010.777    21513010.542    21513009.901    21513009.449    21513016.214       -2235.476       -2235.476       -1741.921       -1741.926       -1669.261   113051661.862   113051661.862    88092221.662    88092229.655    84421736.229          47.310          37.870          46.180          37.870          50.370
G21  23016622.310    23016621.192                    23016618.946                       -1834.568       -1834.568                       -1429.535                   120953188.475   120953188.475                    94249239.607                          44.120          27.870                          27.870
G27  23815178.046    23815177.443    23815177.428    23815177.844    23815178.863        3561.315        3561.315        2775.019        2775.055        2659.395   125149673.431   125149673.431    97519245.370    97519244.376    93455981.904          42.930          40.180          39.810          40.180          42.810
G28  22056393.963    22056393.029                    22056390.958                       -2137.366       -2137.366                       -1665.477                   115907174.963   115907174.963                    90317280.037                          46.680          34.000                          34.000
G30  20493847.300    20493846.589    20493848.001    20493847.429    20493850.052        -838.512        -838.512        -653.382        -653.384        -626.150   107695948.491   107695948.491    83918934.867    83918935.860    80422327.090          50.500          45.310          48.810          45.310          54.180
R01  23535807.939    23535807.644    23535812.006    23535813.768        4026.622        4026.654        3131.954        3132.006   125812385.329   125812428.343    97854135.417    97854100.418          41.560          40.120          34.620          34.620
R02  21815225.449    21815225.395    21815227.817    21815228.210         725.744         725.814         564.475         564.570   116410249.499   116410319.510    90541313.077    90541329.091          50.120          49.250          44.310          44.430
R03  23675689.844    23675689.329    23675686.821    23675688.055       -2604.389       -2604.563       -2025.366       -2025.772   126737815.993   126737903.967    98573879.700    98573869.751          38.870          35.250          29.180          30.680
R10  21231768.263    21231768.330                                        2733.053        2733.082                                   113177346.289   113177329.293                                          48.750          48.620
R11  19397207.475    19397207.641    19397208.438    19397208.452        -644.892        -644.863        -501.577        -501.487   103652845.067   103652847.072    80619008.904    80618904.914          53.060          53.060          50.870          51.000
R12  22158402.069    22158402.154    22158405.042    22158405.377       -3302.332       -3302.295       -2568.458       -2568.493   118366226.673   118366216.668    92062647.183    92062646.191          48.310          47.250          43.370          43.500
R20  20698424.319    20698424.440    20698429.504    20698428.861        1377.485        1377.554        1071.497        1071.501   110683801.077   110683809.084    86087463.733    86087449.738          41.930          41.180          47.370          48.500
R21  20766194.744    20766194.918    20766197.701    20766197.630       -3214.677       -3214.716       -2500.307       -2500.299   111124136.619   111124137.625    86429910.928    86429907.932          51.500          51.250          47.310          47.500
> 2021 01 03 00 09 00.0000000  0 25
E02  25427617.647    25427621.872    25427622.382    25427617.622    25427618.540       -2089.324       -1560.225       -1695.870       -1600.913       -1580.569   133623060.346    99783492.432   108460300.457   102386520.983   101085012.284          45.310          46.250          47.180          48.120          50.250
E03  26236360.540    26236366.536    26236364.614    26236361.646    26236362.797        2499.736        1866.756        2029.007        1915.383        1891.056   137873047.198   102957173.749   111909964.074   105642990.102   104300093.501          42.250          44.430          45.000          45.310          47.870
E08  24128967.527    24128970.845    24128973.434    24128966.389    24128967.709         141.945         106.012         115.226         108.760         107.389   126798609.444    94687284.646   102920981.970    97157372.247    95922337.523          44.310          43.680          45.870          45.810          47.810
E11  23642757.007    23642757.856    23642757.619    23642753.391    23642755.020       -2424.208       -1810.194       -1967.601       -1857.463       -1833.841   124243550.077    92779305.040   100847050.177    95199604.641    93989450.916          42.680          41.930          43.500          43.310          45.620
E12  24016407.603    24016409.437    24016408.153    24016405.047    24016406.184         285.473         213.258         231.766         218.728         215.990   126207093.685    94245599.789   102440840.904    96704150.364    95474890.152          41.430          43.120          43.180          44.120          46.620
E24  25830781.483    25830785.047    25830785.540    25830780.752    25830781.759        2135.600        1594.755        1733.443        1636.328        1615.539   135741726.783   101365604.334   110179998.143   104009908.036   102687755.261          44.560          46.120          46.310          47.870          50.060
E25  23438305.129    23438309.829    23438307.858    23438305.172    23438306.752         -27.226         -20.336         -22.117         -20.904         -20.628   123169172.914    91977027.021    99975019.432    94376400.090    93176721.132          48.500          51.680          53.120          53.370          55.560
G01  23876957.473    23876957.517    23876955.930    23876957.763    23876958.755       -3587.969       -3587.969       -2795.759       -2795.830       -2679.372   125474262.053   125474262.053    97772152.038    97772172.025    93698327.338          35.500          10.370          29.560          10.370          36.500
G07  20572549.213    20572548.811    20572546.686    20572546.462                        1192.526        1192.526         929.317         929.239                   108109515.412   108109515.412    84241209.994    84241193.985                          49.430          43.560          46.370          43.560
G08  21154986.666    21154986.024    21154987.865    21154987.144    21154989.259        1785.487        1785.487        1391.380        1391.289        1333.345   111170256.866   111170256.866    86626194.779    86626180.775    83016807.634          49.750          52.680          46.430          52.680          51.930
G11  21676979.826    21676979.117                    21676977.076                       -1775.998       -1775.998                       -1383.893                   113913331.490   113913331.490                    88763637.708                          48.500          36.750                          36.750
G13  22958161.916    22958161.425                    22958159.935                       -1991.622       -1991.622                       -1551.910                   120645966.319   120645966.319                    94009828.132                          43.370          26.870                          26.870
G14  21500276.987    21500276.737    21500275.748    21500275.386    21500282.276       -2225.839       -2225.839       -1734.391       -1734.419       -1662.217   112984744.566   112984744.566    88040078.320    88040086.317    84371765.520          47.810          37.810          45.560          37.810          50.310
G21  23006188.561    23006187.461                    23006186.995                       -1820.667       -1820.667                       -1418.693                   120898363.139   120898363.139                    94206518.575                          43.370          28.810                          28.810
G27  23835529.259    23835528.687    23835529.446    23835528.905    23835530.148        3568.212        3568.212        2780.345        2780.425        2664.552   125256617.908   125256617.908    97602578.738    97602577.737    93535843.037          43.180          40.120          40.620          40.120          43.310
G28  22044214.712    22044213.769                    22044212.176                       -2129.461       -2129.461                       -1659.311                   115843174.454   115843174.454                    90267409.517                          46.560          33.870                          33.870
G30  20489107.567    20489106.866    20489108.260    20489107.620    20489110.280        -822.213        -822.213        -640.725        -640.686        -614.025   107671039.824   107671039.824    83899525.517    83899526.513    80403726.469          51.060          45.430          49.000          45.430          54.120
R01  23558419.754    23558420.094    23558426.996    23558426.664        4032.200        4032.072        3136.266        3136.142   125933269.136   125933312.163    97948156.113    97948121.102          39.620          38.560          34.250          32.930
R02  21819379.931    21819380.360    21819383.188    21819383.613         752.375         752.359         585.192         585.146   116432424.233   116432494.238    90558560.086    90558576.082          49.250          48.870          43.500          43.870
R03  23661147.175    23661147.555    23661153.980    23661155.389       -2583.917       -2584.182       -2010.080       -2010.246   126659992.090   126660080.080    98513350.106    98513340.092          35.370          34.310          34.370          33.000
R10  21247179.621    21247179.040                                        2743.118        2743.080                                   113259491.065   113259474.067                                          49.370          48.870
R11  19393628.515    19393628.876    19393630.170    19393630.300        -629.957        -629.979        -489.940        -489.974   103633724.202   103633726.205    80604137.120    80604033.127          52.500          52.620          51.250          51.000
R12  22139868.959    22139868.584    22139870.211    22139870.283       -3298.301       -3298.280       -2565.260       -2565.279   118267219.072   118267209.069    91985641.306    91985640.315          49.180          48.250          42.750          43.000
R20  20706229.729    20706229.791    20706233.953    20706233.362        1404.809        1404.824        1092.637        1092.656   110725538.889   110725546.903    86119926.475    86119912.479          42.500          41.370          46.430          48.120
R21  20748228.788    20748228.788    20748231.411    20748231.719       -3194.642       -3194.658       -2484.747       -2484.755   111027997.372   111027998.371    86355135.966    86355132.974          51.430          51.370          47.310          47.750
> 2021 01 03 00 09 30.0000000  0 25
E02  25415700.249    25415703.970    25415705.397    25415699.536    25415700.825       -2086.083       -1557.792       -1693.218       -1598.436       -1578.108   133560432.071    99736724.582   108409465.844   102338533.102   101037634.418          45.000          46.250          47.500          48.120          50.250
E03  26250653.102    26250658.540    26250656.783    26250653.632    26250655.077        2507.134        1872.289        2035.054        1921.125        1896.717   137948153.129   103013259.329   111970926.674   105700538.809   104356910.647          43.060          44.500          44.750          45.500          48.000
E08  24129819.527    24129823.025    24129824.715    24129818.255    24129819.773         156.385         116.818         127.001         119.808         118.288   126803087.427    94690628.604   102924616.704    97160803.428    95925725.092          44.120          43.560          45.430          45.750          47.750
E11  23628945.555    23628946.556    23628945.743    23628941.394    23628942.875       -2414.875       -1803.183       -1960.123       -1850.368       -1826.788   124170967.367    92725103.701   100788135.661    95143989.339    93934542.596          43.370          42.560          43.930          43.180          45.930
E12  24018080.791    24018082.226    24018081.457    24018078.011    24018079.287         300.556         224.485         243.921         230.299         227.386   126215886.336    94252165.744   102447977.808    96710887.604    95481541.750          41.560          43.060          43.060          43.930          46.560
E24  25842983.289    25842986.540    25842986.764    25842982.241    25842983.091        2138.867        1597.173        1736.120        1638.817        1617.989   135805845.318   101413485.058   110232042.421   104059037.822   102736260.516          45.310          46.000          46.500          47.750          49.930
E25  23438169.273    23438174.191    23438172.292    23438169.780    23438171.123         -20.445         -15.224         -16.574         -15.664         -15.442   123168460.098    91976494.730    99974440.842    94375853.913    93176181.898          48.310          51.750          53.120          53.370          55.620
G01  23856483.733    23856483.867    23856486.175    23856486.550    23856486.102       -3583.784       -3583.784       -2792.618       -2792.551       -2676.300   125366686.222   125366686.222    97688326.685    97688346.695    93617994.810          32.060          10.250          31.060          10.250          34.750
G07  20579402.555    20579402.149    20579400.172    20579399.975                        1208.250        1208.250         941.500         941.497                   108145530.702   108145530.702    84269273.850    84269257.841                          49.250          43.680          46.750          43.680
G08  21165226.691    21165226.052    21165227.522    21165226.364    21165228.939        1801.649        1801.649        1403.908        1403.883        1345.362   111224067.050   111224067.050    86668124.802    86668110.795    83056990.561          50.000          52.560          46.430          52.560          51.870
G11  21666891.023    21666890.330                    21666888.246                       -1758.667       -1758.667                       -1370.391                   113860312.954   113860312.954                    88722324.578                          48.870          37.310                          37.310
G13  22946841.785    22946841.298                    22946839.526                       -1974.444       -1974.444                       -1538.525                   120586476.311   120586476.311                    93963472.288                          43.430          27.310                          27.310
G14  21487595.707    21487595.439    21487594.513    21487594.289    21487601.001       -2216.954       -2216.954       -1727.506       -1727.493       -1655.531   112918105.135   112918105.135    87988151.497    87988159.502    84322002.333          47.310          38.310          46.120          38.310          50.250
G21  22995834.827    22995833.745                    22995832.739                       -1807.089       -1807.089                       -1408.115                   120843949.613   120843949.613                    94164118.478                          44.500          29.750                          29.750
G27  23855917.430    23855916.858    23855917.667    23855918.002    23855918.882        3574.527        3574.527        2785.348        2785.347        2669.272   125363762.011   125363762.011    97686067.663    97686066.668    93615853.260          42.560          39.750          40.250          39.750          43.120
G28  22032079.341    22032078.394                    22032077.471                       -2122.157       -2122.157                       -1653.624                   115779403.386   115779403.386                    90217717.797                          46.310          33.870                          33.870
G30  20484458.574    20484457.863    20484459.248    20484459.043    20484461.635        -806.544        -806.544        -628.486        -628.476        -602.291   107646610.816   107646610.816    83880489.930    83880490.923    80385484.038          50.560          45.500          48.930          45.500          54.180
R01  23581064.578    23581064.014    23581067.469    23581068.967        4037.078        4036.900        3140.168        3139.980   126054307.756   126054350.767    98042297.194    98042262.188          41.060          39.620          31.810          32.680
R02  21823684.275    21823684.360    21823687.013    21823687.385         778.445         778.423         605.484         605.442   116455389.274   116455459.283    90576421.784    90576437.772          49.500          48.680          43.930          44.180
R03  23646722.038    23646722.007    23646728.177    23646726.714       -2564.143       -2564.319       -1994.495       -1994.963   126582768.070   126582856.053    98453286.969    98453276.948          34.810          36.560          34.430          32.430
R10  21262644.084    21262643.753                                        2752.520        2752.490                                   113341927.392   113341910.394                                          49.250          48.870
R11  19390131.934    19390132.385    19390134.273    19390134.206        -615.733        -615.707        -478.873        -478.845   103615041.065   103615043.073    80589605.804    80589501.809          52.250          52.680          51.560          51.000
R12  22121354.792    22121354.877    22121357.376    22121357.882       -3294.733       -3294.746       -2562.519       -2562.576   118168326.640   118168316.637    91908725.017    91908724.011          48.810          48.370          43.120          43.870
R20  20714185.971    20714185.805    20714190.642    20714190.128        1431.301        1431.419        1113.309        1113.323   110768084.283   110768092.295    86153017.336    86153003.348          42.310          41.060          47.250          48.250
R21  20730374.382    20730374.789    20730376.781    20730377.224       -3175.040       -3175.081       -2469.536       -2469.424   110932453.226   110932454.230    86280823.904    86280820.908          51.680          51.750          47.560          47.560
> 2021 01 03 00 10 00.0000000  0 25
E02  25403802.711    25403806.431    25403807.147    25403802.355    25403803.456       -2081.770       -1554.601       -1689.814       -1595.192       -1574.897   133497911.262    99690036.983   108358718.441   102290627.558   100990337.846          45.000          46.310          47.750          48.370          50.430
E03  26264989.665    26264994.620    26264992.979    26264990.034    26264991.417        2515.519        1878.458        2041.722        1927.438        1902.948   138023491.036   103069518.143   112032077.567   105758265.245   104413903.270          43.060          44.250          44.560          45.870          48.120
E08  24130756.874    24130759.959    24130762.670    24130754.962    24130756.868         171.906         128.434         139.589         131.832         130.154   126808011.595    94694305.735   102928613.604    97164576.493    95929450.192          44.180          43.750          46.500          45.680          47.810
E11  23615188.259    23615189.927    23615189.333    23615184.863    23615186.402       -2404.431       -1795.520       -1951.596       -1842.425       -1818.969   124098676.035    92671119.940   100729457.671    95088597.323    93879854.709          42.250          42.500          44.310          43.620          46.060
E12  24019841.702    24019843.455    24019842.391    24019838.968    24019840.337         316.548         236.483         256.964         242.544         239.501   126225140.415    94259076.264   102455489.230    96717978.394    95488542.405          41.560          43.060          43.560          44.430          46.750
E24  25855205.186    25855208.379    25855208.616    25855203.864    25855204.787        2142.946        1600.320        1739.511        1642.040        1621.190   135870070.976   101461445.791   110284173.652   104108249.703   102784846.824          45.310          45.870          47.000          47.680          49.810
E25  23438074.376    23438079.187    23438077.171    23438074.767    23438076.092         -12.686          -9.464         -10.298          -9.720          -9.585   123167960.882    91976121.944    99974035.638    94375471.399    93175804.248          48.370          51.810          53.500          53.620          55.750
G01  23836038.733    23836038.942    23836043.722    23836042.533    23836042.943       -3578.083       -3578.083       -2788.523       -2788.125       -2672.146   125259250.848   125259250.848    97604610.778    97604630.834    93537767.078          28.500           7.620          33.560           7.620          35.680
G07  20586347.352    20586346.950    20586345.291    20586344.848                        1224.876        1224.876         954.453         954.448                   108182025.264   108182025.264    84297711.172    84297695.164                          49.250          43.620          46.750          43.620
G08  21175559.502    21175558.868    21175561.281    21175560.096    21175562.036        1818.624        1818.624        1417.082        1417.107        1358.100   111278368.935   111278368.935    86710437.957    86710423.953    83097540.680          49.430          53.000          47.180          53.000          51.810
G11  21656902.729    21656902.050                    21656900.180                       -1740.328       -1740.328                       -1356.101                   113807825.208   113807825.208                    88681425.045                          48.620          37.180                          37.180
G13  22935620.851    22935620.365                    22935619.116                       -1956.317       -1956.317                       -1524.412                   120527511.447   120527511.447                    93917525.670                          43.560          27.680                          27.680
G14  21474968.078    21474967.806    21474966.450    21474966.329    21474973.044       -2206.996       -2206.996       -1719.732       -1719.737       -1648.058   112851744.652   112851744.652    87936442.050    87936450.046    84272447.443          47.870          38.310          46.000          38.310          50.310
G21  22985558.493    22985557.429                    22985556.856                       -1792.332       -1792.332                       -1396.634                   120789950.121   120789950.121                    94122040.991                          43.060          29.310                          29.310
G27  23876342.858    23876342.259    23876345.058    23876344.539    23876345.625        3581.645        3581.645        2790.993        2790.893        2674.636   125471103.423   125471103.423    97769710.344    97769709.344    93696010.795          40.810          39.000          41.060          39.000          43.310
G28  22019987.742    22019986.818                    22019985.578                       -2113.820       -2113.820                       -1647.131                   115715862.043   115715862.043                    90168205.075                          46.000          33.500                          33.500
G30  20479901.409    20479900.699    20479902.138    20479901.802    20479904.529        -789.853        -789.853        -615.402        -615.471        -589.790   107622663.146   107622663.146    83861829.405    83861830.402    80367601.038          50.430          45.060          48.750          45.060          54.250
R01  23603735.253    23603735.592    23603739.056    23603741.091        4042.538        4042.482        3144.251        3143.882   126175497.280   126175540.271    98136555.697    98136520.659          41.310          40.750          31.680          31.310
R02  21828135.230    21828135.623    21828138.800    21828138.523         805.355         805.356         626.487         626.328   116479143.333   116479213.334    90594897.154    90594913.139          49.000          48.620          43.750          44.000
R03  23632407.860    23632408.187    23632412.693    23632412.537       -2543.588       -2543.291       -1978.143       -1978.380   126506147.310   126506235.350    98393693.100    98393683.113          39.680          37.370          35.060          34.120
R10  21278163.744    21278163.467                                        2762.798        2762.844                                   113424654.700   113424637.702                                          49.370          49.250
R11  19386717.899    19386718.212    19386719.895    19386719.895        -600.364        -600.388        -466.951        -467.036   103596796.861   103596798.866    80575415.865    80575311.867          52.180          52.620          51.060          50.930
R12  22102862.733    22102863.036    22102867.548    22102867.490       -3290.059       -3290.115       -2558.961       -2559.057   118069551.300   118069541.309    91831899.796    91831898.780          47.560          47.500          44.250          44.560
R20  20722292.817    20722292.571    20722297.113    20722296.446        1458.775        1458.740        1134.653        1134.535   110811434.782   110811442.780    86186734.396    86186720.396          42.310          41.180          46.620          48.060
R21  20712631.007    20712631.360    20712634.585    20712634.630       -3154.372       -3154.372       -2453.436       -2453.423   110837508.359   110837509.368    86206977.934    86206974.929          51.120          51.370          48.000          47.870
> 2021 01 03 00 10 30.0000000  0 25
E02  25391925.871    25391929.967    25391930.155    25391925.430    25391926.621       -2078.628       -1552.196       -1687.167       -1592.638       -1572.417   133435497.789    99643429.538   108308058.174   102242804.279   100943122.485          45.000          46.500          47.370          48.060          50.310
E03  26279369.173    26279374.566    26279373.136    26279369.981    26279371.377        2522.815        1883.903        2047.781        1933.004        1908.454   138099058.534   103125948.435   112093414.852   105816167.617   104471069.602          42.430          43.810          44.250          45.750          47.810
E08  24131778.121    24131781.895    24131784.583    24131777.322    24131778.656         186.501         139.211         151.421         142.925         141.083   126813381.268    94698315.546   102932972.107    97168690.909    95933512.305          43.620          43.810          46.250          45.750          47.810
E11  23601487.186    23601488.951    23601488.478    23601484.035    23601485.391       -2394.941       -1788.379       -1944.003       -1835.130       -1811.755   124026677.388    92617354.748   100671017.208    95033429.542    93825388.221          41.810          42.430          44.120          43.620          46.060
E12  24021691.089    24021692.033    24021691.926    24021687.693    24021689.161         331.571         247.664         269.134         254.077         250.857   126234855.161    94266330.761   102463374.560    96725422.165    95495891.538          42.310          42.930          43.930          44.430          46.750
E24  25867446.910    25867450.112    25867450.470    25867445.464    25867446.708        2146.301        1602.722        1742.088        1644.590        1623.662   135934403.112   101509486.027   110336391.280   104157543.147   102833513.663          44.620          45.310          46.370          47.180          49.310
E25  23438020.372    23438024.848    23438022.832    23438020.245    23438021.673          -5.874          -4.401          -4.808          -4.490          -4.446   123167674.867    91975908.368    99973803.492    94375252.254    93175587.887          48.750          51.750          53.120          53.370          55.560
G01  23815621.492    23815621.452    23815625.395    23815625.440    23815625.752       -3573.902       -3573.902       -2785.121       -2784.868       -2668.811   125151958.701   125151958.701    97521006.677    97521026.704    93457646.478          29.810           8.120          32.060           8.120          36.120
G07  20593383.227    20593382.825    20593381.192    20593380.883                        1240.512        1240.512         966.662         966.632                   108218999.066   108218999.066    84326521.923    84326505.918                          49.500          43.810          46.870          43.810
G08  21185985.971    21185985.345    21185987.513    21185986.722    21185988.460        1834.603        1834.603        1429.589        1429.560        1369.994   111333160.139   111333160.139    86753132.407    86753118.403    83138456.198          49.370          52.930          46.620          52.930          51.930
G11  21647015.735    21647015.060                    21647013.140                       -1722.878       -1722.878                       -1342.504                   113755869.550   113755869.550                    88640940.123                          48.620          37.180                          37.180
G13  22924500.450    22924499.981                    22924498.204                       -1939.037       -1939.037                       -1510.939                   120469073.891   120469073.891                    93871989.932                          43.430          26.810                          26.810
G14  21462392.368    21462392.096    21462391.970    21462391.473    21462398.251       -2197.979       -2197.979       -1712.672       -1712.711       -1641.326   112785663.438   112785663.438    87884950.208    87884958.205    84223101.091          47.370          38.560          46.250          38.560          50.560
G21  22975362.532    22975361.468                    22975359.728                       -1779.026       -1779.026                       -1386.250                   120736366.303   120736366.303                    94080287.396                          44.060          28.500                          28.500
G27  23896805.714    23896805.062    23896808.160    23896807.936    23896808.780        3587.814        3587.814        2795.609        2795.701        2679.202   125578639.009   125578639.009    97853504.314    97853503.304    93776313.350          39.620          38.560          40.680          38.560          43.620
G28  22007939.778    22007938.848                    22007937.565                       -2106.452       -2106.452                       -1641.391                   115652551.162   115652551.162                    90118871.920                          46.120          34.060                          34.060
G30  20475435.899    20475435.171    20475436.659    20475436.288    20475439.193        -774.080        -774.080        -603.155        -603.179        -578.021   107599197.636   107599197.636    83843544.605    83843545.596    80350078.100          50.310          45.180          48.680          45.180          54.430
R01  23626433.361    23626432.945    23626436.882    23626438.255        4047.026        4047.003        3147.593        3147.904   126296832.570   126296875.571    98230927.596    98230892.597          41.060          40.370          31.430          32.870
R02  21832734.499    21832734.589    21832737.493    21832737.635         831.245         831.215         646.511         646.406   116503684.242   116503754.245    90613984.507    90614000.513          49.310          48.750          43.870          44.120
R03  23618208.553    23618209.707    23618209.322    23618210.274       -2523.509       -2523.527       -1962.460       -1962.639   126430133.116   126430221.087    98334570.892    98334560.933          38.500          38.870          32.310          33.060
R10  21293736.546    21293736.639                                        2772.134        2772.161                                   113507671.770   113507654.782                                          49.000          48.870
R11  19383386.849    19383387.189    19383388.111    19383388.223        -586.000        -586.002        -455.817        -455.839   103578992.428   103578994.434    80561567.971    80561463.974          53.250          53.180          51.310          51.120
R12  22084393.827    22084394.422    22084398.437    22084398.589       -3286.477       -3286.515       -2556.122       -2556.175   117970893.996   117970884.000    91755166.366    91755165.358          48.310          48.060          44.310          44.430
R20  20730549.435    20730549.265    20730554.348    20730553.892        1485.217        1485.150        1155.107        1155.103   110855587.866   110855595.869    86221075.672    86221061.678          42.120          41.000          47.370          48.310
R21  20695000.950    20695001.527    20695004.167    20695004.404       -3134.570       -3134.588       -2438.044       -2438.034   110743166.016   110743167.019    86133600.588    86133597.591          51.310          51.430          48.000          47.810
> 2021 01 03 00 11 00.0000000  0 25
E02  25380069.373    25380073.594    25380074.287    25380068.230    25380070.181       -2075.110       -1549.590       -1684.366       -1589.994       -1569.781   133373192.234    99596902.668   108257485.473   102195063.657   100895988.740          45.370          46.680          47.310          47.250          50.060
E03  26293792.495    26293798.295    26293796.422    26293793.504    26293794.761        2530.282        1889.627        2053.886        1938.830        1914.218   138174854.021   103182548.952   112154937.138   105874244.664   104528408.384          42.180          44.180          43.870          46.000          48.120
E08  24132885.612    24132888.398    24132890.844    24132884.036    24132885.298         201.260         150.260         163.444         154.260         152.277   126819196.439    94702658.065   102937692.232    97173146.715    95937911.467          44.680          43.930          45.870          46.120          48.120
E11  23587842.982    23587843.349    23587843.577    23587839.612    23587840.673       -2385.267       -1781.271       -1936.082       -1827.606       -1804.431   123954973.499    92563809.678   100612816.037    94978487.654    93771144.741          42.750          42.000          43.870          44.180          46.180
E12  24023627.293    24023628.469    24023627.101    24023623.870    24023625.615         346.922         259.019         281.466         265.708         262.353   126245030.437    94273929.178   102471633.715    96733218.817    95503589.073          42.000          43.060          43.120          44.500          46.810
E24  25879708.783    25879712.499    25879712.929    25879707.247    25879709.006        2149.770        1605.319        1744.926        1647.257        1626.309   135998841.613   101557605.671   110388695.247   104206918.095   102882260.961          44.250          45.620          46.500          46.930          49.310
E25  23438006.197    23438011.076    23438009.212    23438006.539    23438007.913           1.187            .873            .974            .909            .885   123167602.355    91975854.218    99973744.640    94375196.697    93175533.034          48.560          52.000          53.120          53.370          55.750
G01  23795233.741    23795233.612    23795235.651    23795236.115    23795236.598       -3568.998       -3568.998       -2780.859       -2781.042       -2665.194   125044813.716   125044813.716    97437517.160    97437537.140    93377635.621          33.930          10.250          33.000          10.250          35.930
G07  20600510.327    20600509.921    20600507.948    20600507.823                        1256.381        1256.381         979.004         978.997                   108256451.396   108256451.396    84355705.546    84355689.540                          49.370          43.930          46.620          43.930
G08  21196504.967    21196504.337    21196506.259    21196505.463    21196507.666        1850.751        1850.751        1442.148        1442.143        1382.035   111388438.328   111388438.328    86796206.315    86796192.305    83179735.356          49.120          52.810          46.430          52.810          52.060
G11  21637230.644    21637229.969                    21637227.737                       -1705.068       -1705.068                       -1328.618                   113704448.158   113704448.158                    88600871.514                          48.620          37.870                          37.870
G13  22913480.659    22913480.230                    22913478.839                       -1921.365       -1921.365                       -1497.167                   120411165.750   120411165.750                    93826866.710                          43.000          26.750                          26.750
G14  21449871.186    21449870.923    21449870.430    21449870.425    21449876.698       -2188.662       -2188.662       -1705.461       -1705.448       -1634.419   112719862.406   112719862.406    87833676.695    87833684.692    84173963.972          47.500          39.000          46.430          39.000          50.500
G21  22965245.164    22965244.073                    22965242.383                       -1765.194       -1765.194                       -1375.478                   120683200.684   120683200.684                    94038859.657                          43.560          28.120                          28.120
G27  23917305.800    23917305.174    23917308.313    23917307.352    23917308.697        3594.080        3594.080        2800.674        2800.585        2684.027   125686366.330   125686366.330    97937447.695    97937446.677    93856759.084          39.180          39.180          40.750          39.180          43.500
G28  21995936.468    21995935.512                    21995934.138                       -2098.812       -2098.812                       -1635.437                   115589470.716   115589470.716                    90069718.335                          46.750          34.810                          34.810
G30  20471063.086    20471062.353    20471063.609    20471063.206    20471065.938        -757.944        -757.944        -590.633        -590.607        -566.004   107576215.824   107576215.824    83825636.704    83825637.696    80332916.358          50.870          46.000          48.930          46.000          54.500
R01  23649157.029    23649157.655    23649162.334    23649163.551        4051.405        4051.552        3151.101        3151.186   126418309.624   126418352.648    98325409.770    98325374.730          40.250          40.060          32.000          32.870
R02  21837480.138    21837480.505    21837483.691    21837483.820         857.310         857.267         666.734         666.758   116529010.743   116529080.744    90633682.892    90633698.889          49.000          48.370          44.250          44.430
R03  23604122.125    23604121.659    23604125.822    23604125.826       -2503.368       -2503.315       -1947.064       -1947.119   126354728.341   126354816.359    98275922.910    98275912.898          37.250          36.500          33.810          34.060
R10  21309364.388    21309364.379                                        2781.748        2781.702                                   113590978.263   113590961.268                                          48.370          48.500
R11  19380136.891    19380137.097    19380138.874    19380138.905        -571.376        -571.364        -444.446        -444.421   103561628.879   103561630.885    80548062.991    80547958.998          52.560          52.750          51.370          51.180
R12  22065948.563    22065948.947    22065951.969    22065951.894       -3282.558       -3282.509       -2553.101       -2553.123   117872356.382   117872346.389    91678526.026    91678525.019          48.620          48.250          44.250          44.500
R20  20738956.193    20738955.992    20738960.372    20738959.809        1511.717        1511.824        1175.848        1175.779   110900541.380   110900549.390    86256039.533    86256025.530          42.310          41.430          46.620          47.750
R21  20677484.899    20677485.144    20677487.131    20677487.319       -3114.352       -3114.381       -2422.216       -2422.274   110649430.116   110649431.121    86060694.907    86060691.903          51.750          51.870          47.810          47.810
> 2021 01 03 00 11 30.0000000  0 25
E02  25368234.030    25368237.781    25368238.103    25368232.950    25368234.270       -2071.354       -1546.829       -1681.414       -1587.200       -1567.030   133310994.832    99550456.579   108207000.577   102147405.911   100848936.821          46.060          46.500          47.310          47.810          50.120
E03  26308259.151    26308264.584    26308262.961    26308259.882    26308261.189        2537.797        1895.179        2059.937        1944.520        1919.834   138250875.516   103239318.222   112216642.895   105932494.877   104585918.126          42.930          43.930          44.180          45.750          47.870
E08  24134076.683    24134080.045    24134082.545    24134075.848    24134076.610         216.019         161.345         175.380         165.553         163.453   126825456.879    94707333.086   102942773.754    97177943.692    95942647.465          44.180          44.120          46.060          46.500          48.310
E11  23574254.159    23574254.977    23574255.393    23574251.187    23574252.338       -2375.235       -1773.707       -1927.968       -1819.997       -1796.843   123883566.082    92510485.978   100554855.482    94923772.910    93717125.521          42.810          41.680          44.060          44.250          46.060
E12  24025650.988    24025652.169    24025651.096    24025647.709    24025649.471         362.242         270.468         293.979         277.568         274.031   126255665.863    94281871.225   102480266.380    96741368.046    95511634.712          42.370          43.180          43.750          44.560          46.870
E24  25891991.365    25891994.356    25891995.582    25891989.721    25891991.431        2153.262        1608.001        1747.774        1649.873        1628.918   136063386.128   101605804.499   110441085.266   104256374.279   102931088.465          44.750          45.000          46.810          46.810          48.930
E25  23438032.884    23438038.075    23438035.818    23438033.293    23438034.725           8.250           6.170           6.704           6.314           6.241   123167743.324    91975959.493    99973859.063    94375304.714    93175639.680          48.500          51.750          53.250          53.500          55.680
G01  23774875.450    23774875.173    23774876.371    23774875.392    23774877.448       -3563.910       -3563.910       -2777.147       -2777.063       -2661.375   124937819.118   124937819.118    97354144.822    97354164.830    93297737.174          34.180          11.180          34.750          11.180          37.870
G07  20607727.991    20607727.594    20607725.938    20607725.598                        1272.341        1272.341         991.464         991.437                   108294382.274   108294382.274    84385262.083    84385246.071                          49.180          43.930          46.500          43.930
G08  21207116.597    21207115.958    21207117.777    21207116.977    21207119.314        1866.822        1866.822        1454.614        1454.666        1394.046   111444202.010   111444202.010    86839658.538    86839644.538    83221377.077          49.000          52.930          46.430          52.930          52.180
G11  21627547.730    21627547.055                    21627545.064                       -1687.194       -1687.194                       -1314.695                   113653563.255   113653563.255                    88561220.959                          48.560          38.250                          38.250
G13  22902563.322    22902562.875                    22902560.263                       -1903.728       -1903.728                       -1483.419                   120353788.830   120353788.830                    93782157.423                          43.930          27.500                          27.500
G14  21437403.810    21437403.551    21437402.249    21437402.356    21437408.674       -2179.297       -2179.297       -1698.093       -1698.153       -1627.431   112654342.256   112654342.256    87782622.051    87782630.041    84125036.592          48.000          39.180          46.560          39.180          50.620
G21  22955207.834    22955206.694                    22955204.985                       -1751.173       -1751.173                       -1364.552                   120630455.520   120630455.520                    93997759.549                          43.620          29.060                          29.060
G27  23937842.393    23937841.830    23937843.583    23937842.845    23937844.601        3600.172        3600.172        2805.316        2805.332        2688.598   125794282.693   125794282.693    98021538.357    98021537.350    93937345.971          40.250          39.250          40.680          39.250          43.060
G28  21983976.653    21983975.706                    21983974.287                       -2091.153       -2091.153                       -1629.469                   115526620.955   115526620.955                    90020744.511                          46.680          34.930                          34.930
G30  20466781.946    20466781.218    20466782.536    20466782.200    20466784.833        -741.820        -741.820        -578.037        -578.040        -553.952   107553718.911   107553718.911    83808106.639    83808107.637    80316116.716          50.560          46.000          49.000          46.000          54.370
R01  23671909.405    23671909.114    23671913.704    23671914.375        4056.061        4055.973        3154.847        3154.517   126539923.880   126539966.898    98419998.573    98419963.583          41.180          40.120          33.810          33.680
R02  21842373.475    21842373.431    21842377.864    21842377.636         883.438         883.397         687.176         687.112   116555121.442   116555191.438    90653991.204    90654007.200          48.930          48.500          45.180          44.930
R03  23590151.439    23590152.302    23590156.974    23590156.281       -2482.814       -2483.060       -1930.980       -1931.017   126279936.488   126280024.486    98217751.451    98217741.436          37.680          35.870          37.500          36.500
R10  21325047.236    21325047.137                                        2791.279        2791.257                                   113674573.110   113674556.116                                          48.810          48.750
R11  19376970.053    19376970.384    19376971.910    19376972.106        -556.678        -556.663        -432.972        -432.973   103544707.379   103544709.383    80534901.834    80534797.841          52.500          52.750          51.060          51.060
R12  22047525.196    22047525.612    22047527.874    22047527.883       -3278.537       -3278.554       -2549.842       -2549.961   117773939.798   117773929.800    91601979.808    91601978.809          49.560          49.120          44.000          44.120
R20  20747512.111    20747512.460    20747517.127    20747516.277        1538.310        1538.329        1196.473        1196.433   110946292.779   110946300.797    86291623.966    86291609.965          42.750          41.870          47.750          48.430
R21  20660081.335    20660081.563    20660084.587    20660084.802       -3094.005       -3094.029       -2406.433       -2406.427   110556304.350   110556305.354    85988263.775    85988260.779          51.000          51.500          48.060          47.810
> 2021 01 03 00 12 00.0000000  0 25
E02  25356418.446    25356422.404    25356423.281    25356417.707    25356419.322       -2067.729       -1544.052       -1678.349       -1584.318       -1564.183   133248906.241    99504091.744   108156604.023   102099831.574   100801967.236          45.500          46.310          47.370          47.560          50.000
E03  26322768.404    26322773.014    26322771.834    26322768.804    26322770.361        2545.309        1900.843        2066.130        1950.339        1925.583   138327121.422   103296255.095   112278530.810   105990917.058   104643597.652          42.870          43.560          44.250          45.370          47.500
E08  24135352.736    24135356.054    24135357.928    24135351.115    24135352.668         231.048         172.538         187.455         177.024         174.781   126832162.683    94712340.662   102948216.777    97183081.891    95947720.354          43.680          44.250          45.120          46.180          48.250
E11  23560723.003    23560723.119    23560723.119    23560719.172    23560720.810       -2365.187       -1766.221       -1919.886       -1812.347       -1789.282   123812457.304    92457385.291   100497137.326    94869286.986    93663332.215          43.250          41.870          43.370          44.000          46.000
E12  24027762.189    24027764.107    24027762.985    24027759.392    24027760.748         377.553         281.960         306.517         289.262         285.619   126266761.421    94290156.883   102489272.528    96749869.844    95520028.441          41.250          43.620          43.750          44.500          47.060
E24  25904294.292    25904297.239    25904298.692    25904292.667    25904294.022        2156.942        1610.654        1750.758        1652.650        1631.649   136128036.748   101654082.551   110493561.408   104305911.764   102979996.234          44.680          45.250          47.060          46.870          49.120
E25  23438100.517    23438105.525    23438103.267    23438100.738    23438102.229          15.527          11.614          12.615          11.939          11.783   123168098.221    91976224.511    99974147.122    94375576.643    93175908.154          48.430          51.810          52.930          53.430          55.620
G01  23754541.341    23754541.033    23754544.525    23754544.448    23754544.434       -3558.729       -3558.729       -2772.826       -2773.047       -2657.487   124830978.672   124830978.672    97270892.632    97270912.591    93217953.756          33.560          14.750          36.120          14.750          37.310
G07  20615037.024    20615036.627    20615035.561    20615034.975                        1288.491        1288.491        1003.940        1004.017                   108332791.776   108332791.776    84415191.564    84415175.560                          49.560          43.870          47.310          43.870
G08  21217820.436    21217819.802    21217821.902    21217821.021    21217822.564        1883.064        1883.064        1467.307        1467.320        1406.196   111500448.863   111500448.863    86883487.255    86883473.254    83263379.598          50.310          53.180          47.430          53.180          51.870
G11  21617966.917    21617966.242                    21617964.340                       -1669.088       -1669.088                       -1300.589                   113603216.933   113603216.933                    88521990.069                          48.930          37.500                          37.500
G13  22891745.689    22891745.239                    22891744.111                       -1885.705       -1885.705                       -1469.380                   120296945.431   120296945.431                    93737863.875                          44.120          27.810                          27.810
G14  21424988.905    21424988.650    21424987.670    21424987.402    21424994.421       -2169.739       -2169.739       -1690.748       -1690.705       -1620.297   112589104.061   112589104.061    87731787.087    87731795.087    84076319.777          48.120          38.870          46.370          38.870          50.750
G21  22945251.122    22945249.992                    22945248.877                       -1737.052       -1737.052                       -1353.549                   120578133.177   120578133.177                    93956988.901                          44.250          29.750                          29.750
G27  23958414.066    23958413.521    23958414.750    23958414.128    23958415.867        3606.643        3606.643        2810.253        2810.375        2693.311   125902385.805   125902385.805    98105774.536    98105773.531    94018072.318          41.560          39.370          40.680          39.370          42.560
G28  21972061.339    21972060.387                    21972058.039                       -2083.273       -2083.273                       -1623.330                   115464002.760   115464002.760                    89971951.128                          47.930          35.000                          35.000
G30  20462593.265    20462592.537    20462594.186    20462593.582    20462596.246        -725.453        -725.453        -565.248        -565.289        -541.691   107531708.501   107531708.501    83790955.683    83790956.673    80299680.380          51.000          45.560          49.310          45.560          54.250
R01  23694684.536    23694684.049    23694685.965    23694688.228        4060.375        4060.560        3158.231        3158.220   126661671.118   126661714.133    98514690.829    98514655.870          40.180          39.250          29.310          30.500
R02  21847413.061    21847413.530    21847416.913    21847416.998         909.612         909.584         707.450         707.356   116582014.459   116582084.467    90674907.992    90674923.993          49.000          49.060          44.810          45.000
R03  23576298.106    23576294.735    23576298.320    23576298.620       -2462.052       -2461.876       -1915.124       -1914.895   126205761.237   126205849.212    98160059.459    98160049.471          35.930          34.680          37.310          36.250
R10  21340783.886    21340784.136                                        2800.942        2800.984                                   113758456.027   113758439.046                                          49.370          49.120
R11  19373886.391    19373886.806    19373888.149    19373888.207        -541.707        -541.716        -421.336        -421.427   103528229.406   103528231.407    80522085.632    80521981.629          52.500          52.680          51.000          50.620
R12  22029123.235    22029123.374    22029126.807    22029126.794       -3274.258       -3274.274       -2546.637       -2546.766   117675645.968   117675635.974    91525529.083    91525528.065          48.250          47.870          43.870          44.000
R20  20756216.898    20756216.567    20756221.913    20756220.894        1564.863        1564.966        1217.194        1217.134   110992839.979   110992847.998    86327827.334    86327813.338          42.430          41.680          47.870          48.620
R21  20642793.832    20642794.109    20642796.655    20642796.552       -3073.287       -3073.307       -2390.333       -2390.388   110463792.765   110463793.774    85916310.365    85916307.358          52.120          51.870          48.060          47.870
> 2021 01 03 00 12 30.0000000  0 26
E02  25344624.895    25344627.950    25344628.669    25344623.292    25344624.934       -2064.178       -1541.517       -1675.449       -1581.646       -1561.581   133186926.522    99457808.194   108106295.823   102052340.628   100755079.988          46.250          46.370          47.370          47.750          50.120
E03  26337319.757    26337324.340    26337323.849    26337320.255    26337321.817        2552.656        1906.187        2071.897        1955.828        1930.993   138403589.570   103353357.933   112340599.102   106049509.545   104701445.314          42.560          43.370          45.120          45.620          47.560
E08  24136713.822    24136716.402    24136718.312    24136711.083    24136713.383         245.713         183.512         199.431         188.252         185.886   126839313.290    94717680.405   102954020.861    97188560.929    95953129.745          44.430          44.370          44.810          45.250          47.810
E11  23547248.171    23547249.320    23547249.226    23547244.192    23547246.260       -2355.293       -1758.875       -1911.746       -1804.779       -1781.811   123741648.616    92404508.710   100439662.768    94815030.998    93609765.931          43.180          42.500          44.120          43.810          46.250
E12  24029961.405    24029962.930    24029960.811    24029958.343    24029959.557         392.818         293.328         318.787         300.966         297.146   126278316.447    94298785.639   102498651.598    96758723.692    95528769.742          42.120          44.060          42.870          44.500          47.250
E24  25916616.756    25916620.378    25916620.441    25916615.948    25916616.768        2160.296        1613.121        1753.468        1655.209        1634.164   136192792.875   101702439.385   110546123.201   104355530.082   103028983.808          44.500          46.060          46.120          47.560          49.810
E25  23438208.851    23438213.730    23438211.302    23438208.894    23438210.379          22.493          16.757          18.199          17.210          16.988   123168666.732    91976649.056    99974608.581    94376012.263    93176338.236          48.620          52.120          52.930          53.430          55.810
G01  23734239.540    23734239.272    23734244.843    23734243.631    23734243.912       -3553.592       -3553.592       -2768.844       -2769.027       -2653.605   124724295.529   124724295.529    97187762.889    97187782.892    93138287.797          32.560          15.680          36.680          15.680          39.000
G07  20622437.161    20622436.759    20622435.104    20622435.153                        1304.171        1304.171        1016.218        1016.234                   108371678.958   108371678.958    84445493.257    84445477.248                          49.500          43.870          46.680          43.870
G08  21228615.143    21228614.513    21228616.735    21228616.126    21228617.561        1898.892        1898.892        1479.592        1479.658        1417.942   111557176.728   111557176.728    86927690.793    86927676.787    83305741.324          49.560          53.370          47.060          53.370          51.870
G11  21608489.049    21608488.365                    21608485.976                       -1651.238       -1651.238                       -1286.676                   113553410.670   113553410.670                    88483180.013                          48.560          37.250                          37.250
G13  22881030.193    22881029.769                    22881028.551                       -1868.007       -1868.007                       -1455.594                   120240637.396   120240637.396                    93693987.486                          43.310          27.750                          27.750
G14  21412627.761    21412627.498    21412627.166    21412626.813    21412633.515       -2160.499       -2160.499       -1683.553       -1683.506       -1613.375   112524148.234   112524148.234    87681172.175    87681180.178    84027813.831          47.500          39.120          46.500          39.120          50.620
G21  22935375.844    22935374.727                    22935373.688                       -1722.871       -1722.871                       -1342.494                   120526235.157   120526235.157                    93916548.921                          44.750          29.930                          29.930
G27  23979021.548    23979020.990    23979020.903    23979019.799    23979021.730        3612.548        3612.548        2814.991        2814.975        2697.594   126010672.717   126010672.717    98190153.943    98190152.934    94098935.910          42.370          39.560          40.370          39.560          41.620
G28  21960188.980    21960188.019                    21960186.190                       -2075.734       -2075.734                       -1617.453                   115401615.945   115401615.945                    89923338.046                          47.310          35.430                          35.430
G30  20458497.845    20458497.117    20458498.887    20458498.032    20458500.634        -709.356        -709.356        -552.789        -552.743        -529.718   107510185.554   107510185.554    83774184.549    83774185.547    80283608.053          50.810          45.810          49.500          45.810          54.370
R01  23717485.148    23717483.449    23717487.721    23717488.387        4064.639        4064.642        3160.729        3160.982   126783546.921   126783589.926    98609483.019    98609448.067          38.620          37.870          30.000          31.310
R02  21852599.195    21852599.790    21852603.195    21852603.124         935.407         935.445         727.507         727.533   116609688.312   116609758.318    90696432.096    90696448.095          48.930          48.870          45.370          45.680
R03  23562555.983    23562555.084    23562556.702    23562557.091       -2441.507       -2441.665       -1899.088       -1898.852   126132205.314   126132293.325    98102849.308    98102839.337          37.810          36.000          36.250          36.750
R10  21356572.667    21356572.318                                        2810.318        2810.292                                   113842625.648   113842608.650                                          47.250          47.180
R11  19370886.169    19370886.348    19370888.066    19370887.851        -527.100        -527.101        -409.971        -409.954   103512195.571   103512197.576    80509614.876    80509510.881          52.750          52.870          50.930          50.870
R12  22010746.346    22010746.583    22010749.655    22010750.152       -3270.284       -3270.303       -2543.526       -2543.566   117577476.257   117577466.265    91449174.899    91449173.894          48.810          48.180          44.810          44.560
R20  20765068.489    20765068.748    20765074.287    20765073.518        1591.212        1591.123        1237.535        1237.604   111040180.218   111040188.219    86364647.500    86364633.511          41.870          40.930          47.310          48.180
R21  20625621.205    20625621.442    20625623.608    20625623.836       -3052.827       -3052.855       -2374.397       -2374.371   110371898.937   110371899.938    85844837.392    85844834.393          51.810          51.930          47.370          47.500
R22  24002697.340                                                       -4755.032                                                   128128053.724                                                          29.560
> 2021 01 03 00 13 00.0000000  0 26
E02  25332851.100    25332854.708    25332855.357    25332850.266    25332851.483       -2060.541       -1538.674       -1672.613       -1578.890       -1558.786   133125056.267    99411606.405   108056076.464   102004933.571   100708275.564          46.000          46.620          47.560          48.180          50.430
E03  26351913.000    26351917.941    26351917.069    26351913.932    26351915.123        2559.820        1911.531        2077.745        1961.510        1936.516   138480278.278   103410625.475   112402846.445   106108271.035   104759459.831          41.560          43.620          44.810          46.060          47.930
E08  24138158.358    24138162.485    24138164.180    24138156.692    24138158.799         260.482         194.577         211.495         199.597         197.084   126846908.706    94723352.313   102960185.964    97194380.809    95958875.638          43.560          44.750          45.430          45.250          48.060
E11  23533831.411    23533832.382    23533832.234    23533828.408    23533829.264       -2345.220       -1751.283       -1903.617       -1797.022       -1774.174   123671141.996    92351857.685   100382433.391    94761006.472    93556428.153          42.680          42.370          44.310          44.500          46.500
E12  24032247.083    24032248.922    24032247.781    24032244.228    24032245.714         408.145         304.638         331.348         312.694         308.674   126290330.811    94307757.409   102508403.521    96767929.500    95537858.531          41.750          43.620          43.000          44.430          47.000
E24  25928959.360    25928963.595    25928962.598    25928958.678    25928959.533        2163.756        1615.745        1756.261        1657.939        1636.844   136257654.487   101750875.000   110598770.625   104405229.245   103078051.200          43.870          46.250          45.430          47.560          49.930
E25  23438357.855    23438362.755    23438360.431    23438357.960    23438359.298          29.576          22.069          23.993          22.670          22.376   123169449.229    91977233.393    99975243.732    94376611.843    93176930.195          48.680          52.000          53.120          53.680          55.870
G01  23713968.311    23713968.133    23713972.702    23713973.113    23713975.455       -3548.434       -3548.434       -2764.867       -2765.014       -2649.614   124617773.176   124617773.176    97104758.517    97104778.484    93058742.010          32.180          14.310          34.370          14.310          40.620
G07  20629928.511    20629928.109    20629926.002    20629925.743                        1320.052        1320.052        1028.623        1028.613                   108411044.259   108411044.259    84476167.518    84476151.503                          50.060          43.810          46.370          43.810
G08  21239501.286    21239500.656    21239502.551    21239501.965    21239503.319        1914.743        1914.743        1492.024        1492.006        1429.828   111614383.628   111614383.628    86972267.601    86972253.592    83348460.763          49.930          53.180          46.430          53.180          51.560
G11  21599114.883    21599114.204                    21599111.412                       -1633.165       -1633.165                       -1272.597                   113504147.027   113504147.027                    88444792.769                          49.250          37.750                          37.750
G13  22870418.192    22870417.754                    22870415.361                       -1850.128       -1850.128                       -1441.650                   120184866.936   120184866.936                    93650529.994                          45.000          28.680                          28.680
G14  21400321.445    21400321.186    21400320.349    21400320.268    21400326.725       -2151.122       -2151.122       -1676.145       -1676.198       -1606.372   112459475.770   112459475.770    87630778.060    87630786.058    83979519.465          48.060          39.180          46.370          39.180          50.560
G21  22925579.784    22925578.649                    22925578.572                       -1708.697       -1708.697                       -1331.444                   120474764.035   120474764.035                    93876441.590                          42.370          28.120                          28.120
G27  23999661.265    23999660.702    23999660.948    23999660.657    23999662.722        3618.536        3618.536        2819.658        2819.639        2702.244   126119141.045   126119141.045    98274674.716    98274673.711    94179935.011          41.370          39.060          39.370          39.060          41.500
G28  21948361.297    21948360.332                    21948358.591                       -2068.053       -2068.053                       -1611.473                   115339461.289   115339461.289                    89874905.849                          47.430          35.430                          35.430
G30  20454495.054    20454494.326    20454496.230    20454495.702    20454498.084        -693.085        -693.085        -540.071        -540.066        -517.569   107489151.598   107489151.598    83757794.466    83757795.455    80267900.885          50.810          46.000          49.310          46.000          54.310
R01  23740304.804    23740304.486    23740311.782    23740310.239        4068.860        4068.691        3164.521        3164.124   126905547.096   126905590.085    98704372.019    98704337.063          36.250          35.430          28.180          29.120
R02  21857932.120    21857932.182    21857935.024    21857935.256         961.378         961.414         747.850         747.696   116638141.252   116638211.257    90718562.183    90718578.160          49.250          48.680          45.120          45.560
R03  23548930.641    23548929.974    23548932.026    23548932.397       -2420.846       -2420.804       -1882.875       -1882.710   126059272.213   126059360.213    98046123.573    98046113.581          42.370          40.120          37.430          37.000
R10  21372416.882    21372416.940                                        2819.887        2819.885                                   113927081.693   113927064.701                                          48.310          48.180
R11  19367969.066    19367969.428    19367970.614    19367970.752        -512.290        -512.255        -398.423        -398.424   103496607.396   103496609.401    80497490.749    80497386.754          52.500          52.870          51.310          50.870
R12  21992393.207    21992393.636    21992395.326    21992394.968       -3266.133       -3266.087       -2540.448       -2540.318   117479432.270   117479422.285    91372918.459    91372917.477          50.060          49.250          44.060          44.370
R20  20774069.959    20774069.731    20774074.603    20774074.035        1617.421        1617.392        1258.031        1257.970   111088311.286   111088319.291    86402082.786    86402068.794          41.930          41.250          47.060          48.000
R21  20608564.733    20608565.167    20608567.797    20608567.918       -3032.091       -3032.092       -2358.251       -2358.290   110280626.563   110280627.570    85773847.803    85773844.804          52.180          52.000          48.120          48.180
R22  23975981.135    23975979.462                                       -4755.078       -4754.711                                   127985412.436   127985419.439                                          28.870          28.680
> 2021 01 03 00 13 30.0000000  0 26
E02  25321098.285    25321102.354    25321102.498    25321097.370    25321098.807       -2056.827       -1535.948       -1669.472       -1575.963       -1555.953   133063295.786    99365486.583   108005946.217   101957610.628   100661554.183          45.430          46.680          47.750          47.750          50.250
E03  26366548.424    26366553.329    26366551.836    26366549.267    26366550.059        2567.328        1917.046        2083.847        1967.108        1942.068   138557185.696   103468056.310   112465271.267   106167200.050   104817639.756          41.310          43.430          44.620          45.810          47.750
E08  24139689.075    24139692.518    24139694.629    24139687.516    24139688.858         275.507         205.621         223.584         211.024         208.332   126854948.671    94729356.169   102966711.889    97200541.302    95964957.813          44.310          44.930          46.000          45.810          48.370
E11  23520472.019    23520473.132    23520472.502    23520468.864    23520469.956       -2334.946       -1743.708       -1895.301       -1789.202       -1766.467   123600939.247    92299433.587   100325450.659    94707214.769    93503320.253          42.250          42.000          43.870          43.930          46.000
E12  24034620.630    24034622.566    24034621.359    24034618.441    24034619.193         423.496         316.258         343.811         324.419         320.309   126302804.083    94317071.881   102518527.937    96777486.938    95547294.484          41.430          43.060          43.310          44.500          46.810
E24  25941322.394    25941325.931    25941325.583    25941321.310    25941322.371        2167.400        1618.481        1759.220        1660.745        1639.610   136322621.341   101799389.201   110651503.442   104455009.034   103127198.193          43.870          45.870          45.810          47.120          49.560
E25  23438547.438    23438552.321    23438550.358    23438547.945    23438548.953          36.812          27.510          29.911          28.220          27.868   123170445.745    91977977.545    99976052.593    94377375.411    93177684.055          48.370          52.000          53.560          53.620          55.750
G01  23693730.592    23693730.414    23693732.819    23693733.029    23693735.237       -3542.325       -3542.325       -2760.714       -2760.252       -2645.302   124511415.358   124511415.358    97021882.317    97021902.335    92979318.955          34.310          16.120          34.500          16.120          40.000
G07  20637509.637    20637509.231    20637507.731    20637507.522                        1336.124        1336.124        1041.137        1041.138                   108450887.488   108450887.488    84507214.180    84507198.170                          48.750          43.250          46.180          43.250
G08  21250477.850    21250477.229    21250479.106    21250478.082    21250480.263        1930.731        1930.731        1504.475        1504.466        1441.806   111672066.600   111672066.600    87017215.371    87017201.368    83391535.725          49.310          52.620          46.500          52.620          51.680
G11  21589843.595    21589842.916                    21589840.947                       -1614.846       -1614.846                       -1258.318                   113455427.911   113455427.911                    88406829.839                          48.620          37.750                          37.750
G13  22859907.719    22859907.263                    22859905.456                       -1831.971       -1831.971                       -1427.510                   120129635.899   120129635.899                    93607492.831                          44.250          28.500                          28.500
G14  21388068.389    21388068.121    21388067.566    21388067.499    21388073.785       -2141.507       -2141.507       -1668.669       -1668.705       -1599.135   112395087.410   112395087.410    87580605.331    87580613.323    83931437.265          47.370          38.930          46.370          38.930          50.620
G21  22915867.867    22915866.718                    22915864.330                       -1694.147       -1694.147                       -1320.111                   120423721.727   120423721.727                    93836668.367                          44.120          29.370                          29.370
G27  24020334.247    24020333.684    24020335.114    24020334.917    24020337.769        3624.525        3624.525        2824.521        2824.303        2706.639   126227788.191   126227788.191    98359334.829    98359333.798    94261067.595          39.120          36.370          37.680          36.370          41.810
G28  21936577.356    21936576.390                    21936575.088                       -2060.209       -2060.209                       -1605.358                   115277538.873   115277538.873                    89826654.637                          46.560          34.750                          34.750
G30  20450585.658    20450584.925    20450586.163    20450586.163    20450588.581        -676.528        -676.528        -527.172        -527.164        -505.223   107468607.824   107468607.824    83741786.330    83741787.325    80252559.754          50.370          45.680          48.680          45.680          54.310
R01  23763149.662    23763150.377    23763154.198    23763155.369        4072.632        4072.725        3167.604        3168.366   127027667.197   127027710.224    98799354.377    98799319.397          36.560          36.250          29.310          29.250
R02  21863407.711    21863408.824    21863412.726    21863412.690         987.283         987.354         767.953         767.876   116667371.831   116667441.841    90741297.067    90741313.063          47.250          47.870          44.680          44.560
R03  23535419.808    23535421.211    23535425.857    23535425.817       -2399.748       -2399.802       -1866.328       -1866.532   125986965.104   125987053.122    97989884.741    97989874.714          41.310          41.250          40.310          39.250
R10  21388314.994    21388314.650                                        2829.519        2829.549                                   114011822.889   114011805.887                                          48.680          48.430
R11  19365135.394    19365135.882    19365137.246    19365137.358        -497.217        -497.249        -386.702        -386.688   103481465.949   103481467.949    80485714.064    80485610.072          52.430          52.810          51.500          51.060
R12  21974062.040    21974062.210    21974065.220    21974065.161       -3261.734       -3261.667       -2536.857       -2536.766   117381515.561   117381505.571    91296761.043    91296760.054          49.310          48.680          44.250          44.500
R20  20783218.018    20783218.058    20783223.203    20783222.635        1643.819        1643.779        1278.550        1278.481   111137230.464   111137238.468    86440131.058    86440117.056          42.180          41.370          47.620          48.370
R21  20591625.744    20591625.833    20591627.964    20591628.156       -3011.049       -3011.050       -2341.954       -2341.948   110189979.414   110189980.418    85703344.483    85703341.482          52.560          52.370          48.180          48.180
R22  23949263.579    23949263.069                                       -4753.831       -4754.063                                   127842792.038   127842799.048                                          30.810          28.180
> 2021 01 03 00 14 00.0000000  0 26
E02  25309366.523    25309370.645    25309371.196    25309365.747    25309367.112       -2052.871       -1532.962       -1666.289       -1572.975       -1552.978   133001645.512    99319449.067   107955905.425   101910372.120   100614916.169          45.560          46.680          47.810          48.000          50.370
E03  26381222.992    26381229.512    26381227.920    26381225.297    26381226.094        2574.687        1922.692        2089.830        1972.859        1947.774   138634309.936   103525649.073   112527872.091   106226295.212   104875983.718          39.560          42.750          44.120          45.560          47.250
E08  24141303.652    24141306.916    24141308.799    24141302.035    24141303.249         290.508         216.925         235.820         222.669         219.809   126863432.940    94735691.832   102973598.470    97207042.229    95971376.107          44.810          44.430          45.370          46.310          48.370
E11  23507171.289    23507171.933    23507171.544    23507168.045    23507168.949       -2324.425       -1735.732       -1886.707       -1781.045       -1758.381   123531042.241    92247237.784   100268716.087    94653657.336    93450443.636          42.870          41.750          43.560          44.250          46.120
E12  24037081.990    24037083.224    24037082.384    24037078.687    24037080.164         438.971         327.832         356.293         336.308         332.050   126315735.943    94326728.781   102529024.556    96787395.773    95557077.352          42.000          42.620          43.620          44.620          46.620
E24  25953704.630    25953709.151    25953708.588    25953704.168    25953705.107        2171.144        1621.281        1762.288        1663.575        1642.427   136387693.228   101847981.832   110704321.520   104504869.298   103176424.642          44.000          46.310          45.680          47.680          50.060
E25  23438778.160    23438782.628    23438780.477    23438778.395    23438779.322          44.259          33.047          35.892          33.895          33.470   123171656.444    91978881.643    99977035.302    94378303.089    93178599.942          49.060          51.870          53.120          53.870          55.930
G01  23673524.488    23673524.328    23673525.767    23673525.105    23673528.078       -3536.503       -3536.503       -2755.374       -2755.708       -2640.927   124405225.334   124405225.334    96939136.945    96939156.901    92900021.236          35.680          16.000          34.810          16.000          39.930
G07  20645182.767    20645182.361    20645180.996    20645180.352                        1352.286        1352.286        1053.718        1053.731                   108491208.059   108491208.059    84538632.801    84538616.797                          49.250          43.370          46.560          43.370
G08  21261544.659    21261544.017    21261545.947    21261545.218    21261547.153        1946.712        1946.712        1516.971        1516.919        1453.714   111730223.804   111730223.804    87062532.672    87062518.667    83434964.799          49.430          52.680          46.310          52.680          51.750
G11  21580676.657    21580675.978                    21580673.678                       -1596.311       -1596.311                       -1243.882                   113407255.004   113407255.004                    88369292.519                          48.750          37.680                          37.680
G13  22849501.167    22849500.716                    22849498.278                       -1813.672       -1813.672                       -1413.253                   120074946.511   120074946.511                    93564877.724                          44.930          28.180                          28.180
G14  21375870.210    21375869.938    21375869.047    21375868.595    21375875.620       -2131.738       -2131.738       -1661.075       -1661.094       -1591.859   112330983.947   112330983.947    87530654.580    87530662.583    83883567.804          47.810          38.930          46.180          38.930          50.810
G21  22906237.521    22906236.372                    22906234.396                       -1679.580       -1679.580                       -1308.758                   120373110.753   120373110.753                    93797231.254                          45.310          31.120                          31.120
G27  24041043.440    24041042.877    24041042.778    24041042.527    24041046.265        3630.589        3630.589        2829.226        2829.026        2711.047   126336611.538   126336611.538    98444132.223    98444131.216    94342331.783          40.250          35.750          36.000          35.750          41.870
G28  21924839.082    21924838.117                    21924835.988                       -2052.093       -2052.093                       -1599.029                   115215849.327   115215849.327                    89778584.871                          47.250          35.370                          35.370
G30  20446769.946    20446769.213    20446770.366    20446769.919    20446772.686        -659.819        -659.819        -514.192        -514.143        -492.724   107448555.556   107448555.556    83726161.184    83726162.181    80237585.661          50.750          45.620          48.620          45.620          54.180
R01  23786018.103    23786017.056    23786022.840    23786023.117        4076.680        4076.739        3170.878        3170.711   127149903.028   127149946.039    98894426.671    98894391.670          37.680          36.620          31.500          31.750
R02  21869031.921    21869032.190    21869035.657    21869035.921        1013.449        1013.368         788.287         788.148   116697378.313   116697448.326    90764635.468    90764651.461          48.310          48.060          44.250          44.500
R03  23522035.007    23522035.146    23522034.515    23522035.248       -2378.510       -2378.446       -1849.953       -1849.792   125915287.145   125915375.138    97934135.215    97934125.225          44.000          42.500          38.500          38.310
R10  21404264.538    21404264.413                                        2839.242        2839.231                                   114096848.542   114096831.546                                          47.930          48.000
R11  19362385.494    19362385.852    19362387.512    19362387.337        -482.035        -482.029        -374.886        -374.922   103466772.211   103466774.212    80474285.607    80474181.613          52.310          52.680          50.930          50.680
R12  21955754.672    21955755.084    21955758.021    21955758.571       -3257.129       -3257.148       -2533.354       -2533.483   117283727.597   117283717.600    91220703.762    91220702.760          48.060          47.810          43.370          44.000
R20  20792513.394    20792513.131    20792517.654    20792517.234        1670.258        1670.230        1299.033        1298.988   111186935.683   111186943.688    86478790.652    86478776.653          42.180          41.180          47.000          48.180
R21  20574802.901    20574803.334    20574805.791    20574805.880       -2989.864       -2989.829       -2325.425       -2325.443   110099960.942   110099961.945    85633330.133    85633327.139          52.000          52.000          48.180          48.430
R22  23922548.071    23922549.721                                       -4752.607       -4751.972                                   127700196.173   127700203.228                                          27.180          27.000
> 2021 01 03 00 14 30.0000000  0 26
E02  25297655.339    25297659.877    25297660.397    25297654.961    25297656.370       -2049.414       -1530.367       -1663.514       -1570.335       -1550.352   132940105.392    99273493.791   107905954.032   101863218.002   100568361.473          45.060          46.870          47.870          47.810          50.310
E03  26395941.016    26395946.637    26395944.956    26395941.599    26395943.201        2581.599        1927.755        2095.452        1978.031        1952.898   138711648.649   103583401.983   112590647.011   106285554.728   104934489.933          41.060          42.930          44.250          44.560          46.750
E08  24143002.051    24143005.109    24143006.223    24143000.492    24143002.094         305.100         227.725         247.566         233.737         230.746   126872360.835    94742358.759   102980845.146    97213883.069    95978129.991          44.250          44.250          44.430          45.870          48.120
E11  23493928.141    23493929.536    23493929.903    23493925.804    23493926.440       -2314.496       -1728.437       -1878.667       -1773.393       -1750.886   123461452.297    92195271.271   100212230.744    94600335.183    93397799.303          42.310          42.120          44.500          44.560          46.430
E12  24039629.768    24039631.029    24039630.359    24039626.824    24039628.175         454.048         339.097         368.512         347.923         343.508   126329125.527    94336727.494   102539892.741    96797655.336    95567206.491          41.930          42.560          43.560          44.560          46.620
E24  25966107.646    25966111.478    25966111.188    25966106.503    25966107.868        2174.328        1623.716        1764.894        1666.034        1644.870   136452869.433   101896652.350   110757224.286   104554809.496   103225730.000          44.370          46.500          45.750          47.560          50.060
E25  23439048.908    23439053.840    23439051.668    23439049.116    23439050.383          51.133          38.149          41.513          39.175          38.666   123173080.958    91979945.404    99978191.572    94379394.601    93179677.579          48.750          52.000          53.310          53.560          55.810
G01  23653348.791    23653348.626    23653350.695    23653350.396    23653353.007       -3530.977       -3530.977       -2751.496       -2751.426       -2636.813   124299206.324   124299206.324    96856524.686    96856544.705    92820851.217          34.810          17.310          36.120          17.310          40.810
G07  20652946.340    20652945.929    20652944.622    20652944.148                        1367.907        1367.907        1065.894        1065.899                   108532005.484   108532005.484    84570423.004    84570407.000                          49.180          43.680          46.560          43.680
G08  21272701.702    21272701.059    21272702.703    21272701.805    21272704.165        1962.227        1962.227        1529.058        1529.010        1465.301   111788852.788   111788852.788    87108217.599    87108203.599    83478746.187          49.560          52.750          46.000          52.750          51.750
G11  21571614.006    21571613.318                    21571610.867                       -1578.232       -1578.232                       -1229.793                   113359629.996   113359629.996                    88332182.125                          49.000          38.060                          38.060
G13  22839197.480    22839197.011                    22839194.134                       -1795.766       -1795.766                       -1399.305                   120020799.972   120020799.972                    93522685.635                          45.120          28.620                          28.620
G14  21363725.775    21363725.498    21363724.603    21363724.393    21363731.493       -2122.452       -2122.452       -1653.865       -1653.861       -1584.928   112267165.682   112267165.682    87480926.080    87480934.074    83835911.326          47.560          39.250          46.120          39.250          50.870
G21  22896688.269    22896687.102                    22896686.439                       -1665.385       -1665.385                       -1297.703                   120322932.276   120322932.276                    93758131.175                          44.500          31.430                          31.430
G27  24061784.248    24061783.685    24061784.171    24061783.156    24061787.376        3636.198        3636.198        2833.630        2833.402        2715.360   126445608.135   126445608.135    98529064.675    98529063.644    94423725.372          39.430          35.310          35.870          35.310          41.310
G28  21913143.433    21913142.486                    21913141.206                       -2044.654       -2044.654                       -1593.240                   115154392.391   115154392.391                    89730696.361                          46.750          35.370                          35.370
G30  20443048.063    20443047.326    20443048.684    20443048.094    20443050.637        -643.695        -643.695        -501.611        -501.579        -480.695   107428995.529   107428995.529    83710919.621    83710920.611    80222979.159          50.870          46.250          49.250          46.250          54.310
R01  23808905.003    23808904.690    23808909.942    23808910.648        4080.197        4080.099        3173.303        3173.323   127272249.638   127272292.632    98989585.065    98989550.070          37.060          36.750          32.000          32.500
R02  21874800.932    21874801.178    21874804.010    21874804.363        1038.883        1038.922         808.044         807.924   116728157.599   116728227.613    90788574.904    90788590.901          49.180          48.810          44.430          44.560
R03  23508761.787    23508762.038    23508762.506    23508762.761       -2357.493       -2357.541       -1833.840       -1833.547   125844240.995   125844329.006    97878877.081    97878867.107          43.930          42.430          37.810          38.250
R10  21420267.465    21420267.769                                        2848.451        2848.457                                   114182157.798   114182140.806                                          46.930          47.310
R11  19359719.794    19359719.987    19359721.562    19359721.750        -467.283        -467.300        -363.450        -363.439   103452526.904   103452528.909    80463205.928    80463101.937          52.310          52.680          51.120          51.120
R12  21937473.056    21937473.623    21937477.567    21937477.545       -3253.037       -3253.005       -2530.114       -2530.107   117186069.541   117186059.549    91144747.552    91144746.554          48.430          48.310          44.810          44.500
R20  20801954.170    20801953.978    20801959.669    20801958.873        1696.120        1696.042        1319.106        1319.050   111237423.643   111237431.661    86518059.100    86518045.097          41.680          41.000          47.500          48.060
R21  20558099.043    20558099.298    20558102.264    20558102.166       -2968.938       -2968.903       -2309.162       -2309.135   110010574.739   110010575.745    85563807.566    85563804.571          51.870          51.870          48.500          48.750
R22  23895841.135    23895840.527                                       -4751.595       -4751.927                                   127557628.093   127557635.077                                          27.750          27.750
> 2021 01 03 00 15 00.0000000  0 26
E02  25285966.661    25285970.725    25285970.614    25285965.245    25285966.731       -2045.763       -1527.678       -1660.575       -1567.556       -1547.621   132878676.204    99227621.362   107856092.701   101816148.902   100521890.709          46.180          46.870          47.810          47.810          50.310
E03  26410699.248    26410704.315    26410702.536    26410699.161    26410700.902        2588.522        1932.996        2101.148        1983.411        1958.208   138789200.387   103641314.007   112653594.855   106344977.509   104993157.335          41.750          43.060          44.560          44.560          46.810
E08  24144785.718    24144788.504    24144789.935    24144784.102    24144785.413         319.940         238.794         259.633         245.079         241.939   126881732.491    94749357.080   102988452.009    97221063.950    95985219.591          44.500          44.180          44.620          45.930          48.060
E11  23480744.035    23480745.913    23480746.070    23480741.543    23480742.876       -2304.150       -1720.699       -1870.289       -1765.496       -1743.110   123392171.655    92143535.726   100155996.470    94547250.023    93345388.951          42.250          42.250          44.620          44.430          46.370
E12  24042264.779    24042266.456    24042265.142    24042262.202    24042263.245         469.204         350.379         380.771         359.577         354.996   126342972.878    94347068.062   102551132.490    96808265.663    95577681.940          42.060          42.810          43.370          44.750          46.810
E24  25978530.104    25978533.449    25978533.623    25978528.599    25978530.550        2177.729        1626.210        1767.644        1668.703        1647.468   136518150.182   101945400.935   110810211.892   104604829.800   103275114.445          44.000          46.060          45.810          47.310          49.680
E25  23439360.545    23439365.732    23439363.903    23439360.837    23439362.274          58.211          43.430          47.232          44.600          44.013   123174719.831    91981169.234    99979521.823    94380650.358    93180917.373          48.620          51.930          53.560          53.620          55.750
G01  23633207.525    23633207.347    23633210.078    23633209.390    23633210.037       -3525.186       -3525.186       -2746.844       -2746.922       -2632.452   124193362.054   124193362.054    96774048.706    96774068.681    92741811.745          36.000          18.120          36.750          18.120          40.430
G07  20660800.333    20660799.914    20660798.500    20660798.375                        1383.758        1383.758        1078.277        1078.250                   108573279.785   108573279.785    84602584.795    84602568.785                          48.560          43.620          46.500          43.620
G08  21283947.971    21283947.333    21283948.990    21283948.119    21283950.036        1977.774        1977.774        1541.098        1541.123        1476.905   111847951.816   111847951.816    87154268.784    87154254.782    83522878.570          49.680          53.000          46.500          53.000          51.680
G11  21562656.139    21562655.446                    21562653.111                       -1559.946       -1559.946                       -1215.545                   113312555.090   113312555.090                    88295500.396                          48.810          38.560                          38.560
G13  22828996.931    22828996.493                    22828994.082                       -1777.534       -1777.534                       -1385.092                   119967198.897   119967198.897                    93480918.553                          43.930          28.430                          28.430
G14  21351636.131    21351635.854    21351635.236    21351634.968    21351641.831       -2112.979       -2112.979       -1646.411       -1646.477       -1577.837   112203633.836   112203633.836    87431420.764    87431428.756    83788468.732          47.310          39.620          46.750          39.620          51.000
G21  22887221.477    22887220.337                    22887220.023                       -1650.802       -1650.802                       -1286.345                   120273188.813   120273188.813                    93719370.077                          42.930          30.060                          30.060
G27  24082559.200    24082558.659    24082558.587    24082557.751    24082561.596        3641.751        3641.751        2837.669        2837.728        2719.571   126554775.835   126554775.835    98614130.372    98614129.383    94505246.696          40.750          36.370          36.120          36.370          41.250
G28  21901493.443    21901492.496                    21901490.254                       -2036.872       -2036.872                       -1587.169                   115093168.987   115093168.987                    89682989.830                          46.810          35.430                          35.430
G30  20439420.016    20439419.283    20439420.597    20439420.164    20439422.599        -627.274        -627.274        -488.805        -488.784        -468.434   107409929.483   107409929.483    83696062.957    83696063.950    80208741.521          50.750          46.370          49.500          46.370          54.370
R01  23831813.357    23831813.009    23831817.286    23831819.083        4083.264        4083.592        3176.295        3176.217   127394703.176   127394746.194    99084826.678    99084791.688          36.120          35.870          32.180          32.620
R02  21880713.293    21880713.477    21880715.893    21880716.215        1064.572        1064.525         828.068         827.902   116759709.462   116759779.467    90813115.194    90813131.181          49.120          48.870          43.180          44.000
R03  23495605.862    23495606.108    23495609.797    23495608.857       -2336.365       -2336.593       -1817.308       -1817.234   125773830.488   125773918.464    97824113.299    97824103.323          39.620          39.680          38.180          36.870
R10  21436325.974    21436325.822                                        2857.818        2857.841                                   114267749.815   114267732.823                                          48.870          48.370
R11  19357138.657    19357139.002    19357139.969    19357139.826        -452.365        -452.352        -351.821        -351.793   103438731.546   103438733.555    80452476.205    80452372.216          52.870          53.180          51.000          50.930
R12  21919216.856    21919217.532    21919219.575    21919219.503       -3248.650       -3248.660       -2526.625       -2526.765   117088543.311   117088533.327    91068893.849    91068892.838          49.430          48.930          43.250          44.000
R20  20811542.366    20811542.317    20811546.886    20811546.385        1721.889        1721.913        1339.299        1339.281   111288692.158   111288700.164    86557934.598    86557920.595          42.120          41.310          47.180          48.120
R21  20541514.233    20541514.341    20541516.457    20541516.793       -2947.698       -2947.692       -2292.651       -2292.638   109921824.564   109921825.571    85494779.690    85494776.688          52.180          52.250          48.180          48.430
R22  23869141.229    23869138.694                                       -4750.588       -4750.966                                   127415092.025   127415099.027                                          30.620          28.500
> 2021 01 03 00 15 30.0000000  0 26
E02  25274297.483    25274301.660    25274301.848    25274296.993    25274298.170       -2041.943       -1524.866       -1657.468       -1564.612       -1544.734   132817357.864    99181831.699   107806321.316   101769164.720   100475503.786          45.370          46.560          47.430          48.060          50.310
E03  26425496.093    26425501.840    26425500.190    26425496.811    26425498.717        2595.601        1938.304        2106.886        1988.938        1963.626   138866962.784   103699383.308   112716713.661   106404561.679   105051984.070          40.930          43.000          44.310          44.620          46.810
E08  24146653.175    24146656.704    24146658.859    24146651.514    24146653.111         334.559         249.905         271.600         256.424         253.164   126891547.079    94756686.158   102996418.385    97228584.223    95992644.266          44.000          44.560          45.680          45.680          48.120
E11  23467620.293    23467621.384    23467620.271    23467616.883    23467618.320       -2293.617       -1712.731       -1861.715       -1757.441       -1735.086   123323201.548    92092032.094   100100014.246    94494402.808    93293213.527          42.750          42.430          44.180          44.430          46.500
E12  24044986.491    24044988.266    24044987.417    24044984.038    24044985.179         484.504         361.903         393.262         371.345         366.618   126357277.072    94357749.778   102562743.053    96819226.023    95588502.977          41.810          42.680          43.370          44.930          46.930
E24  25990972.479    25990976.042    25990976.222    25990971.009    25990972.827        2181.228        1628.954        1770.569        1671.483        1650.227   136583534.707   101994227.050   110863283.761   104654929.646   103324577.426          44.060          45.620          46.120          47.250          49.430
E25  23439713.136    23439718.145    23439715.900    23439713.434    23439714.866          65.471          48.898          53.127          50.127          49.509   123176572.641    91982552.835    99981025.726    94382070.052    93182319.020          48.560          51.930          53.250          53.500          55.750
G01  23613100.472    23613100.271    23613100.687    23613101.764    23613101.937       -3518.890       -3518.890       -2742.157       -2741.975       -2628.057   124087695.547   124087695.547    96691711.263    96691731.214    92662904.988          38.560          18.680          34.000          18.680          39.250
G07  20668745.030    20668744.619    20668743.451    20668743.075                        1399.746        1399.746        1090.709        1090.712                   108615030.202   108615030.202    84635117.576    84635101.571                          48.810          43.500          46.560          43.500
G08  21295282.904    21295282.265    21295283.481    21295283.096    21295284.911        1993.418        1993.418        1553.286        1553.311        1488.613   111907517.985   111907517.985    87200683.975    87200669.980    83567359.812          49.560          52.500          46.060          52.500          51.620
G11  21553802.639    21553801.933                    21553800.470                       -1541.413       -1541.413                       -1201.098                   113266031.834   113266031.834                    88259248.514                          48.680          38.750                          38.750
G13  22818900.637    22818900.187                    22818898.858                       -1759.179       -1759.179                       -1370.796                   119914144.752   119914144.752                    93439577.670                          43.120          28.310                          28.310
G14  21339601.076    21339600.799    21339599.784    21339599.784    21339606.580       -2103.231       -2103.231       -1638.943       -1638.880       -1570.594   112140388.621   112140388.621    87382138.789    87382146.782    83741240.173          47.750          39.310          46.500          39.310          51.120
G21  22877839.472    22877838.310                    22877836.529                       -1636.192       -1636.192                       -1274.958                   120223882.273   120223882.273                    93680949.406                          44.310          29.870                          29.870
G27  24103365.468    24103364.927    24103365.105    24103364.886    24103367.904        3647.483        3647.483        2842.185        2842.195        2723.841   126664111.536   126664111.536    98699327.059    98699326.054    94586893.516          40.620          37.250          38.180          37.250          41.810
G28  21889887.561    21889886.609                    21889884.494                       -2028.980       -2028.980                       -1581.018                   115032178.915   115032178.915                    89635465.122                          47.250          35.560                          35.560
G30  20435885.436    20435884.712    20435886.459    20435885.927    20435888.337        -610.600        -610.600        -475.806        -475.790        -456.000   107391358.105   107391358.105    83681591.757    83681592.754    80194873.296          50.620          45.930          49.620          45.930          54.310
R01  23854738.016    23854738.664    23854742.740    23854744.037        4086.864        4086.947        3179.106        3178.718   127517259.045   127517302.059    99180147.925    99180112.906          38.120          36.560          31.120          32.120
R02  21886770.696    21886770.862    21886774.110    21886774.316        1090.360        1090.358         848.106         848.157   116792031.031   116792101.043    90838254.204    90838270.213          49.430          48.930          44.620          44.250
R03  23482572.670    23482574.754    23482575.146    23482574.435       -2314.936       -2315.025       -1800.459       -1800.427   125704057.849   125704145.872    97769845.837    97769835.838          39.810          38.430          37.870          38.060
R10  21452435.889    21452435.866                                        2867.263        2867.222                                   114353623.746   114353606.753                                          49.310          48.870
R11  19354640.908    19354641.060    19354642.747    19354642.859        -437.174        -437.171        -340.010        -339.961   103425386.750   103425388.755    80442096.913    80441992.928          52.560          52.750          51.310          51.120
R12  21900983.927    21900984.473    21900988.703    21900988.452       -3244.107       -3244.108       -2523.161       -2523.099   116991150.028   116991140.035    90993143.528    90993142.542          48.750          48.370          46.000          44.930
R20  20821274.817    20821275.175    20821279.654    20821279.136        1747.923        1747.936        1359.507        1359.480   111340738.069   111340746.083    86598414.757    86598400.761          42.120          41.060          46.870          48.120
R21  20525048.172    20525048.538    20525051.004    20525051.169       -2926.232       -2926.202       -2275.938       -2275.878   109833713.587   109833714.597    85426248.926    85426245.938          52.370          52.370          48.560          48.560
R22  23842446.854    23842445.280                                       -4749.403       -4749.081                                   127272591.336   127272598.389                                          30.370          27.250
> 2021 01 03 00 16 00.0000000  0 27
E02  25262650.628    25262654.062    25262654.974    25262649.512    25262650.881       -2038.207       -1522.061       -1654.453       -1561.807       -1541.943   132756150.796    99136125.141   107756640.272   101722265.816   100429201.055          46.000          46.500          48.060          47.810          50.250
E03  26440334.279    26440339.256    26440338.237    26440334.218    26440336.071        2602.607        1943.551        2112.483        1994.227        1968.881   138944934.015   103757608.574   112780001.986   106464305.847   105110968.787          41.370          42.870          44.250          44.250          46.620
E07                  28392081.317                                                                       -1474.299                                                                   111416626.842                                                                          31.310
E08  24148604.998    24148608.853    24148610.302    24148603.569    24148605.096         349.534         260.981         283.662         267.753         264.359   126901804.414    94764345.843   103004744.121    97236443.738    96000403.867          43.620          44.620          45.620          45.620          48.120
E11  23454555.214    23454555.853    23454556.309    23454551.772    23454553.138       -2283.306       -1705.020       -1853.380       -1749.461       -1727.243   123254543.879    92040761.766   100044285.623    94441794.988    93241274.452          42.560          42.370          44.620          44.000          46.250
E12  24047795.273    24047796.933    24047796.021    24047792.646    24047794.011         499.690         373.222         405.600         383.006         378.107   126372037.771    94368772.385   102574724.129    96830536.159    95599669.348          41.370          43.180          43.060          44.060          46.620
E24  26003434.372    26003437.690    26003437.878    26003433.185    26003434.697        2184.798        1631.544        1773.293        1674.064        1652.803   136649022.934   102043130.574   110916439.755   104705108.895   103374118.811          44.250          45.250          45.870          47.060          49.250
E25  23440106.527    23440111.549    23440109.309    23440106.699    23440108.176          72.662          54.248          58.963          55.646          54.952   123178639.607    91984096.348    99982703.462    94383653.830    93183882.666          48.310          52.060          53.310          53.120          55.620
G01  23593027.126    23593026.934    23593028.154    23593028.024    23593029.786       -3513.057       -3513.057       -2737.365       -2737.441       -2623.336   123982210.411   123982210.411    96609515.039    96609534.998    92584133.638          39.430          20.500          35.750          20.500          41.680
G07  20676780.433    20676780.027    20676778.827    20676778.649                        1415.588        1415.588        1103.112        1103.056                   108657256.452   108657256.452    84668021.147    84668005.137                          49.120          43.810          46.500          43.810
G08  21306706.536    21306705.902    21306707.850    21306706.424    21306708.480        2008.919        2008.919        1565.400        1565.392        1500.151   111967549.285   111967549.285    87247461.644    87247447.631    83612188.394          49.750          52.750          46.500          52.750          51.620
G11  21545054.956    21545054.246                    21545052.313                       -1522.947       -1522.947                       -1186.710                   113220062.011   113220062.011                    88223427.872                          49.060          38.180                          38.180
G13  22808909.240    22808908.793                    22808907.960                       -1740.867       -1740.867                       -1356.513                   119861639.323   119861639.323                    93398664.354                          43.310          28.810                          28.810
G14  21327620.697    21327620.420    21327619.386    21327618.916    21327625.931       -2093.673       -2093.673       -1631.415       -1631.433       -1563.417   112077430.909   112077430.909    87333080.832    87333088.832    83694226.313          48.180          39.560          46.310          39.560          50.930
G21  22868540.420    22868539.249                    22868537.848                       -1621.418       -1621.418                       -1263.440                   120175014.652   120175014.652                    93642870.748                          44.930          31.000                          31.000
G27  24124202.397    24124201.830    24124202.893    24124202.915    24124205.079        3652.875        3652.875        2846.281        2846.404        2727.766   126773612.814   126773612.814    98784652.723    98784651.728    94668663.940          40.620          36.560          37.310          36.560          41.430
G28  21878325.269    21878324.313                    21878323.386                       -2021.154       -2021.154                       -1574.926                   114971422.585   114971422.585                    89588122.519                          46.750          35.870                          35.870
G30  20432445.828    20432445.109    20432447.048    20432446.458    20432448.783        -594.082        -594.082        -462.931        -462.920        -443.631   107373282.680   107373282.680    83667507.006    83667508.006    80181375.414          51.000          46.310          49.560          46.310          54.310
R01  23877684.983    23877684.568    23877688.482    23877689.247        4090.185        4090.073        3181.656        3181.479   127639912.887   127639955.900    99275545.303    99275510.280          38.620          37.500          32.250          32.370
R02  21892971.509    21892971.764    21892974.811    21892974.905        1115.838        1115.831         867.957         867.918   116825120.209   116825190.216    90863990.222    90864006.220          49.310          48.560          44.370          44.310
R03  23469657.126    23469656.702    23469661.127    23469660.256       -2293.644       -2293.541       -1783.922       -1783.876   125634926.544   125635014.577    97716077.031    97716067.027          38.750          37.680          37.680          37.620
R10  21468596.923    21468596.985                                        2876.622        2876.624                                   114439778.373   114439761.376                                          48.000          48.120
R11  19352228.387    19352228.660    19352229.703    19352229.859        -422.073        -422.013        -328.281        -328.280   103412493.724   103412495.731    80432069.019    80431965.024          52.750          53.060          51.060          51.250
R12  21882776.526    21882776.786    21882780.676    21882780.796       -3239.591       -3239.572       -2519.637       -2519.679   116893891.426   116893881.440    90917497.988    90917496.985          48.000          48.060          44.500          44.560
R20  20831153.405    20831153.526    20831157.630    20831157.164        1773.663        1773.731        1379.603        1379.597   111393558.617   111393566.635    86639497.406    86639483.412          43.000          41.560          47.750          48.120
R21  20508703.609    20508703.358    20508705.350    20508705.373       -2904.628       -2904.678       -2259.239       -2259.262   109746245.492   109746246.497    85358218.206    85358215.210          51.930          52.000          48.250          48.180
R22                  23815755.211                                                       -4747.833                                                                                                                          26.620
> 2021 01 03 00 16 30.0000000  0 26
E02  25251024.467    25251028.062    25251028.505    25251023.606    25251024.940       -2035.013       -1519.610       -1651.780       -1559.214       -1539.415   132695055.631    99090502.141   107707050.053   101675452.663   100382982.978          45.500          46.430          48.000          48.560          50.560
E03  26455211.313    26455216.241    26455214.578    26455211.011    26455212.896        2609.107        1948.423        2117.734        1999.176        1973.789   139023112.387   103815988.527   112843458.466   106524208.759   105170110.221          41.370          42.870          44.180          44.750          46.810
E07                  28380839.425    28380841.094    28380835.121                                       -1466.729       -1594.294       -1504.677                                   111372512.595   121057073.607   114277863.483                                          31.560          33.620          33.000
E08  24150640.883    24150644.479    24150646.952    24150640.277    24150641.276         363.716         271.678         295.202         278.736         275.201   126912504.350    94772336.063   103013429.153    97244642.403    96008498.308          42.870          44.120          45.560          46.620          48.430
E11  23441550.032    23441550.407    23441550.515    23441546.626    23441547.678       -2273.135       -1697.413       -1845.073       -1741.723       -1719.572   123186200.592    91989726.230    99988812.198    94389428.077    93189573.230          42.430          42.430          44.430          44.370          46.500
E12  24050691.691    24050693.216    24050691.562    24050687.888    24050689.575         514.589         384.281         417.574         394.220         389.240   126387254.715    94380135.694   102587075.538    96842195.888    95611180.866          41.250          43.430          43.250          44.250          46.810
E24  26015916.607    26015919.612    26015919.558    26015914.704    26015916.351        2187.874        1633.747        1775.780        1676.431        1655.095   136714614.783   102092111.496   110969679.879   104755367.574   103423738.611          43.750          44.810          45.930          47.180          49.060
E25  23440540.905    23440545.618    23440543.566    23440540.908    23440542.308          79.311          59.226          64.368          60.760          59.992   123180921.017    91985800.003    99984555.257    94385401.929    93185608.542          48.310          51.870          53.430          53.620          55.810
G01  23572988.099    23572987.881    23572990.076    23572990.308    23572992.860       -3506.564       -3506.564       -2733.004       -2732.393       -2618.948   123876910.281   123876910.281    96527463.010    96527483.016    92505500.470          36.560          18.750          36.000          18.750          43.180
G07  20684906.270    20684905.859    20684904.575    20684904.651                        1430.982        1430.982        1115.166        1115.053                   108699958.414   108699958.414    84701295.400    84701279.388                          48.620          43.500          46.370          43.500
G08  21318217.772    21318217.138    21318219.479    21318218.688    21318220.319        2023.847        2023.847        1576.944        1577.024        1511.309   112028043.509   112028043.509    87294599.981    87294585.981    83657362.650          48.930          52.620          46.560          52.620          51.810
G11  21536412.785    21536412.071                    21536409.851                       -1504.849       -1504.849                       -1172.607                   113174647.840   113174647.840                    88188040.237                          48.430          37.560                          37.560
G13  22799023.828    22799023.417                    22799020.747                       -1722.962       -1722.962                       -1342.572                   119809684.818   119809684.818                    93358180.335                          44.500          28.680                          28.680
G14  21315695.268    21315694.991    21315693.846    21315693.466    21315700.414       -2084.442       -2084.442       -1624.220       -1624.241       -1556.570   112014761.653   112014761.653    87284247.675    87284255.665    83647427.859          48.250          39.500          46.500          39.500          51.120
G21  22859325.256    22859324.094                    22859322.885                       -1607.150       -1607.150                       -1252.321                   120126588.048   120126588.048                    93605135.720                          43.930          29.750                          29.750
G27  24145070.955    24145070.355    24145071.710    24145071.741    24145073.288        3657.783        3657.783        2850.386        2850.220        2731.507   126883277.318   126883277.318    98870105.592    98870104.585    94750556.259          40.060          36.500          38.680          36.500          42.250
G28  21866808.498    21866807.546                    21866806.356                       -2013.785       -2013.785                       -1569.181                   114910900.402   114910900.402                    89540962.387                          46.560          35.370                          35.370
G30  20429101.600    20429100.885    20429101.743    20429101.380    20429103.960        -577.948        -577.948        -450.381        -450.350        -431.597   107355704.619   107355704.619    83653809.818    83653810.814    80168248.939          51.120          46.250          49.310          46.250          54.500
R01  23900646.757    23900647.092    23900651.842    23900653.055        4092.842        4092.776        3183.319        3183.221   127762660.766   127762703.768    99371015.851    99370980.824          38.000          37.000          32.500          32.250
R02  21899315.042    21899315.261    21899319.758    21899319.699        1141.019        1140.959         887.461         887.483   116858975.245   116859045.243    90890321.906    90890337.912          48.250          48.060          44.680          44.310
R03  23456865.867    23456866.126    23456865.432    23456865.352       -2272.360       -2272.492       -1767.456       -1767.464   125566439.800   125566527.778    97662809.515    97662799.511          40.680          39.680          35.680          36.560
R10  21484812.381    21484812.354                                        2885.533        2885.544                                   114526213.256   114526196.254                                          48.180          48.120
R11  19349900.161    19349900.617    19349902.053    19349902.107        -407.438        -407.448        -316.927        -316.850   103400053.810   103400055.812    80422393.533    80422289.540          52.750          53.000          51.000          51.250
R12  21864594.936    21864595.495    21864599.206    21864599.309       -3235.373       -3235.408       -2516.393       -2516.411   116796769.179   116796759.198    90841958.465    90841957.464          48.310          48.250          44.310          44.370
R20  20841174.437    20841174.598    20841179.685    20841179.032        1798.978        1798.886        1399.251        1399.234   111447151.420   111447159.436    86681180.705    86681166.710          42.120          41.250          47.430          47.870
R21  20492478.805    20492478.590    20492480.774    20492480.815       -2883.539       -2883.541       -2242.802       -2242.670   109659423.894   109659424.904    85290690.340    85290687.337          52.310          52.250          48.120          47.870
> 2021 01 03 00 17 00.0000000  0 27
E02  25239419.918    25239423.737    25239423.952    25239418.566    25239420.252       -2030.964       -1516.629       -1648.422       -1556.159       -1536.388   132634072.599    99044962.877   107657550.849   101628725.415   100336849.723          46.250          46.750          48.120          48.310          50.560
E03  26470126.182    26470131.517    26470130.995    26470127.477    26470128.761        2616.111        1953.641        2123.452        2004.533        1979.091   139101495.856   103874521.636   112907081.415   106584268.806   105229406.797          40.680          42.750          44.560          44.680          46.750
E07                  28369657.199    28369658.643    28369650.936    28369655.020                       -1458.302       -1585.589       -1496.552       -1477.382                   111328634.058   121009379.596   114232840.277   112780746.247                          32.810          32.430          31.060          34.870
E08  24152761.372    24152764.122    24152766.215    24152760.314    24152761.531         378.659         282.795         307.360         290.167         286.490   126923646.402    94780656.445   103022473.063    97253179.836    96016927.218          43.370          43.560          45.000          46.680          48.310
E11  23428604.841    23428605.395    23428604.939    23428601.583    23428602.514       -2262.375       -1689.404       -1836.398       -1733.580       -1711.498   123118173.269    91938926.626    99933595.225    94337303.256    93138111.015          43.180          42.620          43.870          44.620          46.680
E12  24053673.083    24053675.770    24053674.116    24053671.086    24053672.004         529.842         395.759         430.158         406.069         400.902   126402927.277    94391839.241   102599796.787    96854204.761    95623037.077          41.310          43.430          43.430          44.750          47.060
E24  26028417.385    26028420.659    26028421.111    26028416.426    26028417.648        2191.481        1636.482        1778.834        1679.302        1657.903   136780309.903   102141169.540   111023003.855   104805705.393   103473436.543          44.000          44.430          45.810          46.870          48.750
E25  23441015.684    23441020.518    23441018.346    23441015.888    23441017.235          86.740          64.766          70.379          66.469          65.625   123183416.822    91987663.755    99986581.075    94387314.299    93187496.604          48.680          52.000          53.250          53.500          55.810
G01  23552985.695    23552985.531    23552988.906    23552988.208    23552990.859       -3500.600       -3500.600       -2727.770       -2727.739       -2614.100   123771798.611   123771798.611    96445557.803    96445577.794    92427008.003          37.870          19.180          35.370          19.180          42.930
G07  20693123.189    20693122.783    20693120.707    20693120.542                        1447.030        1447.030        1127.610        1127.557                   108743135.593   108743135.593    84734939.954    84734923.948                          49.370          43.310          46.060          43.310
G08  21329817.442    21329816.803    21329818.350    21329817.809    21329819.887        2039.476        2039.476        1589.183        1589.202        1522.950   112088998.387   112088998.387    87342097.306    87342083.296    83702880.909          49.250          52.500          46.000          52.500          51.750
G11  21527876.606    21527875.900                    21527873.708                       -1485.956       -1485.956                       -1157.890                   113129790.716   113129790.716                    88153086.646                          48.560          37.870                          37.870
G13  22789242.159    22789241.712                    22789239.265                       -1704.228       -1704.228                       -1327.972                   119758283.308   119758283.308                    93318127.228                          44.750          28.930                          28.930
G14  21303824.881    21303824.609    21303823.306    21303822.860    21303829.740       -2074.541       -2074.541       -1616.552       -1616.527       -1549.180   111952381.459   111952381.459    87235639.737    87235647.729    83600845.255          48.250          39.620          46.620          39.620          51.120
G21  22850194.355    22850193.197                    22850191.318                       -1592.112       -1592.112                       -1240.609                   120078604.115   120078604.115                    93567745.698                          44.370          29.500                          29.500
G27  24165970.335    24165969.687    24165971.345    24165971.175    24165972.279        3663.493        3663.493        2854.767        2854.671        2735.784   126993102.348   126993102.348    98955683.554    98955682.541    94832568.469          40.500          37.310          38.680          37.310          42.000
G28  21855336.238    21855335.285                    21855333.549                       -2005.699       -2005.699                       -1562.885                   114850612.645   114850612.645                    89493984.936                          47.060          35.560                          35.560
G30  20425850.945    20425850.235    20425851.839    20425851.177    20425853.752        -560.927        -560.927        -437.172        -437.087        -418.894   107338624.940   107338624.940    83640500.987    83640501.981    80155494.641          50.810          46.180          49.370          46.180          54.560
R01  23923626.255    23923626.760    23923629.821    23923630.773        4096.083        4095.801        3185.639        3186.041   127885497.715   127885540.719    99466555.648    99466520.681          36.250          35.870          29.310          31.000
R02  21905802.294    21905802.942    21905807.312    21905806.848        1166.625        1166.648         907.366         907.406   116893594.360   116893664.369    90917247.881    90917263.883          47.870          48.250          44.680          44.680
R03  23444189.376    23444190.386    23444192.688    23444192.939       -2250.551       -2250.503       -1750.575       -1750.413   125498600.464   125498688.469    97610045.633    97610035.615          39.370          38.680          35.870          36.500
R10  21501079.732    21501079.536                                        2894.991        2895.022                                   114612927.305   114612910.316                                          47.810          47.560
R11  19347657.562    19347657.785    19347658.663    19347658.815        -391.962        -391.939        -304.860        -304.889   103388067.850   103388069.854    80413071.113    80412967.121          52.620          52.870          50.680          51.060
R12  21846439.692    21846440.376    21846443.846    21846444.213       -3230.567       -3230.504       -2512.629       -2512.561   116699784.635   116699774.637    90766526.042    90766525.048          48.560          48.250          45.250          45.060
R20  20851341.002    20851340.912    20851345.955    20851345.320        1824.785        1824.780        1419.311        1419.309   111501514.030   111501522.044    86723462.717    86723448.725          42.180          41.310          47.370          48.120
R21  20476374.087    20476374.623    20476377.701    20476377.866       -2861.584       -2861.633       -2225.674       -2225.665   109573252.233   109573253.239    85223667.952    85223664.954          51.620          51.870          48.500          48.430
R22                  23762405.477                                                       -4745.171                                                                                                                          30.180
> 2021 01 03 00 17 30.0000000  0 27
E02  25227836.221    25227840.119    25227840.880    25227835.583    25227836.957       -2027.144       -1513.739       -1645.443       -1553.326       -1533.551   132573202.031    98999507.613   107608142.934   101582084.352   100290801.558          45.870          46.750          48.120          48.430          50.620
E03  26485081.095    26485086.054    26485085.231    26485082.344    26485083.316        2622.929        1958.672        2128.914        2009.746        1984.205   139180082.527   103933206.465   112970869.273   106644484.545   105288857.079          40.560          42.680          44.180          45.060          47.000
E07  28358530.349    28358537.829    28358527.465    28358529.076    28358533.437       -1942.834       -1450.630       -1576.932       -1488.573       -1469.630   149025118.211   111284992.355   120961942.897   114188060.098   112736535.303          27.000          34.560          27.370          31.370          36.000
E08  24154965.953    24154968.431    24154971.427    24154964.658    24154965.880         393.498         293.769         319.395         301.497         297.649   126935230.254    94789306.718   103031875.538    97262055.771    96025690.321          43.930          43.750          46.120          46.680          48.370
E11  23415720.017    23415720.643    23415720.361    23415716.826    23415717.842       -2251.631       -1681.526       -1827.684       -1725.354       -1703.434   123050463.683    91888364.290    99878636.152    94285421.902    93086889.172          43.060          42.870          43.680          44.750          46.870
E12  24056742.186    24056743.956    24056743.286    24056740.448    24056741.018         545.034         407.150         442.480         417.712         412.439   126419055.006    94403882.672   102612887.474    96866562.364    95635237.594          41.680          42.930          43.620          45.120          47.120
E24  26040938.894    26040941.537    26040942.284    26040937.381    26040938.594        2195.004        1639.107        1781.597        1681.854        1660.463   136846108.047   102190304.504   111076411.406   104856122.128   103523212.391          44.120          44.430          45.870          46.500          48.560
E25  23441531.423    23441536.190    23441534.397    23441531.605    23441532.996          93.841          70.098          76.163          71.901          71.004   123186127.116    91989687.678    99988780.993    94389391.022    93189546.926          48.680          51.930          53.370          53.500          55.750
G01  23533022.078    23533021.914    23533023.129    23533023.170    23533023.620       -3494.082       -3494.082       -2722.627       -2722.663       -2609.240   123666878.753   123666878.753    96363802.075    96363822.082    92348658.822          41.180          22.310          36.250          22.310          41.310
G07  20701429.385    20701428.979    20701427.417    20701427.086                        1462.936        1462.936        1139.978        1139.950                   108786787.651   108786787.651    84768954.545    84768938.531                          48.750          43.180          45.870          43.180
G08  21341503.988    21341503.349    21341505.038    21341504.305    21341506.021        2054.669        2054.669        1601.074        1601.042        1534.328   112150411.304   112150411.304    87389951.516    87389937.513    83748741.210          49.250          52.430          46.180          52.430          51.560
G11  21519446.944    21519446.235                    21519444.632                       -1467.279       -1467.279                       -1143.330                   113085492.805   113085492.805                    88118568.796                          48.370          38.310                          38.310
G13  22779565.787    22779565.358                    22779563.434                       -1685.640       -1685.640                       -1313.482                   119707436.225   119707436.225                    93278506.133                          44.370          29.250                          29.250
G14  21292009.128    21292008.856    21292008.023    21292007.710    21292014.444       -2064.868       -2064.868       -1609.002       -1608.986       -1541.932   111890291.046   111890291.046    87187257.601    87187265.597    83554479.047          47.680          39.680          46.870          39.680          51.180
G21  22841148.181    22841147.005                    22841144.255                       -1577.200       -1577.200                       -1228.989                   120031064.918   120031064.918                    93530702.191                          45.750          30.060                          30.060
G27  24186899.840    24186899.165    24186901.642    24186900.202    24186901.203        3668.595        3668.595        2858.748        2858.646        2739.550   127103085.358   127103085.358    99041384.608    99041383.608    94914698.635          40.620          37.500          39.250          37.500          41.750
G28  21843908.751    21843907.808                    21843906.014                       -1997.893       -1997.893                       -1556.799                   114790559.647   114790559.647                    89447190.406                          47.250          36.120                          36.120
G30  20422695.867    20422695.152    20422696.287    20422695.857    20422698.638        -544.338        -544.338        -424.151        -424.160        -406.478   107322044.800   107322044.800    83627581.397    83627582.387    80143113.369          50.430          45.930          48.930          45.930          54.620
R01  23946620.564    23946620.747    23946625.712    23946626.275        4098.481        4098.917        3188.019        3187.920   128008419.907   128008462.944    99562161.797    99562126.801          34.060          33.620          30.560          29.180
R02  21912433.258    21912433.477    21912437.517    21912437.687        1192.008        1192.003         927.124         927.251   116928975.655   116929045.655    90944766.633    90944782.649          48.370          48.180          45.060          45.000
R03  23431645.115    23431643.139    23431640.209    23431640.737       -2228.876       -2228.845       -1733.768       -1733.507   125431411.365   125431499.350    97557787.430    97557777.410          42.180          40.120          34.060          35.060
R10  21517400.390    21517399.903                                        2904.353        2904.319                                   114699919.906   114699902.907                                          48.560          47.750
R11  19345499.610    19345499.789    19345501.047    19345501.060        -376.833        -376.827        -293.090        -292.943   103376536.969   103376538.975    80404102.668    80403998.679          52.680          52.870          50.750          51.060
R12  21828309.105    21828309.722    21828313.939    21828314.498       -3225.884       -3225.913       -2509.053       -2508.856   116602939.516   116602929.522    90691202.091    90691201.103          48.000          48.250          45.120          45.000
R20  20861650.332    20861650.690    20861655.737    20861654.959        1850.311        1850.315        1439.207        1439.238   111556643.262   111556651.265    86766341.024    86766327.024          42.250          41.370          47.930          48.120
R21  20460392.767    20460393.389    20460396.238    20460396.337       -2839.761       -2839.746       -2208.644       -2208.632   109487733.896   109487734.909    85157153.715    85157150.712          51.810          52.120          48.370          48.370
R22  23735745.055    23735744.885                                       -4743.390       -4743.180                                   126703019.8411  126703023.879                                          32.560          31.560
