     3.04           OBSERVATION DATA    M                   RINEX VERSION / TYPE
JPS2RIN v.2.0.191   JAVAD GNSS          20210104 000720 UTC PGM / RUN BY / DATE
GGN                 JPL                                     OBSERVER / AGENCY
GOLD                                                        MARKER NAME
40405S031                                                   MARKER NUMBER
01538               JAVAD TRE_G3TH DELTA3.7.9               REC # / TYPE / VERS
 -2353614.3160 -4641385.3523  3676976.4340                  APPROX POSITION XYZ
401-B               AOAD/M_T        NONE                    ANT # / TYPE
        0.0254        0.0000        0.0000                  ANTENNA: DELTA H/E/N
G   18 C1C L1C S1C C1W L1W S1W C2X L2X S2X C2W L2W S2W C5X  SYS / # / OBS TYPES
       L5X S5X C1X L1X S1X                                  SYS / # / OBS TYPES
R   15 C1C L1C S1C C1P L1P S1P C2C L2C S2C C2P L2P S2P C3X  SYS / # / OBS TYPES
       L3X S3X                                              SYS / # / OBS TYPES
E    9 C1X L1X S1X C7X L7X S7X C5X L5X S5X                  SYS / # / OBS TYPES
J    9 C1C L1C S1C C2X L2X S2X C5X L5X S5X                  SYS / # / OBS TYPES
C    9 C2I L2I S2I C7Z C7I L7Z L7I S7Z S7I                  SYS / # / OBS TYPES
 24 R01  1 R02 -4 R03  5 R04  6 R05  1 R06 -4 R07  5 R08  6 GLONASS SLOT / FRQ #
    R09 -2 R10 -7 R11  0 R12 -1 R13 -2 R14 -7 R15  0 R16 -1 GLONASS SLOT / FRQ #
    R17  4 R18 -3 R19  3 R20  2 R21  4 R22 -3 R23  3 R24  2 GLONASS SLOT / FRQ #
    30.000                                                  INTERVAL
  2021     1     3     0     0    0.0000000     GPS         TIME OF FIRST OBS
  2021     1     3    23    59   30.0000000     GPS         TIME OF LAST OBS
    18                                                      LEAP SECONDS
G L1C  0.00000  32 G01 G02 G03 G04 G05 G06 G07 G08 G09 G10  SYS / PHASE SHIFT
                   G11 G12 G13 G14 G15 G16 G17 G18 G19 G20  SYS / PHASE SHIFT
                   G21 G22 G23 G24 G25 G26 G27 G28 G29 G30  SYS / PHASE SHIFT
                   G31 G32                                  SYS / PHASE SHIFT
G L1W -0.25000  32 G01 G02 G03 G04 G05 G06 G07 G08 G09 G10  SYS / PHASE SHIFT
                   G11 G12 G13 G14 G15 G16 G17 G18 G19 G20  SYS / PHASE SHIFT
                   G21 G22 G23 G24 G25 G26 G27 G28 G29 G30  SYS / PHASE SHIFT
                   G31 G32                                  SYS / PHASE SHIFT
G L1X -0.25000  03 G04 G14 G23                              SYS / PHASE SHIFT
G L2W  0.00000  32 G01 G02 G03 G04 G05 G06 G07 G08 G09 G10  SYS / PHASE SHIFT
                   G11 G12 G13 G14 G15 G16 G17 G18 G19 G20  SYS / PHASE SHIFT
                   G21 G22 G23 G24 G25 G26 G27 G28 G29 G30  SYS / PHASE SHIFT
                   G31 G32                                  SYS / PHASE SHIFT
G L2X  0.25000  23 G01 G03 G04 G05 G06 G07 G08 G09 G10 G12  SYS / PHASE SHIFT
                   G14 G15 G17 G18 G23 G24 G25 G26 G27 G29  SYS / PHASE SHIFT
                   G30 G31 G32                              SYS / PHASE SHIFT
G L5X  0.25000  16 G01 G03 G04 G06 G08 G09 G10 G14 G18 G23  SYS / PHASE SHIFT
                   G24 G25 G26 G27 G30 G32                  SYS / PHASE SHIFT
R L1C  0.00000  24 R01 R02 R03 R04 R05 R06 R07 R08 R09 R10  SYS / PHASE SHIFT
                   R11 R12 R13 R14 R15 R16 R17 R18 R19 R20  SYS / PHASE SHIFT
                   R21 R22 R23 R24                          SYS / PHASE SHIFT
R L1P -0.25000  24 R01 R02 R03 R04 R05 R06 R07 R08 R09 R10  SYS / PHASE SHIFT
                   R11 R12 R13 R14 R15 R16 R17 R18 R19 R20  SYS / PHASE SHIFT
                   R21 R22 R23 R24                          SYS / PHASE SHIFT
R L2C  0.25000  24 R01 R02 R03 R04 R05 R06 R07 R08 R09 R10  SYS / PHASE SHIFT
                   R11 R12 R13 R14 R15 R16 R17 R18 R19 R20  SYS / PHASE SHIFT
                   R21 R22 R23 R24                          SYS / PHASE SHIFT
R L2P  0.00000  23 R01 R02 R03 R04 R05 R06 R07 R08 R09 R11  SYS / PHASE SHIFT
                   R12 R13 R14 R15 R16 R17 R18 R19 R20 R21  SYS / PHASE SHIFT
                   R22 R23 R24                              SYS / PHASE SHIFT
R L3X  0.25000  04 R04 R09 R11 R21                          SYS / PHASE SHIFT
E L1X  0.50000  22 E01 E02 E03 E04 E05 E07 E08 E09 E11 E12  SYS / PHASE SHIFT
                   E13 E15 E18 E19 E21 E24 E25 E27 E30 E31  SYS / PHASE SHIFT
                   E33 E36                                  SYS / PHASE SHIFT
E L5X  0.25000  22 E01 E02 E03 E04 E05 E07 E08 E09 E11 E12  SYS / PHASE SHIFT
                   E13 E15 E18 E19 E21 E24 E25 E27 E30 E31  SYS / PHASE SHIFT
                   E33 E36                                  SYS / PHASE SHIFT
E L7X  0.25000  22 E01 E02 E03 E04 E05 E07 E08 E09 E11 E12  SYS / PHASE SHIFT
                   E13 E15 E18 E19 E21 E24 E25 E27 E30 E31  SYS / PHASE SHIFT
                   E33 E36                                  SYS / PHASE SHIFT
J L1C  0.00000  03 J01 J02 J03                              SYS / PHASE SHIFT
J L2X  0.25000  03 J01 J02 J03                              SYS / PHASE SHIFT
J L5X  0.25000  03 J01 J02 J03                              SYS / PHASE SHIFT
C L2I  0.00000  29 C11 C12 C14 C16 C19 C20 C21 C22 C23 C24  SYS / PHASE SHIFT
                   C25 C26 C27 C28 C29 C30 C32 C33 C34 C35  SYS / PHASE SHIFT
                   C36 C37 C40 C41 C42 C43 C44 C45 C46      SYS / PHASE SHIFT
C L7I  0.00000  05 C06 C11 C12 C14 C16                      SYS / PHASE SHIFT
C L7Z  0.25000  24 C19 C20 C21 C22 C23 C24 C25 C26 C27 C28  SYS / PHASE SHIFT
                   C29 C30 C32 C33 C34 C35 C36 C37 C41 C42  SYS / PHASE SHIFT
                   C43 C44 C45 C46                          SYS / PHASE SHIFT
   111                                                      # OF SATELLITES
   G01  1100  1100  1100  1083  1083  1083  1098  1098  1098PRN / # OF OBS
        1083  1083  1083  1097  1097  1097     0     0     0PRN / # OF OBS
   G02   853   853   853   848   848   848     0     0     0PRN / # OF OBS
         848   848   848     0     0     0     0     0     0PRN / # OF OBS
   G03   908   908   908   901   901   901   907   907   907PRN / # OF OBS
         901   901   901   907   907   907     0     0     0PRN / # OF OBS
   G04   911   911   911   909   909   909   911   911   911PRN / # OF OBS
         909   909   909   911   911   911   424   424   424PRN / # OF OBS
   G05   991   991   991   986   986   986   990   990   990PRN / # OF OBS
         986   986   986     0     0     0     0     0     0PRN / # OF OBS
   G06   984   984   984   981   981   981   984   984   984PRN / # OF OBS
         981   981   981   984   984   984     0     0     0PRN / # OF OBS
   G07   957   957   957   954   954   954   957   957   957PRN / # OF OBS
         954   954   954     0     0     0     0     0     0PRN / # OF OBS
   G08  1102  1102  1102  1099  1099  1099  1102  1102  1102PRN / # OF OBS
        1099  1099  1099  1102  1102  1102     0     0     0PRN / # OF OBS
   G09   854   854   854   849   849   849   853   853   853PRN / # OF OBS
         849   849   849   853   853   853     0     0     0PRN / # OF OBS
   G10   951   951   951   947   947   947   950   950   950PRN / # OF OBS
         947   947   947   950   950   950     0     0     0PRN / # OF OBS
   G11  1138  1138  1138  1083  1083  1083     0     0     0PRN / # OF OBS
        1083  1083  1083     0     0     0     0     0     0PRN / # OF OBS
   G12   812   812   812   807   807   807   812   812   812PRN / # OF OBS
         807   807   807     0     0     0     0     0     0PRN / # OF OBS
   G13  1119  1119  1119  1075  1075  1075     0     0     0PRN / # OF OBS
        1075  1075  1075     0     0     0     0     0     0PRN / # OF OBS
   G14   942   942   942   928   928   928   942   942   942PRN / # OF OBS
         928   928   928   941   941   941   553   553   553PRN / # OF OBS
   G15  1087  1087  1087  1085  1085  1085  1087  1087  1087PRN / # OF OBS
        1085  1085  1085     0     0     0     0     0     0PRN / # OF OBS
   G16  1071  1071  1071  1028  1028  1028     0     0     0PRN / # OF OBS
        1028  1028  1028     0     0     0     0     0     0PRN / # OF OBS
   G17   854   854   854   852   852   852   853   853   853PRN / # OF OBS
         852   852   852     0     0     0     0     0     0PRN / # OF OBS
   G18   930   930   930   926   926   926   930   930   930PRN / # OF OBS
         926   926   926   930   930   930     0     0     0PRN / # OF OBS
   G19   864   864   864   854   854   854     0     0     0PRN / # OF OBS
         854   854   854     0     0     0     0     0     0PRN / # OF OBS
   G20   924   924   924   905   905   905     0     0     0PRN / # OF OBS
         905   905   905     0     0     0     0     0     0PRN / # OF OBS
   G21  1118  1118  1118  1068  1068  1068     0     0     0PRN / # OF OBS
        1068  1068  1068     0     0     0     0     0     0PRN / # OF OBS
   G22   827   827   827   819   819   819     0     0     0PRN / # OF OBS
         819   819   819     0     0     0     0     0     0PRN / # OF OBS
   G23   924   924   924   916   916   916   924   924   924PRN / # OF OBS
         916   916   916   924   924   924   855   855   855PRN / # OF OBS
   G24  1085  1085  1085  1069  1069  1069  1085  1085  1085PRN / # OF OBS
        1069  1069  1069  1085  1085  1085     0     0     0PRN / # OF OBS
   G25  1037  1037  1037  1017  1017  1017  1036  1036  1036PRN / # OF OBS
        1017  1017  1017  1034  1034  1034     0     0     0PRN / # OF OBS
   G26  1099  1099  1099  1096  1096  1096  1099  1099  1099PRN / # OF OBS
        1096  1096  1096  1099  1099  1099     0     0     0PRN / # OF OBS
   G27  1125  1125  1125  1118  1118  1118  1123  1123  1123PRN / # OF OBS
        1118  1118  1118  1124  1124  1124     0     0     0PRN / # OF OBS
   G28   968   968   968   935   935   935     0     0     0PRN / # OF OBS
         935   935   935     0     0     0     0     0     0PRN / # OF OBS
   G29   862   862   862   860   860   860   862   862   862PRN / # OF OBS
         860   860   860     0     0     0     0     0     0PRN / # OF OBS
   G30   911   911   911   908   908   908   911   911   911PRN / # OF OBS
         908   908   908   911   911   911     0     0     0PRN / # OF OBS
   G31   999   999   999   989   989   989   998   998   998PRN / # OF OBS
         989   989   989     0     0     0     0     0     0PRN / # OF OBS
   G32   863   863   863   858   858   858   863   863   863PRN / # OF OBS
         858   858   858   863   863   863     0     0     0PRN / # OF OBS
   R01  1147  1147  1147  1145  1145  1145  1146  1146  1146PRN / # OF OBS
        1135  1135  1135     0     0     0                  PRN / # OF OBS
   R02  1113  1113  1113  1109  1109  1109  1111  1111  1111PRN / # OF OBS
        1102  1102  1102     0     0     0                  PRN / # OF OBS
   R03  1010  1010  1010  1009  1009  1009  1009  1009  1009PRN / # OF OBS
        1000  1000  1000     0     0     0                  PRN / # OF OBS
   R04   789   789   789   788   788   788   788   788   788PRN / # OF OBS
         782   782   782     1     1     0                  PRN / # OF OBS
   R05   807   807   807   806   806   806   806   806   806PRN / # OF OBS
         806   806   806     0     0     0                  PRN / # OF OBS
   R06   867   867   867   867   867   867    27    27    27PRN / # OF OBS
           2     2     2     0     0     0                  PRN / # OF OBS
   R07   830   830   830   830   830   830   830   830   830PRN / # OF OBS
         829   829   829     0     0     0                  PRN / # OF OBS
   R08  1042  1042  1042  1041  1041  1041  1042  1042  1042PRN / # OF OBS
        1038  1038  1038     0     0     0                  PRN / # OF OBS
   R09   905   905   905   905   905   905   905   905   905PRN / # OF OBS
         900   900   900   904   904   904                  PRN / # OF OBS
   R10   971   971   971   970   970   970    17    17    17PRN / # OF OBS
           0     0     0     0     0     0                  PRN / # OF OBS
   R11  1082  1082  1082  1082  1082  1082  1082  1082  1082PRN / # OF OBS
        1082  1082  1082   749   749   749                  PRN / # OF OBS
   R12  1091  1091  1091  1091  1091  1091  1091  1091  1091PRN / # OF OBS
        1090  1090  1090     0     0     0                  PRN / # OF OBS
   R13   832   832   832   832   832   832   832   832   832PRN / # OF OBS
         828   828   828     0     0     0                  PRN / # OF OBS
   R14   909   909   909   909   909   909   909   909   909PRN / # OF OBS
         906   906   906     0     0     0                  PRN / # OF OBS
   R15   925   925   925   922   922   922   922   922   922PRN / # OF OBS
         906   906   906     0     0     0                  PRN / # OF OBS
   R16   930   930   930   930   930   930   929   929   929PRN / # OF OBS
         921   921   921     0     0     0                  PRN / # OF OBS
   R17   871   871   871   871   871   871   871   871   871PRN / # OF OBS
         870   870   870     0     0     0                  PRN / # OF OBS
   R18   845   845   845   845   845   845   845   845   845PRN / # OF OBS
         844   844   844     0     0     0                  PRN / # OF OBS
   R19   716   716   716   716   716   716   716   716   716PRN / # OF OBS
         715   715   715     0     0     0                  PRN / # OF OBS
   R20   799   799   799   799   799   799   799   799   799PRN / # OF OBS
         798   798   798     0     0     0                  PRN / # OF OBS
   R21  1187  1187  1187  1186  1186  1186  1186  1186  1186PRN / # OF OBS
        1186  1186  1186  1124  1124  1124                  PRN / # OF OBS
   R22  1112  1112  1112  1112  1112  1112  1104  1104  1104PRN / # OF OBS
        1009  1009  1009     0     0     0                  PRN / # OF OBS
   R23   940   940   940   939   939   939    24    24    24PRN / # OF OBS
           1     1     1     0     0     0                  PRN / # OF OBS
   R24   913   913   913   913   913   913   913   913   913PRN / # OF OBS
         911   911   911     0     0     0                  PRN / # OF OBS
   E01   560   560   560   560   560   560   560   560   560PRN / # OF OBS
   E02   744   744   744   744   744   744   744   744   744PRN / # OF OBS
   E03   465   465   465   464   464   464   464   464   464PRN / # OF OBS
   E04   741   741   741   709   709   709   709   709   709PRN / # OF OBS
   E05    90    90    90    90    90    90    90    90    90PRN / # OF OBS
   E07   907   907   907   907   907   907   907   907   907PRN / # OF OBS
   E08   475   475   475   442   442   442   442   442   442PRN / # OF OBS
   E09    22    22    22    22    22    22    22    22    22PRN / # OF OBS
   E11   469   469   469   469   469   469   469   469   469PRN / # OF OBS
   E12   423   423   423   404   404   404   422   422   422PRN / # OF OBS
   E13  1062  1062  1062  1062  1062  1062  1062  1062  1062PRN / # OF OBS
   E15  1087  1087  1087  1086  1086  1086  1086  1086  1086PRN / # OF OBS
   E18   863   863   863   863   863   863   863   863   863PRN / # OF OBS
   E19   642   642   642   642   642   642   642   642   642PRN / # OF OBS
   E21  1048  1048  1048  1048  1048  1048  1048  1048  1048PRN / # OF OBS
   E24    84    84    84    84    84    84    84    84    84PRN / # OF OBS
   E25   543   543   543   543   543   543   543   543   543PRN / # OF OBS
   E27  1186  1186  1186  1185  1185  1185  1185  1185  1185PRN / # OF OBS
   E30  1350  1350  1350  1350  1350  1350  1350  1350  1350PRN / # OF OBS
   E31   481   481   481   481   481   481   481   481   481PRN / # OF OBS
   E33   823   823   823   823   823   823   823   823   823PRN / # OF OBS
   E36   302   302   302   301   301   301   301   301   301PRN / # OF OBS
   J01   508   508   508   503   503   503   503   503   503PRN / # OF OBS
   J02   603   603   603   603   603   603   603   603   603PRN / # OF OBS
   J03   152   152   152   151   151   151   151   151   151PRN / # OF OBS
   C06     0     0     0     0    70     0    70     0    70PRN / # OF OBS
   C11  1051  1051  1051     0  1062     0  1062     0  1062PRN / # OF OBS
   C12   951   951   951     0   960     0   960     0   960PRN / # OF OBS
   C14  1022  1022  1022     0  1056     0  1056     0  1056PRN / # OF OBS
   C16    57    57    57     0    52     0    52     0    52PRN / # OF OBS
   C19   800   800   800   794     0   794     0   794     0PRN / # OF OBS
   C20   902   902   902   884     0   884     0   884     0PRN / # OF OBS
   C21   854   854   854   227     0   227     0   227     0PRN / # OF OBS
   C22   813   813   813   448     0   448     0   448     0PRN / # OF OBS
   C23  1146  1146  1146  1016     0  1016     0  1016     0PRN / # OF OBS
   C24   851   851   851   566     0   566     0   566     0PRN / # OF OBS
   C25  1068  1068  1068   627     0   627     0   627     0PRN / # OF OBS
   C26   636   636   636   633     0   633     0   633     0PRN / # OF OBS
   C27  1192  1192  1192   733     0   733     0   733     0PRN / # OF OBS
   C28   900   900   900   508     0   508     0   508     0PRN / # OF OBS
   C29   883   883   883   313     0   313     0   313     0PRN / # OF OBS
   C30  1005  1005  1005   719     0   719     0   719     0PRN / # OF OBS
   C32  1036  1036  1036   964     0   964     0   964     0PRN / # OF OBS
   C33  1154  1154  1154   244     0   244     0   244     0PRN / # OF OBS
   C34  1016  1016  1016   954     0   954     0   954     0PRN / # OF OBS
   C35   705   705   705   297     0   297     0   297     0PRN / # OF OBS
   C36   660   660   660   515     0   515     0   515     0PRN / # OF OBS
   C37  1218  1218  1218   473     0   473     0   473     0PRN / # OF OBS
   C40   135   135   135     0     0     0     0     0     0PRN / # OF OBS
   C41  1016  1016  1016   897     0   897     0   897     0PRN / # OF OBS
   C42   839   839   839   782     0   782     0   782     0PRN / # OF OBS
   C43  1016  1016  1016   971     0   971     0   971     0PRN / # OF OBS
   C44   923   923   923   827     0   827     0   827     0PRN / # OF OBS
   C45   684   684   684   413     0   413     0   413     0PRN / # OF OBS
   C46   838   838   838   691     0   691     0   691     0PRN / # OF OBS
                                                            END OF HEADER
> 2021 01 03 00 00  0.0000000  0 38       -.000050668686
G01  24656844.790   129572607.018 6        38.500    24656844.040   129572585.034 3        23.000    24656850.210   100965668.555 7        41.500    24656849.740   100965651.543 3        23.000    24656843.300    96758750.045 6        38.500
G05  24627608.650   129418971.141 6        39.750    24627609.090   129418964.153 4        26.750    24627610.260   100845944.717 6        39.250    24627609.090   100845945.729 4        26.750
G07  20934931.548   110013847.386 8        51.750    20934931.058   110013845.387 7        44.750    20934931.008    85725087.697 8        50.250    20934931.138    85725085.692 7        44.750
G08  22631953.381   118931786.760 7        45.750    22631952.901   118931777.768 7        45.500    22631956.421    92674127.497 7        46.750    22631956.321    92674125.495 7        45.500    22631953.511    88812706.573 8        53.000
G09  23254719.500   122204379.119 7        43.750    23254718.660   122204387.130 5        32.750    23254721.930    95224193.391 7        45.000    23254722.590    95224200.400 5        32.750    23254720.550    91256521.847 8        50.750
G11  22855541.085   120106737.455 7        43.250    22855540.565   120106711.475 5        30.750                                                    22855540.785    93589655.765 5        30.750
G13  23135051.211   121575521.328 7        42.250    23135050.821   121575513.327 4        28.250                                                    23135052.071    94734166.901 4        28.250
G14  20665014.322   108595452.734 8        49.250    20665014.462   108595448.741 7        44.250    20665015.452    84619854.186 9        55.000    20665015.782    84619847.186 7        44.250    20665017.632    81094031.555 9        59.750
G17  23358412.732   122749311.443 7        43.500    23358413.112   122749310.456 5        31.250    23358413.772    95648819.748 7        42.250    23358414.372    95648819.759 5        31.250
G21  24493070.322   128711970.382 6        36.750    24493070.292   128711938.373 3        22.000                                                    24493073.742   100295017.758 3        22.000
G28  20939522.286   110038006.984 8        50.750    20939521.996   110037972.993 7        42.000                                                    20939522.246    85743887.410 7        42.000
G30  20624591.409   108383013.500 8        52.750    20624590.729   108383014.505 7        46.750    20624593.979    84454311.775 9        54.000    20624593.969    84454311.770 7        46.750    20624592.139    80935388.118 9        59.750
R01  21047819.700   112512687.362 8        48.750    21047819.800   112512683.374 8        48.000    21047825.880    87509870.046 7        44.500    21047826.460    87509842.039 7        43.000
R02  21439465.976   114405119.849 8        52.250    21439465.286   114405119.854 8        51.500    21439470.596    88981729.397 8        48.500    21439470.796    88981742.397 8        47.750
R08  23423553.917   125432107.258 7        42.250    23423553.947   125432078.269 7        42.750    23423560.407    97558266.751 7        42.500    23423561.157    97558278.731 7        42.000
R10  22737874.387   121205722.377 7        42.250    22737874.057   121205715.401 7        43.000
R11  20228504.166   108095105.327 9        56.000    20228504.196   108095080.328 9        55.000    20228507.416    84073966.234 9        53.500    20228507.176    84073957.238 8        51.750    20228526.646    81106673.499 2        17.000
R12  21672530.536   115770872.861 9        53.750    21672529.796   115770746.863 8        52.750    21672526.266    90043935.270 7        47.250    21672526.456    90043906.263 7        46.250
R20  22497815.661   120305954.679 6        38.750    22497815.331   120305947.671 6        37.000    22497821.371    93571305.358 7        44.500    22497819.621    93571297.328 7        44.000
R21  21334152.730   114163529.495 8        52.500    21334152.740   114163451.495 8        51.500    21334155.870    88793781.522 8        49.250    21334156.980    88793728.527 8        48.000    21334112.730    85539852.010 8        51.000
R22  23440740.963   125128250.403 7        42.000    23440737.993   125128251.427 6        39.000    23440741.653    97321980.808 5        30.250    23440744.273    97321984.795 4        28.750
E03  24247928.001   127423740.045 8        52.000    24247928.681    97636378.101 9        54.500    24247930.731    95154098.094 8        52.750
E05  26894585.467   141331981.872 7        43.250    26894586.397   108293332.495 7        45.000    26894589.667   105540111.925 7        44.000
E24  27509908.592   144565556.116 7        42.250    27509907.572   110771012.028 7        42.500    27509910.582   107954800.559 7        42.000
E25  24041772.555   126340410.910 8        52.250    24041773.255    96806301.582 9        55.000    24041775.355    94345126.877 9        53.750
J01  44103608.859   231766052.028 5        35.250    44103608.109   180596927.606 5        34.500    44103606.049   173072059.549 6        37.500
C14  25040779.372   130393921.975 6        41.250                    25040770.902                   100828830.955 8                        47.500
C21  24855922.044   129431336.956 7        45.000    24855917.044                   100084493.866 8                        50.000
C24  26249339.378   136687230.972 6        38.750
C26  22315393.271   116202139.070 8        52.250    22315388.671                    89854827.520 9                        56.000
C29  23357518.981   121628785.097 8        49.000    23357513.391                    94051058.004 8                        53.000
C30  26472562.291   137849613.333 6        38.250    26472559.661                   106594059.989 7                        41.750
C33  26681455.649   138937350.623 6        39.750
C35  23670327.299   123257634.085 8        48.500
C36  26584305.191   138431498.108 5        34.500    26584312.211                   107044017.981 7                        42.250
C42  24400840.124   127061602.826 7        45.500
C44  26684393.313   138952640.271 6        36.250
C45  22500506.140   117166083.143 8        51.750    22500508.780                    90600272.751 9                        56.500
> 2021 01 03 00 00 30.0000000  0 38       -.000050668820
G01  24641863.597   129493903.504 5        32.250                                                    24641871.957   100904341.042 6        38.250                                                    24641870.257    96699977.874 7        46.000
G05  24636920.826   129467905.834 6        40.000    24636920.156   129467898.844 4        24.500    24636922.356   100884075.713 6        39.750    24636921.006   100884076.705 4        24.500
G07  20938948.811   110034960.022 8        51.250    20938948.681   110034958.026 7        44.750    20938948.771    85741539.101 8        50.250    20938948.801    85741537.101 7        44.750
G08  22646252.341   119006926.922 7        46.250    22646251.761   119006917.917 7        45.750    22646255.291    92732678.270 7        47.000    22646255.111    92732676.264 7        45.750    22646252.251    88868817.734 8        53.000
G09  23275185.959   122311933.578 7        42.500    23275184.739   122311941.566 5        32.250    23275187.369    95308002.054 7        43.000    23275188.729    95308009.026 5        32.250    23275187.529    91336838.445 8        50.750
G11  22849842.086   120076789.740 7        43.500    22849841.736   120076763.749 5        31.000                                                    22849842.306    93566319.917 5        31.000
G13  23117749.673   121484600.521 7        43.750    23117749.123   121484592.533 4        28.750                                                    23117748.573    94663319.527 4        28.750
G14  20660194.219   108570119.764 8        51.000    20660193.939   108570115.779 7        44.250    20660194.879    84600114.228 9        55.750    20660195.039    84600107.221 7        44.250    20660196.909    81075114.098 9        59.750
G17  23338305.929   122643646.084 7        43.500    23338305.229   122643645.079 5        31.000    23338305.909    95566483.230 7        41.750    23338305.839    95566483.223 5        31.000
G21  24486676.287   128678368.211 6        37.250    24486675.257   128678336.208 3        18.000                                                    24486675.787   100268834.398 3        18.000
G28  20934731.003   110012825.525 8        50.750    20934730.073   110012791.519 7        42.000                                                    20934730.193    85724265.514 7        42.000
G30  20620080.837   108359310.332 9        53.750    20620080.437   108359311.338 7        47.000    20620083.487    84435841.782 9        54.500    20620083.377    84435841.777 7        47.000    20620081.477    80917687.708 9        60.250
R01  21065040.115   112604740.768 8        48.500    21065040.335   112604736.775 8        48.000    21065046.985    87581467.110 7        45.000    21065047.105    87581439.121 7        43.000
R02  21430862.304   114359213.176 8        51.500    21430861.964   114359213.186 8        51.000    21430865.794    88946024.338 7        47.000    21430865.714    88946037.320 7        46.000
R08  23448105.886   125563579.331 7        44.250    23448107.256   125563550.336 7        44.000    23448111.656    97660522.691 7        41.750    23448109.586    97660534.710 6        39.500
R10  22751054.577   121275958.608 7        47.250    22751054.437   121275951.599 7        45.750
R11  20230716.392   108106927.714 9        56.250    20230716.522   108106902.719 9        55.250    20230719.772    84083161.448 9        53.500    20230719.492    84083152.447 8        51.750    20230740.622    81115544.207 2        15.000
R12  21662193.410   115715691.524 8        47.500    21662192.410   115715565.502 8        47.750    21662198.340    90001016.396 8        49.500    21662198.240    90000987.391 8        48.250
R20  22505769.154   120348493.575 6        36.750    22505767.794   120348486.577 6        36.750    22505774.794    93604391.113 7        45.000    22505774.604    93604383.112 7        44.250
R21  21320258.941   114089180.852 8        52.250    21320258.881   114089102.864 8        51.750    21320261.941    88735954.847 8        48.250    21320262.921    88735901.842 8        48.000    21320218.531    85484144.437 8        50.750
R22  23416601.447   124999407.347 6        41.000    23416599.897   124999408.372 6        39.500    23416609.027    97221769.557 5        31.000    23416607.777    97221741.55114        29.000
E03  24256570.559   127469158.049 8        51.750    24256571.529    97671178.911 9        54.500    24256573.569    95188014.137 8        53.000
E05  26912057.567   141423799.302 7        42.750    26912059.267   108363686.089 7        45.000    26912060.677   105608676.878 7        43.500
E24  27521672.145   144627382.047 6        40.500    27521674.175   110818385.173 7        44.000    27521673.785   108000969.290 6        41.000
E25  24046866.190   126367176.483 8        52.000    24046866.600    96826810.269 9        55.250    24046868.750    94365114.160 9        53.750
J01  44102374.835   231759574.147 5        35.000    44102375.585   180591879.932 5        34.000    44102373.525   173067222.201 6        37.750
C14  25038200.548   130380501.994 7        41.500                    25038193.478                   100818453.797 7                        47.250
C21  24871989.794   129515009.668 7        45.000    24871985.304                   100149178.898 8                        49.750
C24  26236395.991   136619832.368 6        39.250
C26  22308417.911   116165819.072 8        52.000    22308413.591                    89826742.60019                        55.750
C29  23357910.678   121630821.339 8        49.000    23357904.408                    94052601.586 8                        53.250
C30  26486518.082   137922285.577 6        37.250    26486516.762                   106650224.849 7                        44.000
C33  26672312.588   138889734.037 6        39.000
C35  23655660.947   123181266.565 8        49.000
C36  26597006.880   138497624.479 6        38.500    26597013.300                   107095151.00917                        44.500
C42  24405239.166   127084507.735 7        46.000
C44  26665499.200   138854246.464 6        37.750
C45  22506567.271   117197644.614 8        51.750    22506569.881                    90624678.08119                        56.750
> 2021 01 03 00 01  0.0000000  0 38       -.000050670956
G01  24626905.529   129415279.368 6        38.750    24626905.719   129415254.40214        23.750    24626911.289   100843075.677 7        41.750    24626910.999   100843056.66014        23.750    24626909.139    96641265.300 8        47.750
G05  24646291.380   129517160.207 6        37.000    24646290.430   129517153.190 3        23.000    24646292.860   100922455.671 6        38.750    24646294.520   100922456.671 3        23.000
G07  20943021.948   110056365.749 8        51.500    20943022.028   110056363.753 7        45.000    20943022.008    85758218.893 8        50.000    20943022.198    85758216.886 7        45.000
G08  22660632.486   119082495.594 7        45.750    22660631.716   119082486.596 7        45.500    22660635.356    92791562.957 7        46.750    22660634.966    92791560.958 7        45.500    22660632.346    88925248.891 8        53.000
G09  23295685.464   122419662.230 7        42.250    23295685.124   122419670.220 5        32.500    23295688.754    95391946.421 7        45.000    23295689.434    95391953.407 5        32.500    23295687.294    91417285.140 8        50.500
G11  22844236.195   120047329.710 7        42.750    22844236.135   120047303.697 5        30.750                                                    22844236.425    93543364.073 5        30.750
G13  23100503.318   121393969.943 7        42.750    23100502.838   121393961.930 5        30.000                                                    23100503.008    94592698.305 5        30.000
G14  20655439.794   108545134.031 7        46.500    20655439.414   108545130.037 7        44.250    20655440.034    84580644.831 9        54.750    20655440.264    84580637.827 7        44.250    20655442.284    81056455.935 9        59.750
G17  23318224.607   122538127.940 7        42.750    23318225.257   122538126.956 5        31.000    23318225.367    95484261.478 6        41.250    23318225.827    95484261.451 5        31.000
G21  24480343.987   128645082.374 6        40.500    24480343.167   128645050.380 3        22.250                                                    24480343.647   100242897.377 3        22.250
G28  20930001.697   109987975.238 8        50.750    20930001.147   109987941.236 7        42.000                                                    20930001.397    85704901.682 7        42.000
G30  20615620.090   108335867.624 8        50.500    20615619.430   108335868.629 7        47.000    20615622.070    84417574.747 9        53.500    20615622.240    84417574.740 7        47.000    20615620.480    80900181.801 9        60.000
R01  21082354.291   112697294.360 8        49.000    21082354.241   112697290.370 8        47.750    21082360.541    87653453.232 7        43.750    21082360.471    87653425.234 7        42.750
R02  21422397.502   114314052.403 8        50.000    21422397.122   114314052.399 8        49.250    21422405.082    88910899.150 8        49.000    21422405.282    88910912.157 8        48.000
R08  23472659.164   125695045.882 7        45.750    23472658.504   125695016.868 7        44.500    23472661.364    97762774.397 6        40.500    23472661.954    97762786.395 6        40.250
R10  22764232.263   121346223.102 7        42.500    22764230.733   121346216.097 7        42.250
R11  20232959.171   108118911.610 9        56.250    20232959.161   108118886.609 9        55.000    20232962.101    84092482.244 8        52.750    20232961.931    84092473.252 8        51.250    20232982.721    81124536.061 2        15.000
R12  21651881.411   115660625.974 8        48.250    21651881.631   115660499.984 8        48.500    21651889.071    89958187.722 8        49.000    21651889.001    89958158.730 8        47.500
R20  22513863.737   120391779.014 6        37.000    22513862.857   120391772.021 6        36.500    22513871.807    93638057.629 7        46.500    22513871.047    93638049.624 7        45.500
R21  21306476.311   114015429.032 8        52.250    21306476.491   114015351.038 8        52.000    21306481.051    88678592.337 8        49.250    21306480.981    88678539.336 8        48.250    21306436.431    85428884.044 8        50.750
R22  23392463.222   124870560.267 6        39.750    23392462.262   124870561.277 6        38.500    23392467.012    97121555.202 4        26.500
E03  24265281.978   127514936.958 8        51.750    24265282.938    97706256.256 9        54.250    24265285.048    95222199.691 8        52.750
E05  26929538.710   141515669.813 7        41.500    26929540.750   108434080.364 7        44.500    26929543.910   105677281.459 7        44.000
E24  27533430.912   144689167.098 7        42.750    27533431.232   110865726.971 7        44.000    27533432.532   108047107.449 7        42.250
E25  24051975.699   126394027.507 8        52.500    24051976.059    96847384.446 9        55.000    24051978.279    94385165.265 9        53.750
J01  44101145.548   231753107.680 5        34.750    44101144.458   180586841.170 5        34.500    44101142.998   173062393.385 6        37.500
C14  25035715.638   130367552.031 7        42.250                    25035707.348                   100808440.062 8                        47.500
C21  24888082.667   129598805.796 7        44.500    24888078.007                   100213975.355 8                        50.000
C24  26223453.703   136552433.897 6        39.500
C26  22301464.088   116129606.893 8        52.250    22301459.518                    89798741.081 9                        56.250
C29  23358396.889   121633359.095 8        48.750    23358391.819                    94054563.953 8                        53.000
C30  26500534.010   137995259.156 6        38.250    26500530.400                   106706652.645 7                        44.250
C33  26663245.271   138842521.187 6        40.000
C35  23641047.756   123105174.391 8        48.250
C36  26609714.356   138563782.699 6        41.000    26609718.536                   107146308.829 7                        45.250
C42  24409723.371   127107855.502 7        45.500
C44  26646582.081   138755739.952 6        38.250
C45  22512653.195   117229333.762 8        52.000    22512655.565                    90649182.144 9                        56.500
> 2021 01 03 00 01 30.0000000  0 38       -.000050670482
G01  24611953.768   129336737.832 5        31.500    24611956.738   129336712.827 2        13.250    24611961.938   100781874.627 6        35.500    24611963.138   100781855.609 2        13.250    24611960.888    96582614.274 7        43.750
G05  24655728.623   129566731.457 6        41.000    24655726.943   129566724.453 4        27.000    24655727.683   100961082.557 6        40.250    24655728.603   100961083.582 4        27.000
G07  20947151.682   110078065.365 8        51.750    20947151.292   110078063.369 7        44.500    20947151.672    85775127.683 8        50.500    20947151.352    85775125.682 7        44.500
G08  22675093.706   119158489.889 7        45.750    22675093.266   119158480.895 7        45.750    22675097.406    92850779.297 8        47.500    22675096.826    92850777.298 7        45.750    22675093.546    88981997.893 8        52.500
G09  23316216.567   122527562.536 6        40.750    23316217.757   122527570.550 5        32.500    23316222.257    95476024.593 7        45.000    23316221.937    95476031.575 5        32.500    23316220.407    91497860.032 8        50.750
G11  22838723.360   120018359.247 7        43.250    22838722.880   120018333.245 5        31.000                                                    22838723.200    93520789.730 5        31.000
G13  23083312.316   121303632.221 7        42.750    23083312.216   121303624.228 5        31.250                                                    23083312.866    94522305.326 5        31.250
G14  20650750.275   108520494.963 8        49.250    20650750.535   108520490.968 7        44.250    20650751.565    84561445.578 9        55.500    20650751.665    84561438.575 7        44.250    20650753.625    81038056.652 9        59.750
G17  23298175.298   122432759.913 7        44.000    23298174.188   122432758.905 5        31.250    23298174.758    95402156.603 6        41.250    23298174.848    95402156.600 5        31.250
G21  24474067.798   128612115.083 6        35.500    24474066.978   128612083.081 3        20.500                                                    24474071.338   100217208.686 3        20.500
G28  20925335.821   109963455.602 7        46.500    20925335.281   109963421.608 7        42.250                                                    20925335.451    85685795.469 7        42.250
G30  20611208.806   108312686.661 8        49.750    20611208.106   108312687.661 7        47.000    20611211.136    84399511.661 9        53.750    20611211.056    84399511.657 7        47.000    20611209.226    80882871.348 9        60.000
R01  21099761.665   112790343.661 8        48.500    21099760.895   112790339.656 8        47.500    21099766.975    87725824.895 7        44.000    21099767.805    87725796.890 7        42.750
R02  21414077.322   114269639.463 8        53.250    21414076.892   114269639.460 8        52.250    21414082.142    88876355.872 8        48.750    21414081.202    88876368.866 7        47.250
R08  23497206.970   125826502.646 7        45.500    23497207.100   125826473.647 7        44.750    23497213.500    97865018.473 7        43.500    23497211.330    97865030.481 6        40.750
R10  22777424.553   121416515.590 8        48.000    22777424.013   121416508.587 7        46.750
R11  20235231.346   108131056.678 9        56.000    20235231.726   108131031.681 9        55.000    20235235.506    84101928.436 9        53.500    20235234.996    84101919.436 8        51.500    20235256.476    81133648.833 2        15.500
R12  21641598.377   115605676.447 8        51.750    21641598.157   115605550.455 8        50.500    21641601.167    89915449.279 8        47.500    21641600.737    89915420.273 7        46.500
R20  22522098.195   120435809.150 6        38.750    22522098.645   120435802.152 6        37.250    22522103.245    93672303.237 7        43.750    22522101.475    93672295.260 7        43.500
R21  21292806.749   113942278.178 8        52.250    21292806.139   113942200.188 8        51.500    21292809.829    88621697.274 8        49.000    21292810.759    88621644.269 8        48.250    21292766.399    85374073.960 8        51.250
R22  23368325.062   124741713.069 6        39.000    23368324.132   124741714.102 6        37.500    23368329.042    97021340.784 4        27.750
E03  24274061.761   127561075.634 8        52.000    24274062.841    97741609.271 9        54.500    24274064.851    95256653.904 8        52.750
E05  26947031.012   141607591.693 7        42.250    26947033.952   108504513.977 7        44.750    26947035.862   105745924.384 7        43.750
E24  27545181.566   144750911.278 7        42.250    27545178.336   110913037.427 7        41.500    27545183.426   108093215.116 7        42.500
E25  24057101.462   126420963.352 8        52.500    24057101.712    96868023.604 9        55.000    24057103.842    94405279.700 9        53.750
J01  44099915.591   231746652.653 5        34.250    44099916.211   180581811.307 5        34.500    44099915.121   173057573.110 6        37.250
C14  25033318.011   130355072.162 7        42.000                    25033310.611                   100798789.820 8                        48.000
C21  24904200.024   129682722.770 7        45.000    24904193.134                   100278865.247 8                        49.750
C24  26210512.401   136485035.485 7        41.750
C26  22294530.484   116093502.790 8        52.250    22294525.994                    89770823.109 9                        56.000
C29  23358980.965   121636398.461 8        48.750    23358975.495                    94056914.200 8                        53.000
C30  26514603.077   138068532.075 6        38.000    26514601.607                   106763311.927 7                        41.750
C33  26654256.578   138795713.313 6        40.500
C35  23626489.246   123029359.947 8        48.750
C36  26622423.622   138629973.153 6        37.250    26622428.852                   107197491.405 7                        44.250
C42  24414291.220   127131644.963 7        45.000
C44  26627642.459   138657122.643 6        36.750
C45  22518763.172   117261150.766 8        51.500    22518765.552                    90673785.068 9                        56.500
> 2021 01 03 00 02  0.0000000  0 38       -.000050672033
G01  24597028.946   129258282.264 6        37.500    24597030.466   129258236.27312        14.750    24597029.696   100720740.456 5        31.000    24597030.166   100720704.42212        14.750    24597033.066    96524027.311 7        47.250
G05  24665219.092   129616615.909 6        39.000    24665219.372   129616608.938 4        24.750    24665222.632   100999953.612 6        40.500    24665219.292   100999954.619 4        24.750
G07  20951336.784   110100059.608 8        51.000    20951336.524   110100057.611 7        44.750    20951336.654    85792266.053 8        50.250    20951336.804    85792264.052 7        44.750
G08  22689634.547   119234907.329 7        45.250    22689635.017   119234898.345 7        45.500    22689638.457    92910325.363 7        47.000    22689638.087    92910323.363 7        45.500    22689635.557    89039062.876 8        52.750
G09  23336783.538   122635631.987 7        41.750    23336782.928   122635639.982 5        32.000    23336785.148    95560234.483 7        44.000    23336786.358    95560241.495 5        32.000    23336785.328    91578561.210 8        50.750
G11  22833304.036   119989880.035 7        43.000    22833303.386   119989854.038 5        31.000                                                    22833303.646    93498598.172 5        31.000
G13  23066177.804   121213590.093 7        43.500    23066177.404   121213582.084 5        32.000                                                    23066177.624    94452142.676 5        32.000
G14  20646127.660   108496201.953 8        50.750    20646127.820   108496197.962 7        44.250    20646128.590    84542515.978 9        55.750    20646128.920    84542508.976 7        44.250    20646130.870    81019915.790 9        59.500
G17  23278151.855   122327544.446 7        42.500    23278151.945   122327543.474 5        31.500    23278153.965    95320170.680 7        42.750    23278153.505    95320170.653 5        31.500
G21  24467855.987   128579468.082 6        37.750    24467854.937   128579436.079 3        20.500                                                    24467857.907   100191769.608 3        20.500
G28  20920732.756   109939265.755 8        49.750    20920731.916   109939231.756 7        42.250                                                    20920732.406    85666946.269 7        42.250
G30  20606847.574   108289768.612 8        52.500    20606846.964   108289769.616 7        47.000    20606850.264    84381653.449 9        54.500    20606849.964    84381653.447 7        47.000    20606848.184    80865757.232 9        59.750
R01  21117259.849   112883884.214 8        48.500    21117259.869   112883880.213 8        47.750    21117267.139    87798578.638 7        44.750    21117266.909    87798550.643 7        42.750
R02  21405892.310   114225975.509 8        49.750    21405891.230   114225975.521 8        49.000    21405899.980    88842395.013 8        49.500    21405900.500    88842408.012 8        48.250
R08  23521752.513   125957946.193 7        45.250    23521753.713   125957917.205 7        44.750    23521755.243    97967252.297 6        40.750    23521756.003    97967264.290 6        40.000
R10  22790610.802   121486836.755 7        44.000    22790611.642   121486829.771 7        43.250
R11  20237534.814   108143362.696 9        56.000    20237534.924   108143337.702 9        55.250    20237537.514    84111499.791 8        52.750    20237537.474    84111490.795 8        51.250    20237556.494    81142882.372 2        14.250
R12  21631329.932   115550842.326 8        48.750    21631330.172   115550716.328 8        48.750    21631337.562    89872800.536 8        49.000    21631337.442    89872771.529 8        48.000
R20  22530471.337   120480582.869 6        39.000    22530471.827   120480575.867 6        37.500    22530480.327    93707127.298 8        47.500    22530479.397    93707119.291 7        45.750
R21  21279249.654   113869732.160 8        52.250    21279250.044   113869654.161 8        51.750    21279254.014    88565272.608 8        49.500    21279253.784    88565219.609 8        48.250    21279209.264    85319717.051 8        50.750
R22  23344189.556   124612870.292 6        39.750    23344187.376   124612871.275 6        38.250    23344195.866    96921129.742 5        31.000    23344196.206    96921119.72915        30.000
E03  24282910.312   127607572.948 8        51.750    24282910.972    97777237.087 9        54.500    24282912.982    95291375.922 8        52.750
E05  26964532.806   141699563.212 7        42.750    26964535.276   108574985.646 7        45.000    26964536.706   105814604.388 7        43.500
E24  27556922.324   144812614.349 7        42.000    27556921.464   110960316.415 7        42.750    27556922.204   108139292.129 6        41.000
E25  24062243.218   126447983.406 8        52.500    24062243.498    96888727.291 9        55.000    24062245.408    94425457.020 9        53.500
J01  44098689.333   231740209.349 5        34.500    44098690.643   180576790.592 5        34.500    44098688.863   173052761.590 6        37.000
C14  25031010.025   130343062.392 6        41.250                    25031003.325                   100789503.133 7                        47.000
C21  24920335.506   129766757.970 7        44.500    24920330.856                   100343846.600 8                        49.750
C24  26197566.335   136417636.976 6        40.250
C26  22287617.853   116057507.031 8        52.000    22287613.353                    89742988.924 9                        55.750
C29  23359661.073   121639939.573 8        49.000    23359655.433                    94059652.427 8                        53.250
C30  26528730.558   138142102.376 6        38.000    26528729.668                   106820201.215 6                        41.250
C33  26645346.502   138749311.645 6        40.000
C35  23611983.059   122953825.667 8        49.000
C36  26635143.386   138696196.007 6        40.250    26635147.106                   107248699.078 7                        44.750
C42  24418944.241   127155874.776 7        46.000
C44  26608681.897   138558396.436 6        38.500
C45  22524897.782   117293095.816 8        51.500    22524900.222                    90698487.013 9                        56.500
> 2021 01 03 00 02 30.0000000  0 38       -.000050672376
G01  24582116.326   129179915.733 5        34.250    24582114.526   129179869.795 3        18.250    24582121.976   100659675.754 6        40.500    24582124.316   100659639.746 3        18.250    24582120.806    96465506.997 8        48.750
G05  24674769.924   129666811.853 6        39.250    24674770.514   129666804.887 3        23.000    24674771.744   101039067.374 6        37.500    24674770.534   101039068.341 3        23.000
G07  20955578.305   110122349.332 8        51.250    20955578.225   110122347.330 7        45.000    20955578.515    85809634.675 8        50.750    20955578.415    85809632.670 7        45.000
G08  22704256.557   119311745.422 7        45.250    22704256.667   119311736.439 7        45.500    22704260.667    92970199.218 7        47.000    22704260.317    92970197.214 7        45.500    22704256.877    89096441.982 8        52.750
G09  23357380.333   122743867.986 7        42.250    23357379.863   122743875.972 5        32.250    23357384.243    95644574.203 7        45.250    23357384.073    95644581.199 5        32.250    23357381.383    91659386.756 8        50.250
G11  22827978.338   119961893.895 7        43.750    22827978.138   119961867.897 5        31.000                                                    22827978.088    93476790.825 5        31.000
G13  23049099.146   121123846.369 7        42.250    23049099.046   121123838.385 5        31.750                                                    23049100.016    94382212.542 5        31.750
G14  20641570.789   108472254.420 8        51.250    20641570.639   108472250.430 7        44.250    20641571.569    84523855.570 9        55.750    20641571.829    84523848.570 7        44.250    20641573.709    81002032.905 9        59.500
G17  23258160.032   122222484.415 7        43.500    23258159.472   122222483.423 5        31.750    23258160.092    95238305.795 7        41.500    23258161.372    95238305.790 5        31.750
G21  24461706.639   128547143.288 6        40.250    24461705.399   128547111.283 3        21.750                                                    24461704.849   100166581.466 3        21.750
G28  20916191.798   109915404.731 8        48.500    20916191.198   109915370.735 7        42.000                                                    20916191.538    85648353.285 7        42.000
G30  20602536.427   108267114.706 8        52.000    20602535.867   108267115.709 7        47.000    20602538.957    84364001.062 9        54.500    20602538.997    84364001.059 7        47.000    20602537.297    80848840.364 9        60.000
R01  21134849.662   112977911.773 8        48.000    21134849.562   112977907.773 8        47.750    21134855.782    87871711.172 7        44.250    21134855.982    87871683.180 7        42.750
R02  21397851.694   114183063.368 8        52.000    21397851.204   114183063.365 8        50.750    21397855.204    88809018.925 7        47.250    21397855.684    88809031.920 7        46.500
R08  23546294.235   126089372.013 7        43.500    23546294.625   126089343.019 7        43.000    23546300.215    98069472.308 7        42.500    23546300.375    98069484.323 6        40.500
R10  22803810.510   121557186.967 7        45.500    22803810.180   121557179.964 7        44.750
R11  20239867.163   108155829.576 9        55.750    20239867.323   108155804.580 9        54.750    20239870.783    84121196.260 8        53.000    20239870.593    84121187.266 8        51.500    20239890.053    81152236.675 2        15.750
R12  21621088.037   115496123.226 8        51.250    21621088.147   115495997.234 8        50.250    21621093.607    89830241.277 8        49.000    21621093.757    89830212.275 8        48.000
R20  22538981.279   120526097.881 6        37.750    22538981.139   120526090.879 6        36.000    22538985.819    93742527.899 6        41.000    22538984.939    93742519.859 7        43.000
R21  21265806.384   113797795.029 8        51.750    21265806.204   113797717.038 8        51.250    21265810.754    88509321.552 8        49.750    21265810.924    88509268.554 8        48.250    21265766.024    85265816.377 8        51.250
R22  23320051.427   124484036.338 6        39.250    23320053.477   124484037.349 6        38.750    23320059.317    96820925.618 5        31.750    23320063.177    96820915.62515        30.500
E03  24291826.579   127654427.746 8        51.750    24291827.189    97813138.815 9        54.250    24291829.139    95326364.899 8        52.750
E05  26982043.402   141791582.629 7        41.750    26982046.012   108645493.995 7        44.500    26982048.072   105883320.148 7        43.500
E24  27568656.380   144874276.362 7        41.500    27568656.020   111007563.929 7        43.500    27568657.980   108185338.381 7        42.250
E25  24067400.777   126475087.031 8        52.250    24067401.277    96909495.010 9        55.000    24067403.207    94445696.748 9        53.500
J01  44097466.848   231733778.056 5        35.000    44097465.458   180571779.226 5        34.500    44097465.118   173047959.037 6        36.750
C14  25028792.438   130331522.631 6        41.000                    25028787.288                   100780579.849 7                        46.750
C21  24936497.484   129850908.900 7        45.250    24936490.944                   100408917.428 8                        49.250
C24  26184622.187   136350238.357 6        38.750
C26  22280726.155   116021619.861 8        52.250    22280721.655                    89715238.697 9                        56.000
C29  23360437.809   121643982.554 8        49.500    23360431.849                    94062778.728 8                        53.000
C30  26542918.446   138215968.035 6        39.250    26542914.236                   106877318.902 7                        42.750
C33  26636511.658   138703317.529 6        37.500
C35  23597531.815   122878573.891 8        48.750
C36  26647863.977   138762451.371 6        37.500    26647868.487                   107299932.100 7                        41.750
C42  24423683.654   127180543.626 7        46.500
C44  26589702.792   138459563.356 6        36.750
C45  22531057.053   117325169.101 8        51.500    22531059.653                    90723288.119 9                        56.500
> 2021 01 03 00 03  0.0000000  0 38       -.000050670762
G01  24567222.176   129101641.695 6        38.750    24567221.666   129101595.701 3        21.500    24567226.036   100598683.114 6        38.750    24567227.276   100598647.079 3        21.500    24567222.126    96407055.621 7        41.500
G05  24684381.051   129717316.601 6        39.250    24684381.691   129717309.608 4        26.750    24684384.541   101078421.689 6        40.250    24684384.431   101078422.685 4        26.750
G07  20959876.125   110144935.297 8        51.250    20959876.295   110144933.303 7        45.000    20959876.675    85827234.135 8        50.500    20959876.365    85827232.129 7        45.000
G08  22718958.127   119389001.502 7        45.750    22718957.937   119388992.522 7        45.250    22718961.477    93030398.763 7        46.500    22718960.977    93030396.757 7        45.250    22718958.967    89154133.211 8        52.750
G09  23378007.682   122852267.924 7        42.250    23378007.652   122852275.935 5        31.750    23378011.482    95729041.658 7        44.000    23378011.332    95729048.688 5        31.750    23378009.922    91740334.755 8        50.500
G11  22822746.612   119934402.549 7        43.250    22822746.332   119934376.555 5        31.000                                                    22822746.372    93455369.036 5        31.000
G13  23032079.702   121034404.251 7        43.250    23032079.222   121034396.251 5        32.250                                                    23032080.182    94312517.422 5        32.250
G14  20637079.359   108448651.719 8        51.500    20637079.179   108448647.730 7        44.250    20637080.249    84505463.873 9        56.000    20637080.339    84505456.871 7        44.250    20637082.209    80984407.532 9        60.000
G17  23238198.022   122117582.636 7        43.750    23238197.912   122117581.637 5        31.750    23238198.562    95156564.225 7        41.750    23238198.642    95156564.236 5        31.750
G21  24455616.201   128515143.343 6        37.500    24455615.271   128515111.333 3        19.750                                                    24455615.081   100141646.445 3        19.750
G28  20911713.776   109891871.630 7        44.750    20911713.176   109891837.650 7        42.500                                                    20911713.456    85630015.820 7        42.500
G30  20598276.021   108244726.148 8        49.000    20598275.611   108244727.152 7        47.000    20598278.671    84346555.441 9        54.500    20598278.691    84346555.437 7        47.000    20598276.811    80832121.643 9        60.000
R01  21152529.991   113072421.918 8        48.500    21152530.011   113072417.929 8        48.000    21152536.641    87945219.068 7        44.250    21152536.791    87945191.065 7        42.500
R02  21389952.433   114140904.053 8        53.250    21389952.263   114140904.056 8        52.500    21389957.333    88776228.332 8        49.000    21389957.213    88776241.324 8        48.000
R08  23570832.475   126220776.474 7        42.500    23570833.205   126220747.477 7        42.000    23570838.695    98171675.750 6        40.500    23570839.245    98171687.761 6        40.000
R10  22817014.933   121627566.098 7        46.250    22817014.623   121627559.091 7        45.000
R11  20242230.514   108168457.058 9        55.500    20242230.444   108168432.062 9        55.000    20242234.094    84131017.645 8        53.000    20242233.894    84131008.646 8        51.750    20242254.084    81161711.355 2        15.500
R12  21610866.922   115441518.884 8        51.500    21610866.232   115441392.882 8        50.250    21610870.852    89787771.230 8        49.000    21610870.972    89787742.235 7        47.250
R20  22547633.178   120572352.462 6        38.000    22547632.888   120572345.469 6        37.750    22547639.998    93778503.656 7        46.750    22547639.448    93778495.656 7        45.750
R21  21252477.252   113726470.694 8        52.500    21252477.722   113726392.700 8        52.000    21252482.272    88453847.116 8        50.000    21252482.112    88453794.116 8        48.000    21252437.362    85212374.863 8        51.250
R22  23295919.677   124355215.452 6        39.000    23295920.507   124355216.439 6        38.500    23295932.547    96720731.694 5        29.500
E03  24300810.272   127701638.868 8        51.750    24300811.212    97849313.579 9        54.250    24300813.162    95361619.960 8        52.750
E05  26999562.698   141883648.251 6        41.000    26999566.118   108716037.751 7        45.000    26999567.688   105952070.434 7        43.500
E24  27580381.728   144935897.118 6        41.250    27580382.018   111054779.841 7        43.000    27580384.498   108231353.905 7        42.500
E25  24072574.001   126502273.584 8        52.000    24072574.691    96930326.274 9        55.000    24072576.831    94465998.399 9        53.750
J01  44096245.568   231727358.755 5        35.000    44096244.348   180566777.192 5        33.750    44096242.898   173043165.450 6        36.500
C14  25026668.967   130320452.956 6        40.750                    25026662.137                   100772020.125 8                        47.750
C21  24952679.543   129935173.023 7        45.500    24952673.963                   100474075.751 8                        49.750
C24  26171681.017   136282839.383 6        40.250
C26  22273854.943   115985841.530 8        52.000    22273850.733                    89687572.636 9                        56.000
C29  23361309.795   121648527.460 8        49.000    23361304.665                    94066293.161 8                        53.000
C30  26557158.171   138290127.104 6        38.500    26557156.051                   106934663.430 7                        43.750
C33  26627757.410   138657731.990 6        37.750
C35  23583136.450   122803607.013 8        49.500
C36  26660595.509   138828739.606 6        36.250    26660600.139                   107351190.328 7                        45.250
C42  24428502.165   127205650.232 7        44.750
C44  26570703.549   138360625.298 6        39.250
C45  22537241.453   117357370.815 8        51.750    22537243.723                    90748188.527 9                        56.500
> 2021 01 03 00 03 30.0000000  0 38       -.000050674135
G01  24552345.404   129023463.514 6        35.500    24552344.904   129023417.493 3        21.500    24552350.984   100537764.918 7        42.750    24552352.724   100537728.919 3        21.500    24552347.744    96348675.816 7        46.750
G05  24694049.233   129768127.394 6        37.500    24694049.613   129768120.418 4        25.750    24694052.043   101118014.451 6        40.000    24694052.933   101118015.452 4        25.750
G07  20964231.163   110167818.503 8        51.500    20964230.823   110167816.501 7        44.500    20964230.833    85845065.198 8        50.250    20964230.883    85845063.191 7        44.500
G08  22733738.586   119466672.913 7        45.000    22733738.226   119466663.913 7        45.000    22733742.576    93090921.936 7        47.250    22733742.216    93090919.923 7        45.000    22733738.846    89212134.580 8        52.500
G09  23398666.881   122960829.357 7        41.500    23398666.161   122960837.340 5        31.750    23398668.921    95813634.966 7        43.750    23398669.241    95813641.954 5        31.750    23398668.191    91821403.306 8        50.500
G11  22817610.552   119907407.814 7        44.250    22817609.482   119907381.832 5        31.500                                                    22817610.432    93434334.209 5        31.500
G13  23015116.437   120945265.675 7        42.250    23015116.137   120945257.670 5        31.500                                                    23015117.387    94243058.814 5        31.500
G14  20632653.171   108425393.265 8        51.500    20632653.421   108425389.270 7        44.000    20632654.361    84487340.415 9        56.000    20632654.521    84487333.418 7        44.000    20632656.271    80967039.223 9        59.500
G17  23218264.828   122012841.510 7        42.250    23218266.378   122012840.527 5        31.750    23218268.298    95074947.871 7        42.250    23218267.178    95074947.858 5        31.750
G21  24449588.151   128483470.255 6        37.250    24449587.251   128483438.243 3        20.750                                                    24449589.681   100116966.220 3        20.750
G28  20907297.776   109868666.128 7        45.000    20907297.256   109868632.133 7        42.250                                                    20907297.466    85611933.624 7        42.250
G30  20594066.380   108222604.175 8        49.000    20594066.080   108222605.184 7        47.000    20594068.880    84329317.554 9        54.250    20594068.830    84329317.547 7        47.000    20594067.250    80815601.998 9        59.750
R01  21170300.520   113167410.546 8        49.000    21170299.580   113167406.557 8        48.000    21170305.520    88019099.097 7        44.000    21170305.610    88019071.100 7        42.500
R02  21382188.622   114099499.659 8        48.750    21382188.372   114099499.666 8        48.250    21382195.222    88744024.980 7        45.750    21382194.342    88744037.980 7        45.250
R08  23595369.655   126352155.822 7        45.250    23595368.405   126352126.814 7        44.000    23595373.215    98273859.619 6        40.250    23595371.995    98273871.635 6        38.750
R10  22830222.547   121697974.172 7        45.250    22830221.197   121697967.184 7        44.000
R11  20244623.060   108181244.926 9        55.250    20244623.150   108181219.929 9        54.750    20244627.320    84140963.776 9        53.500    20244627.190    84140954.781 8        51.750    20244647.880    81171306.48212        14.750
R12  21600663.839   115387028.546 8        50.250    21600663.619   115386902.552 8        49.500    21600670.039    89745389.938 8        48.250    21600670.029    89745360.930 7        47.000
R20  22556419.172   120619344.770 6        37.250    22556418.692   120619337.783 6        36.500    22556426.962    93815053.247 7        45.500    22556425.722    93815045.249 7        45.250
R21  21239263.632   113655762.954 8        52.000    21239264.272   113655684.960 8        51.750    21239268.592    88398852.254 8        49.750    21239268.432    88398799.250 8        48.250    21239224.022    85159395.344 8        51.000
R22  23271788.028   124226411.881 6        39.250    23271789.888   124226412.902 6        38.250    23271800.998    96620551.239 5        30.750    23271800.978    96620541.243 4        28.750
E03  24309861.817   127749205.170 8        51.750    24309862.687    97885760.486 9        54.250    24309864.797    95397140.252 8        53.000
E05  27017091.170   141975758.270 7        41.750    27017093.490   108786615.574 7        44.500    27017095.400   106020853.881 7        43.250
E24  27592102.228   144997476.582 7        41.750    27592099.108   111101964.081 7        42.000    27592101.068   108277338.545 6        41.250
E25  24077763.075   126529542.469 8        52.000    24077763.685    96951220.619 9        54.750    24077765.865    94486361.536 9        53.500
J01  44095025.618   231720951.738 5        34.000    44095026.018   180561784.721 5        33.250    44095023.448   173038381.026 6        36.500
C14  25024633.057   130309853.322 6        40.500                    25024626.877                   100763823.833 8                        48.250
C21  24968884.392   130019547.709 7        45.250    24968876.722                   100539319.591 8                        49.500
C24  26158735.821   136215440.184 6        40.500
C26  22267005.712   115950172.288 8        52.000    22267000.872                    89659990.944 9                        56.000
C29  23362280.608   121653574.393 8        49.500    23362273.898                    94070195.787 8                        53.000
C30  26571455.929   138364577.615 6        37.500    26571452.539                   106992233.294 7                        42.000
C33  26619083.678   138612556.237 6        38.500
C35  23568793.824   122728927.406 8        49.000
C36  26673333.044   138895060.761 7        41.500    26673336.444                   107402474.084 7                        45.500
C42  24433408.922   127231193.281 7        45.750
C44  26551681.543   138261584.259 6        36.750
C45  22543449.491   117389701.166 8        51.500    22543452.351                    90773188.403 9                        56.500
> 2021 01 03 00 04  0.0000000  0 38       -.000050672292
G01  24537488.243   128945384.114 6        38.000    24537487.063   128945338.089 4        24.500    24537494.403   100476924.017 7        43.000    24537493.913   100476888.008 4        24.500    24537488.643    96290370.058 7        45.250
G05  24703775.577   129819241.723 6        36.750    24703776.117   129819234.696 4        24.250    24703779.537   101157843.726 6        39.750    24703778.557   101157844.711 4        24.250
G07  20968642.221   110190999.940 8        51.250    20968642.011   110190997.943 7        44.500    20968641.731    85863128.660 8        49.750    20968642.201    85863126.651 7        44.500
G08  22748598.151   119544757.153 7        45.250    22748597.351   119544748.150 7        45.000    22748601.891    93151766.785 7        47.250    22748600.631    93151764.784 7        45.000    22748597.871    89270444.245 8        52.500
G09  23419354.636   123069549.562 7        41.750    23419354.696   123069557.593 5        31.250    23419357.686    95898352.029 7        43.250    23419358.386    95898359.021 5        31.250    23419356.546    91902590.485 8        50.000
G11  22812567.876   119880911.218 7        43.000    22812566.836   119880885.217 5        31.250                                                    22812567.736    93413687.537 5        31.250
G13  22998211.666   120856433.320 7        42.250    22998212.066   120856425.342 5        31.250                                                    22998213.126    94173838.853 5        31.250
G14  20628292.796   108402478.452 8        50.750    20628292.676   108402474.461 7        44.000    20628293.826    84469484.732 9        55.750    20628293.636    84469477.736 7        44.000    20628295.786    80949927.531 9        60.000
G17  23198366.777   121908264.242 7        43.750    23198365.637   121908263.264 5        32.500    23198367.577    94993459.182 7        43.500    23198367.707    94993459.163 5        32.500
G21  24443624.921   128452126.242 6        38.750    24443623.681   128452094.237 3        22.000                                                    24443624.121   100092542.353 3        22.000
G28  20902944.651   109845786.842 8        49.500    20902943.581   109845752.837 7        42.250                                                    20902943.741    85594105.619 7        42.250
G30  20589907.639   108200749.998 8        52.250    20589907.449   108200751.004 7        47.000    20589910.079    84312288.328 9        54.000    20589910.249    84312288.323 7        47.000    20589908.429    80799282.327 9        60.250
R01  21188157.140   113262872.719 8        48.500    21188157.640   113262868.742 8        48.000    21188162.730    88093347.466 7        43.500    21188164.100    88093319.465 7        42.250
R02  21374574.190   114058852.222 8        51.500    21374573.680   114058852.226 8        51.000    21374581.880    88712410.242 8        50.000    21374581.740    88712423.240 8        49.000
R08  23619898.451   126483505.825 7        44.500    23619897.331   126483476.833 7        43.000    23619902.721    98376020.620 7        42.750    23619902.341    98376032.633 6        40.750
R10  22843438.528   121768411.887 7        47.000    22843437.368   121768404.881 7        45.500
R11  20247046.712   108194193.010 9        55.750    20247046.702   108194168.008 9        54.750    20247050.152    84151034.506 8        53.250    20247050.132    84151025.509 8        51.500    20247070.642    81181021.829 2        15.250
R12  21590486.489   115332652.284 8        51.750    21590486.319   115332526.287 8        50.750    21590490.819    89703097.312 8        49.250    21590491.529    89703068.310 8        47.750
R20  22565342.578   120667073.085 6        37.000    22565344.278   120667066.116 6        36.250    22565353.198    93852175.309 7        45.500    22565352.388    93852167.286 7        44.500
R21  21226167.315   113585675.834 8        52.000    21226166.815   113585597.834 8        51.250    21226170.685    88344340.086 8        49.750    21226170.645    88344287.080 8        48.250    21226126.565    85106880.839 8        51.250
R22  23247666.437   124097629.935 6        40.250    23247666.197   124097630.939 6        39.250    23247671.887    96520387.554 5        31.000    23247673.297    96520377.574 5        29.750
E03  24318981.199   127797125.455 8        51.750    24318981.619    97922478.624 9        54.000    24318983.669    95432924.876 8        52.750
E05  27034627.318   142067910.990 7        42.500    27034629.638   108857226.075 7        44.500    27034632.008   106089669.210 7        43.500
E24  27603811.789   145059014.612 7        42.500    27603810.009   111149116.650 7        42.500    27603812.639   108323292.331 7        42.000
E25  24082967.998   126556893.052 8        52.250    24082968.298    96972177.560 9        54.750    24082970.318    94506785.678 9        53.500
J01  44093808.834   231714557.125 5        34.000    44093806.984   180556801.921 5        32.500    44093806.464   173033605.861 6        36.000
C14  25022689.710   130299723.702 7        42.500                    25022681.950                   100755990.976 8                        48.250
C21  24985108.091   130104030.439 7        45.250    24985100.711                   100604646.986 8                        49.250
C24  26145794.874   136148040.551 6        41.250
C26  22260176.573   115914612.454 8        52.250    22260171.923                    89632493.833 9                        56.000
C29  23363345.355   121659123.405 8        49.500    23363339.505                    94074486.645 8                        53.000
C30  26585809.994   138439317.610 6        38.750    26585805.454                   107050027.015 6                        40.000
C33  26610488.436   138567791.512 6        38.500
C35  23554508.315   122654537.445 8        49.250
C36  26686071.907   138961415.155 6        36.750    26686075.497                   107453783.498 6                        38.250
C42  24438397.964   127257171.395 7        45.750
C44  26532644.348   138162442.182 6        39.500
C45  22549683.272   117422160.314 8        51.750    22549685.692                    90798287.881 9                        56.500
> 2021 01 03 00 04 30.0000000  0 38       -.000050671627
G01  24522648.821   128867407.178 5        34.250    24522649.961   128867361.181 2        15.500    24522650.031   100416162.756 5        34.750    24522648.471   100416126.705 2        15.500    24522644.191    96232140.444 6        39.250
G05  24713562.048   129870656.594 6        38.500    24713561.748   129870649.581 4        24.500    24713559.438   101197907.282 6        36.250    24713561.728   101197908.269 4        24.500
G07  20973110.364   110214479.843 8        51.250    20973110.194   110214477.839 7        44.750    20973110.324    85881424.681 8        50.250    20973110.254    85881422.672 7        44.750
G08  22763534.880   119623251.325 7        45.500    22763534.220   119623242.321 7        45.250    22763537.570    93212931.083 7        46.250    22763537.450    93212929.078 7        45.250    22763534.430    89329060.028 8        52.250
G09  23440073.946   123178426.171 6        41.000    23440073.016   123178434.161 5        31.000    23440078.246    95983190.914 7        45.000    23440077.636    95983197.893 5        31.000    23440076.036    91983894.393 8        50.250
G11  22807621.048   119854914.782 7        43.500    22807619.788   119854888.777 5        31.250                                                    22807621.458    93393430.610 5        31.250
G13  22981366.878   120767910.383 7        43.250    22981366.688   120767902.395 5        32.250                                                    22981367.888    94104859.961 5        32.250
G14  20623997.609   108379906.595 8        48.500    20623997.459   108379902.603 7        44.250    20623998.349    84451896.290 9        56.000    20623998.519    84451889.291 7        44.250    20624000.489    80933071.944 9        59.750
G17  23178495.731   121803852.997 7        41.500    23178496.131   121803851.997 5        32.500    23178498.821    94912099.795 7        43.000    23178498.111    94912099.797 5        32.500
G21  24437723.473   128421113.223 6        39.000    24437722.513   128421081.224 3        21.750                                                    24437722.213   100068376.399 3        21.750
G28  20898652.498   109823232.814 8        51.000    20898651.568   109823198.811 7        42.000                                                    20898651.888    85576531.078 7        42.000
G30  20585800.319   108179164.855 8        52.000    20585799.709   108179165.859 7        47.000    20585802.629    84295468.740 9        54.500    20585802.689    84295468.734 7        47.000    20585800.899    80783163.556 9        59.750
R01  21206103.546   113358804.539 8        48.500    21206103.426   113358800.546 8        47.500    21206110.516    88167961.072 7        43.750    21206109.956    88167933.071 7        42.000
R02  21367101.129   114018962.607 8        53.250    21367100.109   114018962.608 8        52.250    21367102.319    88681385.035 7        46.000    21367102.249    88681398.036 7        45.250
R08  23644419.442   126614822.230 7        43.500    23644420.142   126614793.248 7        43.750    23644425.532    98478155.621 7        41.750    23644425.302    98478167.598 6        41.250
R10  22856653.459   121838879.240 7        43.500    22856654.239   121838872.242 7        43.250
R11  20249499.667   108207301.090 9        55.750    20249499.647   108207276.093 9        55.000    20249503.367    84161229.702 9        53.500    20249503.167    84161220.703 8        51.750    20249521.457    81190857.187 2        14.750
R12  21580328.396   115278389.549 8        51.750    21580327.856   115278263.554 8        51.000    21580332.456    89660892.999 8        49.000    21580333.396    89660863.996 8        47.500
R20  22574407.999   120715535.538 6        37.750    22574408.119   120715528.547 6        37.250    22574414.559    93889868.322 7        45.250    22574413.589    93889860.328 7        44.500
R21  21213185.444   113516213.170 8        51.750    21213185.774   113516135.177 8        51.250    21213189.564    88290313.621 8        49.250    21213189.954    88290260.613 8        48.500    21213145.774    85054834.233 8        51.250
R22  23223546.775   123968873.916 6        40.000    23223545.095   123968874.945 6        39.250    23223550.625    96420244.084 4        29.000    23223550.595    96420234.09114        29.000
E03  24328166.873   127845398.537 8        51.750    24328167.743    97959467.092 9        54.250    24328169.703    95468972.964 8        52.750
E05  27052171.501   142160104.746 7        42.000    27052174.071   108927868.003 7        44.750    27052175.811   106158515.163 7        43.500
E24  27615514.305   145120511.255 7        42.500    27615512.985   111196237.374 7        43.000    27615515.155   108369215.091 7        42.750
E25  24088187.707   126584324.768 8        52.000    24088188.427    96993196.676 9        54.750    24088190.257    94527270.411 8        53.250
J01  44092594.325   231708175.210 5        35.000    44092591.295   180551829.017 5        32.500    44092591.345   173028840.189 6        35.500
C14  25020835.238   130290063.910 7        42.250                    25020827.588                   100748521.445 8                        49.500
C21  25001349.896   130188618.665 7        44.500    25001345.466                   100670055.940 8                        49.750
C24  26132851.006   136080640.416 6        39.500
C26  22253368.100   115879162.267 8        52.000    22253363.920                    89605081.510 9                        55.750
C29  23364507.350   121665174.490 8        49.250    23364501.530                    94079165.752 8                        53.250
C30  26600215.464   138514345.041 6        38.500    26600213.004                   107108043.083 6                        40.250
C33  26601966.871   138523438.959 5        33.250
C35  23540278.793   122580439.466 8        49.250
C36  26698826.061   139027802.998 6        37.000
C42  24443470.166   127283583.199 7        46.000
C44  26513585.484   138063201.140 6        37.500
C45  22555942.161   117454748.490 8        51.500    22555943.911                    90823487.139 9                        56.250
> 2021 01 03 00 05  0.0000000  0 38       -.000050672351
G01  24507828.107   128789535.560 5        34.500    24507828.117   128789504.59714        23.500    24507837.897   100355483.690 7        44.000    24507837.097   100355457.67714        23.500    24507832.897    96173989.691 8        47.750
G05  24723401.139   129922368.912 6        37.500    24723400.869   129922361.915 4        25.500    24723403.479   101238202.579 6        39.000    24723403.579   101238203.544 4        25.500
G07  20977635.462   110238259.117 8        51.500    20977635.142   110238257.119 7        44.500    20977635.252    85899953.981 8        50.250    20977635.352    85899951.978 7        44.500
G08  22778548.899   119702153.373 7        45.000    22778548.669   119702144.371 7        44.750    22778552.479    93274413.188 7        46.500    22778552.049    93274411.195 7        44.750    22778549.259    89387980.394 8        52.500
G09  23460822.296   123287456.485 7        42.500    23460821.506   123287464.485 5        30.750    23460825.516    96068149.560 7        44.000    23460824.826    96068156.549 5        30.750    23460823.536    92065313.116 8        50.250
G11  22802769.326   119829420.150 7        44.000    22802768.806   119829394.154 5        31.500                                                    22802769.126    93373564.693 5        31.500
G13  22964581.873   120679699.273 7        43.000    22964580.953   120679691.274 5        32.000                                                    22964581.333    94036124.078 5        32.000
G14  20619767.183   108357677.087 7        45.250    20619767.183   108357673.095 7        44.250    20619768.313    84434574.615 9        56.000    20619768.353    84434567.607 7        44.250    20619770.293    80916472.007 9        59.750
G17  23158659.656   121699610.545 7        43.250    23158659.616   121699609.546 5        31.750    23158660.686    94830871.972 6        41.250    23158660.036    94830871.985 5        31.750
G21  24431882.825   128390433.335 6        37.250    24431881.945   128390401.348 3        20.250                                                    24431885.485   100044470.089 3        20.250
G28  20894422.021   109801003.112 8        51.000    20894421.501   109800969.123 7        42.500                                                    20894421.611    85559209.257 7        42.500
G30  20581744.186   108157849.960 8        49.500    20581743.586   108157850.968 7        47.250    20581746.696    84278859.742 9        54.500    20581746.506    84278859.736 7        47.250    20581744.776    80767246.602 9        60.250
R01  21224136.594   113455201.479 8        48.250    21224136.374   113455197.497 7        47.250    21224142.424    88242936.457 7        43.250    21224143.494    88242908.462 7        42.250
R02  21359765.799   113979832.581 8        51.750    21359765.919   113979832.590 8        51.000    21359773.329    88650950.615 8        50.250    21359773.079    88650963.611 8        48.750
R08  23668937.028   126746101.464 7        45.250    23668936.138   126746072.452 7        43.250    23668937.998    98580261.565 6        40.250    23668939.078    98580273.568 6        39.500
R10  22869881.935   121909376.527 7        45.750    22869880.435   121909369.531 7        44.000
R11  20251982.398   108220569.002 9        55.750    20251982.538   108220544.000 9        55.000    20251985.838    84171549.177 8        53.250    20251985.758    84171540.182 8        51.500    20252005.388    81200812.499 2        15.000
R12  21570189.227   115224239.958 8        49.250    21570188.917   115224113.962 8        49.000    21570196.287    89618776.669 8        49.500    21570196.427    89618747.671 8        48.000
R20  22583605.992   120764730.097 6        37.250    22583605.772   120764723.096 6        36.000    22583615.962    93928130.771 7        46.500    22583614.672    93928122.760 7        45.250
R21  21200322.485   113447378.743 8        52.000    21200322.615   113447300.753 8        51.250    21200325.825    88236775.772 8        49.500    21200326.235    88236722.770 8        48.250    21200282.235    85003258.343 8        51.250
R22  23199431.278   123840148.542 6        40.500    23199431.318   123840149.540 6        39.250    23199437.718    96320124.451 5        30.000    23199436.568    96320114.442 4        28.750
E03  24337419.920   127894023.215 8        51.750    24337420.670    97996724.966 9        54.250    24337422.730    95505283.603 8        52.750
E05  27069723.025   142252337.749 7        41.500    27069724.965   108998540.010 7        44.750    27069727.195   106227390.417 7        43.250
E24  27627207.598   145181966.210 6        40.000    27627206.828   111243326.312 7        42.000    27627208.188   108415106.791 6        41.000
E25  24093423.248   126611836.981 8        52.250    24093423.958    97014277.473 9        55.000    24093425.758    94547815.255 9        53.500
J01  44091383.077   231701806.027 5        33.750    44091383.137   180546866.054 5        32.250    44091378.777   173024084.027 5        35.250
C14  25019068.757   130280873.973 7        42.500                    25019061.477                   100741415.196 8                        48.250
C21  25017615.882   130273309.813 7        45.250    25017609.502                   100735544.502 8                        49.250
C24  26119908.627   136013239.714 6        39.500
C26  22246581.158   115843822.038 8        51.500    22246577.368                    89577754.218 9                        56.000
C29  23365765.542   121671727.668 8        49.000    23365760.012                    94084233.110 8                        53.250
C30  26614679.383   138589657.927 6        38.250    26614677.473                   107166279.840 7                        42.000
C33  26593529.330   138479499.697 6        39.500
C35  23526105.263   122506635.855 8        49.750
C36  26711578.790   139094224.226 6        39.750
C42  24448625.781   127310427.335 7        45.500
C44  26494511.895   137963863.101 6        38.000
C45  22562224.972   117487465.917 8        51.250    22562227.032                    90848786.325 9                        56.250
> 2021 01 03 00 05 30.0000000  0 39       -.000050672887
G01  24493032.102   128711773.184 6        38.000    24493032.152   128711742.188 4        26.250    24493040.782   100294889.690 7        44.250    24493039.462   100294863.674 4        26.250    24493035.132    96115920.508 8        47.500
G05  24733299.036   129974376.455 6        38.750    24733298.796   129974369.453 4        25.250    24733299.386   101278727.906 6        38.750    24733299.466   101278728.900 4        25.250
G07  20982217.611   110262338.512 8        51.500    20982217.461   110262336.516 7        44.500    20982217.431    85918717.137 8        50.000    20982217.411    85918715.140 7        44.500
G08  22793640.345   119781460.456 7        44.750    22793640.205   119781451.478 7        44.750    22793644.015    93336210.950 7        46.250    22793644.025    93336208.948 7        44.750    22793640.965    89447203.236 8        52.500
G09  23481597.395   123396638.003 6        41.250    23481598.295   123396646.000 5        31.000    23481602.205    96153226.031 7        44.250    23481601.345    96153233.034 5        31.000    23481599.485    92146844.727 8        49.500
G11  22798014.057   119804428.886 7        43.250    22798012.917   119804402.888 5        31.250                                                    22798013.907    93354091.015 5        31.250
G13  22947855.530   120591802.832 7        43.000    22947854.310   120591794.832 5        30.500                                                    22947855.130    93967633.383 5        30.500
G14  20615602.001   108335789.300 8        49.000    20615602.151   108335785.315 7        44.000    20615603.281    84417519.219 9        56.000    20615603.101    84417512.219 7        44.000    20615605.171    80900127.254 9        59.000
G17  23138854.698   121595539.877 7        42.000    23138855.158   121595538.890 5        32.500    23138858.038    94749778.010 7        43.500    23138858.058    94749778.007 5        32.500
G19  25621926.077   134644139.55715        34.250
G21  24426108.843   128360088.592 6        38.000    24426109.373   128360056.596 3        20.250                                                    24426110.113   100020824.882 3        20.250
G28  20890253.367   109779097.053 8        50.750    20890252.917   109779063.052 7        42.000                                                    20890253.117    85542139.608 7        42.000
G30  20577739.550   108136806.534 8        51.750    20577739.060   108136807.540 7        47.000    20577742.190    84262462.272 9        54.500    20577742.210    84262462.266 7        47.000    20577740.350    80751532.362 9        59.250
R01  21242254.382   113552059.051 8        48.000    21242256.062   113552055.063 8        47.500    21242262.002    88318270.110 7        43.250    21242262.492    88318242.111 7        42.000
R02  21352574.111   113941464.001 8        49.750    21352573.381   113941463.999 8        49.250    21352580.451    88621108.340 7        47.250    21352579.841    88621121.341 7        46.250
R08  23693443.304   126877339.847 7        44.500    23693443.374   126877310.866 7        43.500    23693446.654    98682335.855 6        40.500    23693447.524    98682347.847 6        39.750
R10  22883111.501   121979903.570 7        44.750    22883110.301   121979896.581 7        43.500
R11  20254495.984   108233996.691 9        56.500    20254495.834   108233971.696 9        55.250    20254499.664    84181992.957 9        53.750    20254499.134    84181983.966 8        51.750    20254520.264    81210887.68812        15.500
R12  21560075.202   115170203.145 8        52.000    21560075.042   115170077.153 8        51.000    21560079.832    89576748.085 8        49.500    21560080.362    89576719.081 8        48.000
R20  22592942.993   120814654.907 6        36.000    22592941.533   120814647.930 6        35.500    22592949.333    93966961.194 7        44.500    22592948.943    93966953.170 7        43.750
R21  21187576.686   113379176.336 8        51.500    21187577.596   113379098.340 8        51.000    21187582.026    88183729.493 8        50.000    21187581.496    88183676.492 8        48.500    21187537.036    84952156.006 8        51.250
R22  23175323.451   123711457.671 6        40.750    23175322.271   123711458.666 6        39.750    23175335.121    96220031.650 5        31.750    23175330.991    96220021.650 5        30.000
E03  24346739.383   127942998.270 8        51.500    24346740.323    98034251.307 9        54.250    24346742.353    95541855.888 8        52.750
E05  27087280.671   142344608.274 6        41.000    27087283.241   109069240.786 7        44.250    27087284.841   106296293.708 7        43.250
E24  27638894.754   145243379.681 6        40.500    27638893.214   111290383.324 7        42.500    27638897.584   108460967.490 7        43.000
E25  24098674.016   126639429.110 8        52.000    24098674.506    97035419.498 9        55.000    24098676.516    94568419.776 9        53.500
J01  44090172.440   231695449.862 5        34.500    44090171.540   180541913.227 5        32.000    44090167.300   173019337.593 5        34.250
C14  25017393.487   130272153.719 7        41.750                    25017387.357                   100734672.170 8                        48.750
C21  25033898.541   130358101.350 7        44.000    25033892.271                   100801110.675 8                        49.250
C24  26106962.107   135945838.437 6        38.750
C26  22239816.180   115808592.025 8        52.000    22239811.840                    89550512.155 9                        56.000
C29  23367120.916   121678782.949 8        49.250    23367114.866                    94089688.711 8                        53.250
C30  26629198.118   138665254.303 6        36.500    26629194.588                   107224735.776 7                        42.500
C33  26585172.766   138435974.973 6        39.000
C35  23511989.197   122433128.925 8        49.250
C36  26724341.290   139160679.501 6        38.500
C42  24453863.258   127337702.429 7        45.500
C44  26475415.902   137864430.047 6        39.250
C45  22568532.451   117520312.767 8        51.500    22568535.031                    90874185.590 9                        56.500
> 2021 01 03 00 06  0.0000000  0 39       -.000050674618
G01  24478252.104   128634122.837 5        32.250                                                    24478259.044   100234382.870 5        35.000                                                    24478252.454    96057934.949 6        40.000
G05  24743248.921   130026676.520 6        37.500    24743249.041   130026669.533 4        24.250    24743252.431   101319481.196 6        39.500    24743252.661   101319482.198 4        24.250
G07  20986857.152   110286719.220 8        50.750    20986856.942   110286717.218 7        44.500    20986856.832    85937715.093 8        50.000    20986856.922    85937713.083 7        44.500
G08  22808808.187   119861169.885 7        44.000    22808808.107   119861160.908 7        44.750    22808813.377    93398322.177 7        47.000    22808812.377    93398320.191 7        44.750    22808808.927    89506726.522 8        52.250
G09  23502401.613   123505968.081 6        41.250    23502403.233   123505976.096 5        31.000    23502405.883    96238418.306 7        43.750    23502406.203    96238425.300 5        31.000    23502405.263    92228487.309 8        50.000
G11  22793353.384   119779942.621 7        42.750    22793353.564   119779916.648 5        31.250                                                    22793354.444    93335010.848 5        31.250
G13  22931189.608   120504223.617 7        43.000    22931189.368   120504215.627 5        30.750                                                    22931190.008    93899389.880 5        30.750
G14  20611502.096   108314242.558 8        50.750    20611502.036   108314238.572 7        44.000    20611502.746    84400729.562 9        55.500    20611502.996    84400722.557 7        44.000    20611504.976    80884037.172 9        59.750
G17  23119086.190   121491643.427 7        43.500    23119084.580   121491642.425 5        32.750    23119086.380    94668819.771 7        42.750    23119087.370    94668819.764 5        32.750
G19  25599970.118   134528756.966 5        33.750    25599967.518   134528741.98913        18.250                                                    25599969.738   104827592.37913        18.250
G21  24420399.060   128330080.832 6        38.000    24420399.410   128330048.857 3        21.000                                                    24420399.080    99997442.247 3        21.000
G28  20886146.330   109757513.448 8        50.750    20886145.530   109757479.448 7        42.000                                                    20886145.680    85525321.239 7        42.000
G30  20573787.314   108116035.807 9        53.500    20573786.664   108116036.813 7        47.000    20573789.854    84246277.301 9        54.250    20573789.624    84246277.296 7        47.000    20573787.844    80736021.766 9        59.750
R01  21260459.824   113649372.780 8        47.500    21260459.814   113649368.796 7        47.250    21260466.394    88393958.553 7        43.500    21260466.964    88393930.557 7        42.250
R02  21345527.967   113903858.805 8        51.500    21345527.497   113903858.807 8        51.000    21345534.927    88591859.895 8        49.250    21345534.397    88591872.890 8        48.000
R08  23717944.854   127008533.231 7        45.750    23717943.374   127008504.230 7        44.000    23717947.554    98784375.104 6        40.750    23717947.074    98784387.083 6        40.000
R10  22896347.634   122050460.943 7        45.000    22896347.534   122050453.942 7        44.250
R11  20257037.862   108247583.894 9        56.000    20257037.852   108247558.895 9        54.500    20257041.082    84192560.790 8        53.250    20257041.332    84192551.795 8        51.750    20257061.212    81221082.528 2        15.000
R12  21549979.979   115116278.907 8        50.750    21549979.749   115116152.911 8        50.250    21549985.239    89534807.050 8        48.750    21549985.579    89534778.048 8        47.750
R20  22602415.544   120865307.864 6        38.750    22602417.054   120865300.874 6        37.750    22602422.484    94006357.944 7        45.250    22602422.604    94006349.934 7        45.000
R21  21174950.841   113311609.638 8        52.000    21174950.571   113311531.652 8        51.250    21174954.871    88131177.668 8        49.750    21174954.911    88131124.669 8        48.750    21174910.471    84901530.001 8        51.250
R22  23151225.279   123582806.059 7        42.500    23151223.799   123582807.065 6        40.250    23151231.559    96119969.394 5        31.750    23151229.639    96119959.37615        29.500
E03  24356125.613   127992322.484 8        51.750    24356126.403    98072045.185 9        54.250    24356128.373    95578688.899 8        52.500
E05  27104846.185   142436914.588 7        41.500    27104848.465   109139968.992 7        44.250    27104851.145   106365223.732 7        43.250
E24  27650573.482   145304751.355 6        40.750    27650572.972   111337408.358 7        42.750    27650573.562   108506796.983 7        41.500
E25  24103939.534   126667100.553 8        51.750    24103940.034    97056622.288 9        55.000    24103942.114    94589083.514 8        53.250
J01  44088964.023   231689106.838 5        34.000    44088964.493   180536970.637 5        32.000    44088960.123   173014600.972 5        33.250
C14  25015810.355   130263903.049 7        42.000                    25015802.225                   100728292.246 8                        48.250
C21  25050199.996   130442990.769 7        44.250    25050194.936                   100866752.538 8                        49.500
C24  26094019.724   135878436.433 6        41.000
C26  22233071.958   115773472.549 8        52.250    22233067.358                    89523355.567 9                        56.000
C29  23368572.951   121686340.260 8        49.500    23368566.061                    94095532.529 8                        53.250
C30  26643767.806   138741132.183 6        37.250    26643766.436                   107283409.352 7                        42.750
C33  26576892.969   138392865.722 6        37.250
C35  23497930.670   122359921.032 8        50.000
C36  26737109.162   139227168.704 6        36.500
C42  24459182.098   127365407.047 7        45.500
C44  26456300.164   137764904.049 6        39.000
C45  22574864.891   117553289.269 8        51.250    22574867.741                    90899685.112 9                        56.250
> 2021 01 03 00 06 30.0000000  0 39       -.000050674490
G01  24463498.458   128556587.994 5        32.250    24463498.478   128556550.021 3        22.250    24463506.538   100173966.286 7        43.000    24463508.498   100173936.271 3        22.250    24463503.348    96000035.554 7        47.250
G05  24753257.619   130079266.960 6        37.500    24753257.939   130079259.990 4        24.750    24753259.929   101360460.733 6        38.500    24753260.289   101360461.731 4        24.750
G07  20991553.689   110311401.786 8        50.750    20991553.789   110311399.793 7        44.500    20991554.209    85956948.271 8        50.000    20991553.819    85956946.261 7        44.500
G08  22824052.098   119941278.751 7        44.000    22824052.578   119941269.761 7        44.750    22824056.618    93460744.678 7        46.250    22824055.828    93460742.683 7        44.750    22824053.258    89566548.068 8        52.250
G09  23523235.546   123615444.284 7        41.500    23523235.736   123615452.274 5        31.000    23523237.476    96323724.426 7        41.750    23523238.636    96323731.398 5        31.000    23523237.466    92310238.978 8        49.750
G11  22788790.853   119755963.226 7        44.750    22788790.503   119755937.244 5        31.250                                                    22788790.213    93316325.629 5        31.250
G13  22914584.453   120416964.447 7        43.250    22914583.563   120416956.451 5        31.000                                                    22914585.043    93831395.785 5        31.000
G14  20607466.159   108293036.215 8        51.250    20607466.549   108293032.225 7        44.250    20607467.569    84384205.150 9        56.000    20607467.599    84384198.151 7        44.250    20607469.519    80868201.280 9        60.000
G17  23099347.214   121387923.803 7        43.500    23099347.764   121387922.808 5        32.500    23099348.454    94587999.331 7        42.250    23099348.434    94587999.332 5        32.500
G19  25577997.966   134413290.619 6        36.000    25577994.986   134413275.618 3        19.000                                                    25577997.566   104737618.756 3        19.000
G21  24414753.482   128300412.544 6        37.250    24414752.662   128300380.533 3        20.500                                                    24414753.432    99974324.109 3        20.500
G28  20882100.434   109736251.930 8        51.250    20882099.634   109736217.926 7        42.250                                                    20882099.714    85508753.835 7        42.250
G30  20569886.840   108095539.000 9        53.750    20569886.320   108095540.004 7        47.000    20569889.400    84230305.766 9        54.500    20569889.170    84230305.760 7        47.000    20569887.330    80720715.714 9        60.000
R01  21278749.361   113747138.318 8        48.000    21278749.891   113747134.330 7        47.000    21278755.971    88469998.394 7        44.000    21278756.071    88469970.408 7        42.000
R02  21338624.384   113867017.565 8        52.000    21338624.074   113867017.575 8        51.000    21338630.144    88563205.598 8        49.000    21338630.074    88563218.595 8        47.500
R08  23742432.784   127139677.862 7        44.500    23742433.294   127139648.879 7        43.750    23742435.334    98886376.406 6        39.750    23742435.924    98886388.394 6        38.250
R10  22909588.688   122121048.748 7        43.250    22909588.628   122121041.733 7        42.750
R11  20259611.060   108261330.535 9        56.500    20259611.390   108261305.541 9        55.500    20259613.660    84203252.626 8        53.250    20259613.840    84203243.635 8        51.750    20259631.950    81231397.04812        15.250
R12  21539905.534   115062466.884 8        51.000    21539905.894   115062340.886 8        50.250    21539911.314    89492953.289 8        49.000    21539911.634    89492924.287 8        48.000
R20  22612023.896   120916686.839 6        37.750    22612023.956   120916679.868 6        36.250    22612032.316    94046319.364 7        46.250    22612030.726    94046311.353 7        45.250
R21  21162443.802   113244682.774 8        52.500    21162443.862   113244604.785 8        51.750    21162448.022    88079123.474 8        50.000    21162447.642    88079070.475 8        48.500    21162403.512    84851383.396 8        51.500
R22  23127128.529   123454197.724 6        39.000    23127128.929   123454198.739 6        39.250    23127134.739    96019940.781 4        29.250    23127134.979    96019930.772 4        29.000
E03  24365577.914   128041994.623 8        51.500    24365578.734    98110105.656 9        54.250    24365580.694    95615781.733 8        52.500
E05  27122418.172   142529254.987 7        41.750    27122420.082   109210723.299 7        44.250    27122423.302   106434179.199 7        43.250
E24  27662243.281   145366081.352 6        40.500    27662243.491   111384401.500 7        43.000    27662243.991   108552595.336 6        41.250
E25  24109220.226   126694850.715 8        51.750    24109220.706    97077885.407 9        55.000    24109222.766    94609806.047 8        53.250
J01  44087761.616   231682777.155 5        34.500    44087758.616   180532038.449 5        32.000    44087754.746   173009874.288 5        32.750
C14  25014314.545   130256121.695 7        42.000                    25014307.845                   100722275.227 8                        48.250
C21  25066521.998   130527975.407 7        45.000    25066515.328                   100932468.041 8                        49.250
C24  26081074.439   135811033.657 6        40.250
C26  22226348.936   115738463.871 8        52.000    22226344.436                    89496284.647 9                        56.000
C29  23370119.777   121694399.603 8        49.000    23370113.797                    94101764.530 8                        53.250
C30  26658394.587   138817289.459 6        38.500    26658391.247                   107342299.048 6                        41.000
C33  26568693.614   138350173.283 6        39.250
C35  23483928.941   122287014.513 8        49.500
C36  26749883.637   139293692.150 6        36.250
C42  24464588.036   127393539.755 7        46.250
C44  26437169.810   137665287.066 6        36.750
C45  22581222.825   117586395.604 8        51.500    22581225.295                    90925285.042 9                        56.000
> 2021 01 03 00 07  0.0000000  0 39       -.000050667824
G01  24448769.845   128479172.000 6        36.750    24448769.115   128479134.015 3        23.000    24448775.445   100113642.268 6        40.750    24448775.275   100113612.251 3        23.000    24448771.575    95942225.082 7        45.750
G05  24763323.217   130132144.250 6        39.250    24763320.187   130132137.217 4        25.000    24763321.947   101401663.754 6        38.500    24763321.857   101401664.752 4        25.000
G07  20996308.616   110336386.790 8        51.000    20996308.116   110336384.795 7        44.500    20996308.086    85976417.095 8        50.000    20996308.456    85976415.086 7        44.500
G08  22839373.207   120021784.592 7        45.250    22839372.697   120021775.602 7        44.750    22839375.197    93523476.487 7        45.250    22839375.717    93523474.501 7        44.750    22839372.587    89626666.074 8        52.000
G09  23544096.139   123725063.905 7        42.750    23544095.969   123725071.904 5        30.250    23544098.069    96409142.281 7        43.500    23544098.339    96409149.255 5        30.250    23544096.889    92392097.772 8        49.500
G11  22784324.858   119732492.204 7        45.500    22784324.368   119732466.196 5        31.250                                                    22784324.398    93298036.536 5        31.250
G13  22898041.876   120330027.676 7        44.000    22898041.036   120330019.675 5        32.000                                                    22898040.766    93763652.873 5        32.000
G14  20603495.720   108272169.624 8        51.250    20603495.700   108272165.626 7        44.250    20603496.610    84367945.483 9        55.500    20603496.800    84367938.481 7        44.250    20603498.720    80852619.098 9        59.750
G17  23079644.314   121284383.722 7        43.750    23079644.844   121284382.708 5        33.250    23079646.284    94507318.813 7        42.750    23079645.864    94507318.800 5        33.250
G19  25556007.037   134297742.337 5        34.250    25556007.707   134297727.322 3        19.250                                                    25556009.237   104647581.351 3        19.250
G21  24409173.372   128271085.410 6        36.750    24409170.862   128271053.398 3        21.500                                                    24409175.592    99951471.895 3        21.500
G28  20878115.476   109715311.318 8        51.250    20878114.746   109715277.322 7        42.500                                                    20878114.976    85492436.486 7        42.500
G30  20566038.846   108075317.362 9        54.000    20566038.256   108075318.362 7        47.000    20566041.146    84214548.650 9        54.250    20566041.106    84214548.645 7        47.000    20566039.386    80705615.146 9        60.000
R01  21297121.839   113845351.301 7        47.250    21297122.019   113845347.316 7        47.000    21297127.249    88546386.263 7        43.250    21297128.529    88546358.269 7        42.250
R02  21331863.842   113830942.722 8        51.500    21331863.222   113830942.730 8        51.000    21331869.412    88535147.448 8        49.000    21331869.292    88535160.438 8        47.500
R08  23766912.970   127270769.847 7        43.250    23766913.810   127270740.823 7        43.500    23766914.860    98988336.719 6        40.000    23766917.460    98988348.727 6        39.500
R10  22922840.143   122191667.337 7        46.250    22922838.693   122191660.347 7        44.500
R11  20262212.449   108275236.430 9        55.750    20262212.619   108275211.435 9        54.750    20262215.979    84214068.349 8        53.250    20262215.999    84214059.352 8        51.500    20262235.299    81241831.031 2        15.500
R12  21529854.207   115008766.689 8        52.250    21529854.017   115008640.694 8        50.750    21529858.387    89451186.489 8        49.000    21529858.947    89451157.490 8        48.000
R20  22621771.640   120968790.128 6        39.250    22621770.340   120968783.114 6        38.000    22621773.650    94086844.089 7        44.500    22621773.260    94086836.073 7        44.250
R21  21150056.924   113178399.271 8        51.750    21150057.104   113178321.272 8        51.250    21150061.124    88027569.666 8        49.750    21150061.304    88027516.667 8        48.500    21150016.734    84801718.836 8        51.250
R22  23103045.324   123325637.377 6        41.250    23103045.884   123325638.398 6        40.500    23103049.524    95919949.446 4        27.000    23103049.254    95919939.47914        27.500
E03  24375096.094   128092013.440 8        51.250    24375097.034    98148431.766 9        54.250    24375098.924    95653133.448 8        52.500
E05  27139994.905   142621627.776 6        39.750    27139998.955   109281502.420 7        44.500    27140000.655   106503158.862 7        43.000
E24  27673904.602   145427369.460 6        38.250    27673905.512   111431362.539 7        42.250    27673909.942   108598362.448 7        43.750
E25  24114515.978   126722679.040 8        52.250    24114516.388    97099208.416 9        55.000    24114518.348    94630586.945 8        53.250
J01  44086558.852   231676460.970 5        34.000    44086557.442   180527116.776 5        31.750    44086552.582   173005157.700 5        32.000
C14  25012906.202   130248809.690 6        38.750                    25012903.472                   100716621.117 8                        47.500
C21  25082859.561   130613052.805 7        44.500    25082853.401                   100998255.259 8                        49.000
C24  26068129.350   135743630.087 6        38.500
C26  22219647.130   115703566.314 8        52.250    22219642.650                    89469299.658 9                        56.000
C29  23371764.506   121702960.849 8        49.250    23371757.806                    94108384.659 8                        53.000
C30  26673072.990   138893724.173 6        38.000    26673069.540                   107401403.313 6                        40.750
C33  26560577.848   138307898.438 6        41.000
C35  23469985.708   122214411.678 8        49.500
C36  26762667.473   139360250.053 7        41.500
C42  24470070.390   127422099.131 7        44.500
C44  26418022.332   137565581.226 6        38.750
C45  22587605.496   117619632.046 8        51.250    22587608.046                    90950985.562 9                        56.250
> 2021 01 03 00 07 30.0000000  0 39       -.000050671190
G01  24434060.610   128401878.206 6        35.750    24434061.270   128401840.21813        22.250    24434065.090   100053413.242 6        40.000    24434065.070   100053383.22913        22.250    24434060.710    95884505.633 7        43.500
G05  24773439.310   130185305.473 6        39.750    24773437.420   130185298.458 4        25.000    24773438.860   101443088.064 6        39.500    24773438.780   101443089.065 4        25.000
G07  21001120.685   110361675.373 8        50.750    21001120.475   110361673.379 7        44.500    21001120.435    85996122.472 8        49.750    21001120.665    85996120.472 7        44.500
G08  22854767.841   120102684.487 7        44.500    22854767.041   120102675.482 7        44.250    22854771.041    93586515.383 7        46.250    22854770.611    93586513.382 7        44.250    22854768.031    89687078.320 8        52.250
G09  23564981.632   123834824.424 6        41.250    23564982.292   123834832.426 5        30.750    23564986.212    96494669.905 7        44.500    23564985.462    96494676.917 5        30.750    23564983.992    92474061.759 8        49.500
G11  22779955.316   119709531.048 7        42.250    22779954.276   119709505.053 5        31.750                                                    22779955.336    93280144.779 5        31.750
G13  22881559.342   120243416.186 7        44.000    22881558.712   120243408.183 5        31.000                                                    22881559.752    93696163.434 5        31.000
G14  20599589.580   108251642.085 8        51.000    20599589.360   108251638.091 7        44.500    20599590.380    84351950.008 9        56.000    20599590.590    84351943.009 7        44.500    20599592.460    80837290.109 9        59.500
G17  23059976.496   121181026.211 7        44.500    23059976.246   121181025.207 5        33.000    23059977.266    94426780.520 7        42.250    23059977.706    94426780.537 5        33.000
G19  25534005.796   134182114.796 6        36.250    25534003.476   134182099.803 3        19.500                                                    25534007.026   104557482.256 3        19.500
G21  24403656.759   128242101.434 6        37.750    24403656.529   128242069.459 3        21.500                                                    24403658.269    99928887.084 3        21.500
G28  20874191.445   109694690.778 8        51.500    20874190.595   109694656.779 7        42.250                                                    20874190.915    85476368.560 7        42.250
G30  20562243.322   108055372.091 8        52.750    20562242.822   108055373.094 7        47.000    20562245.882    84199006.887 9        55.000    20562245.672    84199006.880 7        47.000    20562243.862    80690720.958 9        59.750
R01  21315577.932   113944007.258 8        47.750    21315577.912   113944003.268 7        47.000    21315584.912    88623118.648 7        43.500    21315584.192    88623090.656 7        42.000
R02  21325245.900   113795634.748 8        51.250    21325246.170   113795634.744 8        50.250    21325253.610    88507685.651 8        49.750    21325253.350    88507698.652 8        48.500
R08  23791385.727   127401805.510 7        45.750    23791384.877   127401776.523 7        44.750    23791388.667    99090253.319 6        40.500    23791386.897    99090265.344 6        38.250
R10  22936089.807   122262317.036 7        43.250    22936089.397   122262310.060 7        42.750
R11  20264844.125   108289301.791 9        55.750    20264844.675   108289276.794 9        54.750    20264848.795    84225008.061 8        53.000    20264848.145    84224999.068 8        51.500    20264867.185    81252384.635 2        14.000
R12  21519820.983   114955177.939 8        51.000    21519821.203   114955051.933 8        49.750    21519827.063    89409506.370 8        49.250    21519827.373    89409477.372 8        48.250
R20  22631645.532   121021615.171 6        36.000    22631644.592   121021608.178 6        36.000    22631652.772    94127930.286 7        45.250    22631652.152    94127922.311 7        44.500
R21  21137791.347   113112762.715 8        52.750    21137791.627   113112684.719 8        52.250    21137796.047    87976519.047 8        50.250    21137795.707    87976466.050 8        48.750    21137750.947    84752539.023 8        51.500
R22  23078971.587   123197129.225 6        41.250    23078971.127   123197130.241 6        39.750    23078978.927    95819998.772 4        29.000    23078977.587    95819984.76814        29.250
E03  24384680.258   128142377.700 8        51.250    24384680.848    98187022.564 9        54.250    24384683.008    95690743.125 8        52.500
E05  27157581.215   142714031.164 7        41.750    27157582.055   109352305.000 7        44.000    27157583.805   106572161.345 7        43.000
E24  27685562.506   145488615.768 7        42.000    27685559.436   111478291.511 7        41.750    27685559.706   108644098.348 6        39.250
E25  24119825.986   126750584.937 8        52.000    24119826.606    97120590.872 9        55.000    24119828.736    94651425.777 9        53.500
J01  44085360.704   231670158.501 5        34.500    44085356.354   180522205.762 5        30.000    44085353.394   173000451.320 5        33.000
C14  25011597.197   130241966.692 7        41.500                    25011589.327                   100711329.715 8                        48.000
C21  25099214.856   130698220.431 7        43.250    25099209.116                   101064112.256 8                        49.250
C24  26055188.030   135676225.543 6        41.000
C26  22212966.989   115668780.180 8        52.000    22212962.259                    89442400.832 9                        56.000
C29  23373505.493   121712023.959 8        49.750    23373498.263                    94115392.844 8                        53.250
C30  26687805.947   138970434.363 6        37.500    26687801.657                   107460720.543 6                        41.250
C33  26552541.453   138266042.484 7        43.000
C35  23456102.504   122142114.843 8        49.500
C36  26775450.459   139426842.579 5        34.750
C42  24475635.975   127451083.710 7        45.500
C44  26398858.458   137465788.461 6        38.500
C45  22594013.225   117652998.781 8        51.500    22594015.895                    90976786.840 9                        56.250
> 2021 01 03 00 08  0.0000000  0 39       -.000050670566
G01  24419375.061   128324709.731 5        33.500    24419374.271   128324671.721 3        20.250    24419380.511    99993282.049 6        40.250    24419381.761    99993252.051 3        20.250    24419379.091    95826879.900 8        48.250
G05  24783606.868   130238747.955 6        37.250    24783605.728   130238740.972 4        25.500    24783611.568   101484731.562 7        41.500    24783609.598   101484732.547 4        25.500
G07  21005991.035   110387268.157 8        51.250    21005990.705   110387266.150 7        44.250    21005990.395    86016064.895 8        49.750    21005990.875    86016062.887 7        44.250
G08  22870237.971   120183976.134 7        45.500    22870237.071   120183967.138 7        44.750    22870241.181    93649859.515 7        47.000    22870240.231    93649857.525 7        44.750    22870236.621    89747783.137 8        52.000
G09  23585896.890   123944723.316 6        41.250    23585895.170   123944731.307 5        30.000    23585898.410    96580305.383 7        42.250    23585898.760    96580312.373 5        30.000    23585897.700    92556129.076 8        49.750
G11  22775682.951   119687081.079 7        43.250    22775682.681   119687055.084 5        31.750                                                    22775682.611    93262651.314 5        31.750
G13  22865140.208   120157132.874 7        45.000    22865139.868   120157124.875 5        31.500                                                    22865139.708    93628929.724 5        31.500
G14  20595747.506   108231452.948 8        50.750    20595747.566   108231448.954 7        44.500    20595748.646    84336218.229 9        56.000    20595748.756    84336211.230 7        44.500    20595750.596    80822213.823 9        59.250
G17  23040343.146   121077853.811 7        44.250    23040343.056   121077852.804 5        33.250    23040344.176    94346386.510 7        43.000    23040344.316    94346386.508 5        33.250
G19  25511987.685   134066409.988 6        36.000    25511986.955   134066394.997 3        18.750                                                    25511987.355   104467322.809 3        18.750
G21  24398206.448   128213462.698 6        38.250    24398206.788   128213430.699 3        19.000                                                    24398205.988    99906571.228 3        19.000
G28  20870328.281   109674389.250 8        51.750    20870327.681   109674355.256 7        42.250                                                    20870327.731    85460549.211 7        42.250
G30  20558500.653   108035704.449 9        53.750    20558499.973   108035705.450 7        47.000    20558503.253    84183681.460 9        54.250    20558503.103    84183681.455 7        47.000    20558501.323    80676034.091 9        59.250
R01  21334114.468   114043101.557 8        47.500    21334115.458   114043097.562 7        47.000    21334120.858    88700191.986 7        43.250    21334121.918    88700163.982 7        41.750
R02  21318774.348   113761095.530 8        52.000    21318774.268   113761095.529 8        51.250    21318778.988    88480821.836 8        47.500    21318779.068    88480834.833 7        47.000
R08  23815842.022   127532780.559 7        44.750    23815843.042   127532751.565 7        44.500    23815846.222    99192122.740 7        42.000    23815848.472    99192134.727 7        41.500
R10  22949347.812   122332997.962 6        41.000    22949348.542   122332990.946 7        41.500
R11  20267507.137   108303526.083 9        56.250    20267507.097   108303501.085 9        55.250    20267509.997    84236071.430 8        53.250    20267510.077    84236062.424 8        51.500    20267530.437    81263057.529 2        16.250
R12  21509809.663   114901700.377 8        51.000    21509809.953   114901574.381 8        50.500    21509816.013    89367912.795 8        49.500    21509815.453    89367883.785 8        48.000
R20  22641656.525   121075160.195 6        37.000    22641659.505   121075153.189 6        36.750    22641665.835    94169576.427 7        44.000    22641664.585    94169568.415 7        44.250
R21  21125647.058   113047776.728 8        52.000    21125646.558   113047698.734 8        51.500    21125650.428    87925974.432 8        49.750    21125651.018    87925921.431 8        48.750    21125606.998    84703846.671 8        51.500
R22  23054909.767   123068677.851 7        42.250    23054909.667   123068678.869 6        41.000    23054917.137    95720092.159 5        29.750    23054914.417    95720078.17214        29.250
E03  24394329.342   128193086.094 8        51.250    24394330.372    98225877.046 9        54.000    24394332.512    95728609.783 8        52.250
E05  27175168.261   142806463.426 6        39.750    27175170.881   109423129.689 7        43.750    27175174.021   106641185.436 7        43.000
E24  27697209.379   145549820.185 7        41.750    27697208.589   111525188.410 7        43.750    27697210.569   108689802.910 7        43.250
E25  24125150.951   126778567.837 8        52.000    24125151.521    97142032.320 9        54.750    24125153.721    94672322.106 9        53.500
J01  44084162.987   231663869.994 5        34.500    44084161.417   180517305.631 4        28.250    44084158.127   172995755.360 5        33.250
C14  25010369.991   130235592.589 6        40.000                    25010365.401                   100706400.836 8                        48.000
C21  25115586.305   130783475.729 7        44.250    25115581.215                   101130037.026 8                        49.000
C24  26042241.344   135608820.147 6        40.500
C26  22206307.969   115634105.798 8        52.500    22206303.509                    89415588.403 9                        56.250
C29  23375340.923   121721588.815 8        49.000    23375335.123                    94122789.006 8                        53.000
C30  26702587.563   139047417.999 5        34.250    26702585.253                   107520249.187 6                        41.000
C33  26544581.407   138224606.382 6        39.750
C35  23442277.777   122070126.365 8        50.000
C36  26788246.240   139493469.979 6        35.500
C42  24481285.323   127480492.018 7        46.000
C44  26379677.943   137365910.801 6        39.500
C45  22600446.636   117686496.034 8        51.500    22600448.616                    91002689.053 9                        56.500
> 2021 01 03 00 08 30.0000000  0 39       -.000050671237
G01  24404717.167   128247670.263 6        36.000    24404715.817   128247632.210 3        19.500    24404716.847    99933251.321 5        34.000    24404717.037    99933221.326 3        19.500    24404715.717    95769350.411 7        44.250
G05  24793828.577   130292469.225 6        37.250    24793828.597   130292462.247 4        23.500    24793831.677   101526592.241 6        39.500    24793831.817   101526593.219 4        23.500
G07  21010919.239   110413166.020 8        51.000    21010918.999   110413164.017 7        44.250    21010918.829    86036245.046 8        50.000    21010918.939    86036243.040 7        44.250
G08  22885780.204   120265656.930 7        44.250    22885780.144   120265647.948 7        44.250    22885784.074    93713506.934 7        46.000    22885782.714    93713504.918 7        44.250    22885781.134    89808778.553 8        52.250
G09  23606835.037   124054757.921 7        41.750    23606833.567   124054765.950 5        30.250    23606837.257    96666046.655 7        43.250    23606837.677    96666053.643 5        30.250    23606836.007    92638297.780 8        49.500
G11  22771508.196   119665144.603 6        40.500    22771508.256   119665118.601 5        31.250                                                    22771507.916    93245557.980 5        31.250
G13  22848783.862   120071180.321 7        45.000    22848784.252   120071172.330 5        31.000                                                    22848783.212    93561953.718 5        31.000
G14  20591970.087   108211601.505 8        51.500    20591969.877   108211597.518 7        44.250    20591970.957    84320749.584 9        56.000    20591970.847    84320742.583 7        44.250    20591972.967    80807389.708 9        60.250
G17  23020746.273   120974869.118 7        44.250    23020745.353   120974868.132 5        33.250    23020747.253    94266138.792 7        43.000    23020748.343    94266138.779 5        33.250
G19  25489956.664   133950630.198 6        37.750    25489954.554   133950615.203 3        22.250                                                    25489956.834   104377105.074 3        22.250
G21  24392824.018   128185171.285 6        38.750    24392823.898   128185139.292 3        21.000                                                    24392823.698    99884525.993 3        21.000
G28  20866525.798   109654406.175 8        52.000    20866524.778   109654372.173 7        42.250                                                    20866525.008    85444978.004 7        42.250
G30  20554810.921   108016315.647 8        52.750    20554810.461   108016316.653 7        47.000    20554813.511    84168573.312 9        54.500    20554813.471    84168573.307 7        47.000    20554811.671    80661555.453 9        60.500
R01  21352734.261   114142629.907 8        47.750    21352734.301   114142625.918 7        47.000    21352741.511    88777602.902 7        43.750    21352741.421    88777574.903 7        42.000
R02  21312445.948   113727326.200 8        51.750    21312446.028   113727326.200 8        51.500    21312451.788    88454556.836 8        49.250    21312451.868    88454569.833 8        48.250
R08  23840290.014   127663691.842 7        44.250    23840289.424   127663662.851 7        43.250    23840294.444    99293942.508 7        42.000    23840294.094    99293954.524 6        39.750
R10  22962615.662   122403710.314 7        43.000    22962615.282   122403703.296 7        43.500
R11  20270198.199   108317909.425 9        55.750    20270198.449   108317884.429 9        55.000    20270202.109    84247258.472 8        53.250    20270201.709    84247249.478 8        51.750    20270221.629    81273849.754 2        14.750
R12  21499819.671   114848333.769 8        51.750    21499820.041   114848207.773 8        50.750    21499823.961    89326405.461 8        49.000    21499825.001    89326376.460 8        48.000
R20  22651807.985   121129422.861 6        38.250    22651807.805   121129415.864 6        37.000    22651812.755    94211780.745 7        45.250    22651812.525    94211772.744 7        44.500
R21  21113625.596   112983445.248 9        53.500    21113625.716   112983367.253 8        52.500    21113629.736    87875938.868 8        50.000    21113629.316    87875885.872 8        48.500    21113585.146    84655644.720 8        51.750
R22  23030856.874   122940287.547 7        41.750    23030856.394   122940288.555 6        40.250    23030864.384    95620233.102 5        31.000    23030862.814    95620219.098 4        29.250
E03  24404044.461   128244137.385 8        51.250    24404045.241    98264994.271 9        54.250    24404047.131    95766732.496 8        52.250
E05  27192764.172   142898922.867 7        41.750    27192766.472   109493975.221 7        44.250    27192767.822   106710229.781 7        42.750
E24  27708848.721   145610982.665 7        41.750    27708844.681   111572053.111 6        41.000    27708847.981   108735476.169 7        41.500
E25  24130490.711   126806627.173 8        52.250    24130491.081    97163532.337 9        55.000    24130493.111    94693275.516 8        53.250
J01  44082969.571   231657595.439 5        34.250    44082965.721   180512416.349 4        26.750    44082964.101   172991069.840 5        33.750
C14  25009234.139   130229687.090 6        39.250                    25009231.739                   100701834.376 8                        48.250
C21  25131976.449   130868816.099 7        44.000    25131970.409                   101196027.603 8                        49.000
C24  26029294.660   135541413.693 6        39.750
C26  22199670.272   115599543.458 8        52.000    22199666.032                    89388862.626 9                        56.000
C29  23377274.589   121731655.243 8        49.250    23377268.309                    94130573.028 8                        53.250
C30  26717424.608   139124673.014 6        36.250    26717420.708                   107579987.705 7                        41.750
C33  26536704.851   138183591.255 6        40.500
C35  23428512.598   121998448.474 8        49.250
C36  26801052.309   139560132.289 6        40.000
C42  24487013.159   127510322.586 7        45.750
C44  26360479.589   137265950.286 6        38.750
C45  22606904.044   117720124.024 8        51.500    22606906.464                    91028692.347 9                        56.000
> 2021 01 03 00 09  0.0000000  0 39       -.000050669944
G01  24390079.494   128170762.556 5        35.000    24390079.004   128170724.576 3        17.500    24390082.314    99873323.314 6        37.000    24390083.884    99873293.343 3        17.500    24390081.354    95711919.426 7        44.500
G05  24804105.401   130346466.725 6        39.000    24804105.561   130346459.739 4        23.500    24804106.151   101568668.240 6        37.750    24804104.841   101568669.202 4        23.500
G07  21015905.083   110439369.513 8        50.250    21015905.203   110439367.512 7        44.250    21015905.293    86056663.345 8        50.000    21015905.233    86056661.346 7        44.250
G08  22901397.553   120347723.693 7        44.500    22901396.423   120347714.714 7        44.250    22901400.893    93777455.046 7        46.000    22901399.973    93777453.053 7        44.250    22901396.813    89870062.194 8        52.000
G09  23627800.016   124164925.806 7        42.500    23627798.366   124164933.801 5        30.500    23627802.076    96751891.708 7        44.000    23627802.306    96751898.701 5        30.500    23627800.796    92720565.969 8        49.500
G11  22767431.884   119643722.448 7        45.250    22767431.774   119643696.456 5        31.250                                                    22767431.904    93228865.435 5        31.250
G13  22832491.063   119985561.240 7        45.000    22832490.633   119985553.231 5        32.250                                                    22832491.293    93495237.553 5        32.250
G14  20588256.498   108192087.075 8        51.500    20588256.518   108192083.079 7        44.250    20588257.488    84305543.542 9        56.250    20588257.608    84305536.547 7        44.250    20588259.478    80792817.254 9        60.500
G17  23001184.243   120872074.880 7        43.750    23001184.393   120872073.886 5        33.000    23001185.073    94186039.413 7        42.000    23001185.583    94186039.427 5        33.000
G19  25467909.207   133834777.974 6        37.000    25467907.657   133834762.96513        21.750                                                    25467911.627   104286830.77813        21.750
G21  24387507.478   128157229.211 6        38.750    24387506.128   128157197.226 3        22.750                                                    24387508.128    99862753.007 3        22.750
G28  20862783.006   109634740.115 8        51.500    20862782.396   109634706.126 7        42.000                                                    20862782.886    85429653.808 7        42.000
G30  20551174.617   107997206.927 9        53.500    20551174.257   107997207.933 7        47.000    20551177.247    84153683.407 9        54.750    20551177.147    84153683.401 7        47.000    20551175.467    80647285.959 9        60.250
R01  21371433.541   114242587.782 8        47.750    21371433.911   114242583.797 7        46.750    21371440.051    88855347.913 7        43.500    21371440.001    88855319.914 7        41.750
R02  21306262.140   113694328.168 8        51.000    21306261.550   113694328.176 8        51.250    21306266.560    88428891.702 8        48.000    21306267.160    88428904.704 7        47.250
R08  23864722.853   127794535.063 7        43.250    23864724.133   127794506.058 7        43.250    23864726.823    99395709.486 6        39.500    23864727.583    99395721.459 6        38.000
R10  22975887.341   122474454.774 7        43.500    22975886.601   122474447.762 7        42.500
R11  20272920.229   108332451.571 9        56.000    20272920.109   108332426.575 9        55.250    20272923.739    84258569.036 8        53.250    20272923.049    84258560.040 8        51.750    20272941.579    81284761.18012        15.250
R12  21489849.735   114795077.645 8        51.000    21489849.765   114794951.649 8        50.000    21489854.555    89284984.029 8        48.750    21489855.385    89284955.033 8        48.000
R20  22662090.848   121184400.760 6        38.750    22662089.518   121184393.749 6        37.750    22662094.138    94254541.316 7        44.500    22662093.498    94254533.308 7        44.250
R21  21101727.222   112919771.832 9        54.000    21101726.802   112919693.839 8        52.500    21101730.192    87826415.117 8        50.000    21101730.542    87826362.122 8        48.750    21101686.002    84607935.829 8        51.750
R22  23006815.841   122811962.966 6        40.500    23006817.421   122811963.980 6        40.500    23006822.691    95520425.116 5        30.500    23006824.371    95520411.125 5        30.000
E03  24413823.750   128295530.300 8        51.250    24413824.880    98304373.250 9        54.000    24413826.860    95805110.321 8        52.250
E05  27210362.357   142991407.747 6        41.000    27210364.717   109564840.263 7        43.750    27210368.527   106779293.193 7        43.000
E24  27720478.174   145672103.154 6        40.500    27720477.734   111618885.721 7        43.250    27720477.144   108781118.101 6        40.250
E25  24135844.685   126834762.377 8        52.250    24135845.115    97185090.493 9        54.750    24135847.255    94714285.577 9        53.500
J01  44081777.192   231651335.052 5        33.000    44081771.122   180507538.199 4        26.000    44081773.742   172986394.904 5        35.000
C14  25008191.663   130224250.037 6        40.750                    25008188.553                   100697630.106 8                        49.250
C21  25148377.122   130954239.069 7        42.750    25148374.502                   101262082.027 8                        49.000
C24  26016350.472   135474006.150 6        39.500
C26  22193054.942   115565093.510 8        52.250    22193050.322                    89362223.752 9                        56.000
C29  23379303.347   121742223.152 8        49.000    23379297.897                    94138744.812 8                        53.000
C30  26732313.628   139202197.335 6        37.500    26732308.418                   107639934.473 7                        43.250
C33  26528910.038   138142998.167 7        42.750
C35  23414808.838   121927083.534 8        50.500
C36  26813855.610   139626829.961 5        32.000
C42  24492821.978   127540573.902 7        46.000
C44  26341267.763   137165909.018 6        39.250
C45  22613387.879   117753882.993 8        51.750    22613389.509                    91054796.933 9                        56.250
> 2021 01 03 00 09 30.0000000  0 39       -.000050669041
G01  24375473.178   128093990.539 6        35.750    24375470.538   128093952.531 3        20.750    24375474.848    99813500.974 6        39.000    24375474.638    99813470.982 3        20.750    24375472.818    95654589.726 7        46.000
G05  24814434.521   130400737.259 6        39.250    24814431.181   130400730.251 4        24.250    24814435.131   101610956.900 6        40.000    24814434.651   101610957.906 4        24.250
G07  21020949.930   110465879.313 8        50.250    21020950.000   110465877.313 7        44.500    21020950.090    86077320.331 8        50.000    21020950.010    86077318.328 7        44.500
G08  22917087.890   120430174.344 7        45.750    22917086.880   120430165.353 7        44.250    22917089.220    93841702.325 7        44.500    22917089.000    93841700.315 7        44.250    22917087.390    89931632.478 8        52.250
G09  23648787.305   124275224.311 7        41.500    23648786.985   124275232.313 5        30.500    23648792.985    96837838.605 7        43.500    23648791.095    96837845.563 5        30.500    23648789.575    92802931.701 8        49.250
G11  22763454.229   119622816.379 7        44.250    22763453.199   119622790.397 5        31.000                                                    22763454.019    93212575.002 5        31.000
G13  22816262.399   119900277.965 7        45.500    22816262.399   119900269.977 5        33.000                                                    22816262.659    93428783.111 5        33.000
G14  20584606.837   108172908.961 8        51.750    20584607.057   108172904.975 7        44.250    20584608.097    84290599.572 9        56.000    20584608.077    84290592.569 7        44.250    20584610.067    80778495.951 9        60.250
G17  22981660.290   120769473.632 7        44.000    22981660.110   120769472.635 5        33.000    22981660.960    94106090.467 7        42.250    22981660.660    94106090.468 5        33.000
G19  25445847.511   133718855.717 5        33.500    25445847.331   133718840.713 2        13.500                                                    25445847.951   104196501.942 2        13.500
G21  24382256.474   128129638.485 6        38.750    24382254.514   128129606.498 3        21.000                                                    24382256.994    99841253.865 3        21.000
G28  20859101.398   109615390.367 8        51.000    20859100.578   109615356.372 7        42.000                                                    20859100.718    85414576.093 7        42.000
G30  20547592.215   107978379.502 9        53.500    20547591.605   107978380.504 7        47.000    20547594.565    84139012.691 9        54.250    20547594.425    84139012.687 7        47.000    20547592.665    80633226.527 9        60.000
R01  21390211.217   114342970.611 7        46.750    21390211.507   114342966.618 7        46.500    21390217.797    88933423.420 7        43.000    21390219.167    88933395.419 7        42.000
R02  21300223.701   113662102.984 8        51.750    21300223.471   113662102.988 8        51.750    21300228.111    88403827.681 8        48.750    21300228.421    88403840.676 8        47.500
R08  23889145.606   127925306.282 7        45.250    23889143.946   127925277.289 7        43.500    23889149.766    99497420.332 6        41.250    23889148.436    99497432.337 6        40.250
R10  22989165.222   122545231.224 7        43.500    22989163.902   122545224.226 7        42.500
R11  20275671.295   108347152.733 9        56.250    20275671.335   108347127.734 9        55.500    20275674.765    84270003.271 8        53.250    20275674.315    84269994.279 8        51.500    20275695.735    81295791.865 2        15.250
R12  21479899.852   114741931.614 8        50.750    21479900.342   114741805.624 8        50.000    21479906.782    89243648.286 8        49.500    21479907.042    89243619.279 8        48.500
R20  22672497.639   121240092.082 6        36.500    22672500.939   121240085.102 6        35.750    22672508.599    94297856.838 7        44.750    22672507.849    94297848.839 7        44.000
R21  21089950.480   112856760.001 8        53.000    21089951.040   112856682.012 8        52.500    21089954.590    87777405.954 8        50.000    21089955.160    87777352.954 8        49.000    21089910.810    84560722.646 8        51.750
R22  22982790.370   122683708.560 7        41.750    22982791.270   122683709.532 6        40.750    22982795.470    95420671.708 5        30.500    22982795.220    95420657.719 4        29.250
E03  24423668.743   128347263.511 8        51.250    24423669.263    98344012.991 9        54.000    24423671.383    95843742.267 8        52.250
E05  27227966.052   143083916.335 6        39.750    27227969.422   109635723.402 7        44.500    27227970.742   106848374.195 7        42.500
E24  27732100.582   145733181.592 6        40.750    27732100.272   111665686.083 7        43.250    27732103.732   108826728.628 7        43.500
E25  24141212.853   126862972.901 8        52.000    24141213.273    97206706.355 9        54.500    24141215.513    94735351.886 9        53.500
J01  44080586.806   231645089.105 5        32.250    44080583.876   180502671.267 4        27.000    44080585.176   172981730.766 6        35.750
C14  25007240.242   130219281.033 6        41.250                    25007232.842                   100693787.794 8                        47.500
C21  25164801.159   131039741.996 7        44.250    25164794.919                   101328198.308 8                        49.000
C24  26003406.785   135406597.551 6        41.000
C26  22186460.380   115530756.263 8        52.250    22186456.020                    89335672.030 9                        56.000
C29  23381429.481   121753292.335 8        49.250    23381423.461                    94147304.223 8                        53.250
C30  26747251.540   139279989.020 6        38.000    26747247.720                   107700087.956 7                        42.750
C33  26521192.994   138102828.027 6        36.750
C35  23401162.826   121856033.781 8        49.750
C36  26826677.809   139693563.010 6        38.000
C42  24498714.614   127571244.414 7        46.500
C44  26322043.162   137065788.953 6        39.500
C45  22619896.123   117787773.180 8        51.750    22619897.843                    91081002.979 9                        56.250
> 2021 01 03 00 10  0.0000000  0 39       -.000050669596
G01  24360885.432   128017357.105 5        32.000    24360887.192   128017319.121 3        20.500    24360895.202    99753786.678 6        41.250    24360893.032    99753756.667 3        20.500    24360890.952    95597363.565 7        46.500
G05  24824811.059   130455278.300 6        38.000    24824811.279   130455271.304 4        25.250    24824812.979   101653456.329 6        38.750    24824813.309   101653457.330 4        25.250
G07  21026053.251   110492696.245 8        50.750    21026053.081   110492694.242 7        44.250    21026053.261    86098216.637 8        49.750    21026053.081    86098214.627 7        44.250
G08  22932849.328   120513005.616 7        43.750    22932848.568   120512996.613 7        44.000    22932853.348    93906246.162 7        46.000    22932852.218    93906244.150 7        44.000    22932849.148    89993486.993 8        52.000
G09  23669801.407   124385650.868 7        42.250    23669800.897   124385658.893 5        29.500    23669802.257    96923885.246 6        41.000    23669805.047    96923892.224 5        29.500    23669802.467    92885393.079 8        49.250
G11  22759574.181   119602428.130 6        38.500    22759573.471   119602402.116 5        31.000                                                    22759573.931    93196688.081 5        31.000
G13  22800098.110   119815333.176 7        45.000    22800097.430   119815325.181 5        32.500                                                    22800098.180    93362592.384 5        32.500
G14  20581021.493   108154066.466 8        51.750    20581021.473   108154062.474 7        44.750    20581022.503    84275917.119 9        55.750    20581022.553    84275910.118 7        44.750    20581024.413    80764425.265 9        60.500
G17  22962174.378   120667068.085 7        45.500    22962173.128   120667067.089 5        33.500    22962175.598    94026294.028 7        44.000    22962174.618    94026294.025 5        33.500
G19  25423775.218   133602865.369 5        34.250    25423775.508   133602850.379 3        18.500                                                    25423779.008   104106120.033 3        18.500
G21  24377075.263   128102400.855 6        39.500    24377072.393   128102368.883 3        21.250                                                    24377072.713    99820029.748 3        21.250
G28  20855479.164   109596355.587 8        48.500    20855478.244   109596321.594 7        42.250                                                    20855478.244    85399743.820 7        42.250
G30  20544062.942   107959834.609 8        51.750    20544062.672   107959835.612 7        47.000    20544065.302    84124562.132 9        53.500    20544065.482    84124562.129 7        47.000    20544063.702    80619378.076 9        60.500
R01  21409069.376   114443774.072 7        47.000    21409069.796   114443770.087 7        46.750    21409075.776    89011826.102 7        43.000    21409075.466    89011798.101 7        41.500
R02  21294330.730   113630651.667 8        52.500    21294330.080   113630651.668 8        52.000    21294334.740    88379365.539 8        49.000    21294334.970    88379378.531 8        47.750
R08  23913548.319   128056001.897 7        43.000    23913549.919   128055972.945 7        42.750    23913556.669    99599072.471 7        43.000    23913555.019    99599084.473 6        40.250
R10  23002451.063   122616039.881 7        45.250    23002450.393   122616032.884 7        44.250
R11  20278452.360   108362012.570 9        56.500    20278452.200   108361987.578 9        55.250    20278455.820    84281560.945 9        53.500    20278455.180    84281551.949 8        51.750    20278474.890    81306941.644 2        14.750
R12  21469973.045   114688895.682 8        52.000    21469973.005   114688769.685 8        51.000    21469978.935    89202398.129 8        50.000    21469979.015    89202369.127 8        48.500
R20  22683051.071   121296494.236 6        38.750    22683050.731   121296487.239 6        37.750    22683059.351    94341725.207 7        46.500    22683057.711    94341717.195 7        45.500
R21  21078300.008   112794413.381 8        52.500    21078300.098   112794335.388 8        52.250    21078304.108    87728914.169 8        50.250    21078304.218    87728861.172 8        48.750    21078259.928    84514007.906 8        52.000
R22  22958778.667   122555528.429 6        41.000    22958777.817   122555529.435 6        40.250    22958784.987    95320976.148 5        30.000    22958783.617    95320962.147 4        29.000
E03  24433577.702   128399335.729 8        51.500    24433578.322    98383912.482 9        54.000    24433580.462    95882627.364 8        52.250
E05  27245574.512   143176446.930 6        41.000    27245577.182   109706623.444 7        43.500    27245579.362   106917471.689 7        42.500
E24  27743712.254   145794217.978 6        37.750    27743712.024   111712454.245 6        40.250    27743714.544   108872307.762 6        40.000
E25  24146595.243   126891258.183 8        51.750    24146595.713    97228379.494 9        54.500    24146597.963    94756474.018 8        53.250
J01  44079401.192   231638857.708 5        33.500    44079398.702   180497815.681 4        29.000    44079400.302   172977077.503 6        36.250
C14  25006376.561   130214779.933 7        41.500                    25006369.501                   100690307.233 8                        48.750
C21  25181234.455   131125322.439 7        43.500    25181229.585                   101394374.534 8                        48.750
C24  25990460.121   135339187.825 6        39.750
C26  22179887.838   115496532.082 8        52.250    22179883.878                    89309207.728 9                        56.250
C29  23383651.382   121764862.623 8        49.250    23383645.362                    94156251.118 8                        53.250
C30  26762239.380   139358046.042 6        37.500    26762236.820                   107760446.640 7                        42.000
C33  26513563.568   138063081.850 6        40.250
C35  23387580.834   121785301.516 8        50.250
C36  26839499.856   139760331.787 6        37.750
C42  24504682.073   127602332.608 7        45.000
C44  26302801.722   136965592.179 6        38.500
C45  22626428.911   117821794.828 8        51.250    22626431.391                    91107310.665 9                        56.250
> 2021 01 03 00 10 30.0000000  0 39       -.000050667226
G01  24346333.465   127940865.859 5        35.250    24346333.045   127940827.847 3        23.250    24346339.115    99694183.176 7        41.750    24346338.335    99694153.188 3        23.250    24346336.155    95540243.540 8        47.750
G05  24835242.860   130510086.880 6        40.500    24835242.310   130510079.886 4        23.750    24835239.420   101696164.358 6        36.250    24835242.120   101696165.320 4        23.750
G07  21031215.125   110519821.617 8        50.500    21031214.715   110519819.619 7        44.250    21031215.315    86119353.294 8        50.000    21031214.915    86119351.283 7        44.250
G08  22948683.479   120596214.978 7        44.000    22948682.629   120596205.986 7        43.750    22948687.349    93971084.633 7        46.500    22948686.179    93971082.635 7        43.750    22948683.819    90055623.875 8        52.000
G09  23690839.945   124496202.950 7        42.750    23690838.585   124496210.946 5        30.250    23690843.555    97010029.637 7        44.250    23690842.165    97010036.654 5        30.250    23690840.835    92967948.149 8        49.250
G11  22755792.303   119582558.847 6        40.750    22755792.723   119582532.846 5        30.500                                                    22755792.933    93181205.568 5        30.500
G13  22783999.595   119730730.109 7        46.000    22783998.555   119730722.110 5        32.500                                                    22783998.615    93296667.948 5        32.500
G14  20577499.792   108135558.893 8        51.750    20577499.672   108135554.902 7        44.250    20577500.512    84261495.642 9        55.000    20577500.592    84261488.643 7        44.250    20577502.452    80750604.689 9        60.000
G17  22942723.958   120564861.042 7        44.500    22942723.538   120564860.054 5        34.000    22942724.778    93946652.235 7        42.750    22942725.738    93946652.248 5        34.000
G19  25401692.799   133486809.659 6        36.000    25401690.579   133486794.641 3        21.500                                                    25401693.839   104015687.167 3        21.500
G21  24371957.360   128075518.174 6        38.250    24371955.840   128075486.176 3        20.750                                                    24371956.750    99799082.248 3        20.750
G28  20851916.343   109577635.665 7        46.750    20851915.743   109577601.668 7        42.250                                                    20851915.913    85385156.881 7        42.250
G30  20540587.758   107941573.488 8        51.000    20540587.398   107941574.496 7        47.000    20540590.658    84110332.698 9        53.500    20540590.488    84110332.693 7        47.000    20540588.728    80605741.539 9        60.000
R01  21428004.302   114544993.451 7        47.000    21428004.702   114544989.460 7        46.750    21428011.002    89090552.266 7        43.000    21428011.712    89090524.271 7        41.750
R02  21288581.345   113599975.232 8        51.750    21288580.895   113599975.236 8        52.000    21288585.675    88355506.107 8        49.250    21288586.365    88355519.104 8        47.750
R08  23937942.549   128186618.078 7        43.000    23937942.279   128186589.053 7        42.250    23937946.609    99700662.674 6        40.750    23937947.939    99700674.680 6        40.500
R10  23015738.762   122686881.141 7        44.250    23015738.782   122686874.142 7        43.500
R11  20281262.125   108377031.270 9        55.750    20281262.055   108377006.278 9        54.750    20281266.025    84293242.167 8        53.000    20281265.625    84293233.169 8        51.500    20281285.465    81318210.595 2        14.500
R12  21460063.635   114635969.434 8        50.750    21460063.885   114635843.444 8        50.250    21460069.995    89161233.326 8        49.250    21460069.785    89161204.314 8        47.500
R20  22693730.027   121353604.989 6        36.750    22693728.577   121353597.982 6        36.000    22693735.737    94386144.627 7        44.000    22693734.787    94386136.628 7        44.000
R21  21066773.411   112732735.457 8        53.000    21066774.111   112732657.467 8        52.500    21066778.471    87680942.491 8        50.250    21066778.391    87680889.488 8        49.000    21066733.511    84467794.196 8        51.750
R22  22934782.487   122427427.554 7        43.250    22934781.847   122427428.566 6        40.750    22934788.997    95221342.209 5        30.500    22934785.617    95221328.183 5        29.500
E03  24443550.571   128451745.607 8        51.250    24443551.591    98424070.695 9        53.750    24443553.631    95921764.609 8        52.000
E05  27263187.330   143268997.792 7        42.500    27263189.450   109777539.039 7        43.500    27263190.390   106986584.338 7        42.250
E24  27755322.971   145855212.395 7        41.750    27755323.261   111759190.246 7        44.500    27755323.301   108917855.557 7        41.500
E25  24151991.799   126919617.687 8        52.000    24151992.679    97250109.512 9        54.750    24151994.539    94777651.577 9        53.500
J01  44078219.952   231632641.040 5        34.500    44078217.772   180492971.570 5        30.250    44078218.062   172972435.244 6        37.000
C14  25005598.311   130210746.403 6        41.250                    25005594.671                   100687188.264 8                        48.500
C21  25197684.175   131210977.824 7        44.000    25197679.125                   101460608.687 8                        48.750
C24  25977514.112   135271776.868 6        40.750
C26  22173337.590   115462421.269 8        52.500    22173333.080                    89282831.109 9                        56.000
C29  23385969.614   121776933.796 8        49.250    23385963.514                    94165585.330 8                        53.250
C30  26777281.945   139436366.362 6        36.750    26777277.795                   107821008.951 7                        42.000
C33  26506009.131   138023760.829 6        39.250
C35  23374058.563   121714889.017 8        50.000
C36  26852331.165   139827136.404 6        35.500
C42  24510732.402   127633836.978 7        46.000
C44  26283544.045   136865320.716 6        38.500
C45  22632987.751   117855948.138 8        51.500    22632990.141                    91133720.180 9                        56.250
> 2021 01 03 00 11  0.0000000  0 39       -.000050672002
G01  24331804.294   127864519.954 5        34.250    24331803.604   127864481.948 3        22.250    24331810.254    99634692.965 6        41.000    24331809.204    99634662.955 3        22.250    24331808.634    95483232.056 8        48.750
G05  24845720.931   130565160.575 6        37.750    24845720.301   130565153.571 4        23.750    24845723.431   101739078.855 6        39.250    24845721.831   101739079.856 4        23.750
G07  21036435.411   110547255.449 8        51.000    21036435.301   110547253.451 7        44.250    21036435.111    86140730.299 8        49.500    21036435.391    86140728.283 7        44.250
G08  22964588.829   120679799.431 7        43.500    22964588.679   120679790.438 7        44.000    22964592.419    94036215.372 7        46.000    22964592.379    94036213.379 7        44.000    22964588.979    90118040.839 8        52.250
G09  23711899.344   124606877.967 6        41.000    23711899.264   124606885.977 5        30.750    23711903.254    97096269.901 7        44.500    23711903.384    97096276.894 5        30.750    23711901.824    93050595.043 8        49.250
G11  22752111.293   119563209.996 7        43.750    22752110.333   119563184.007 5        30.500                                                    22752110.463    93166128.557 5        30.500
G13  22767964.412   119646471.249 7        45.500    22767964.082   119646463.248 5        32.750                                                    22767964.352    93231011.706 5        32.750
G14  20574041.499   108117385.516 8        51.250    20574041.329   108117381.527 7        44.500    20574042.079    84247334.582 9        55.500    20574042.229    84247327.581 7        44.500    20574044.199    80737033.674 9        59.750
G17  22923312.852   120462855.347 7        43.500    22923312.352   120462854.369 5        34.000    22923313.932    93867167.355 7        43.000    22923313.452    93867167.359 5        34.000
G19  25379595.504   133370690.636 6        35.500    25379593.954   133370675.622 3        18.000                                                    25379594.064   103925205.024 3        18.000
G21  24366909.949   128048992.525 6        39.750    24366909.439   128048960.524 3        22.000                                                    24366910.159    99778412.976 3        22.000
G28  20848413.861   109559229.073 7        45.000    20848413.191   109559195.077 7        42.000                                                    20848413.541    85370814.100 7        42.000
G30  20537167.182   107923597.392 8        49.750    20537166.772   107923598.396 7        47.000    20537169.752    84096325.358 9        53.500    20537169.712    84096325.350 7        47.000    20537167.972    80592317.834 9        59.750
R01  21447016.038   114646624.367 7        46.750    21447016.998   114646620.379 7        46.500    21447022.288    89169598.514 7        43.000    21447023.848    89169570.521 7        41.750
R02  21282976.148   113570074.890 8        50.500    21282975.928   113570074.888 8        51.000    21282982.828    88332250.288 8        48.500    21282982.628    88332263.279 8        47.750
R08  23962318.640   128317150.996 7        44.250    23962319.380   128317122.019 7        43.750    23962321.460    99802188.222 6        38.250    23962320.820    99802200.234 6        37.750
R10  23029032.449   122757755.417 7        42.500    23029033.199   122757748.419 7        42.500    23028970.449    95478212.48313        17.500
R11  20284103.090   108392208.564 9        56.250    20284103.030   108392183.566 9        55.250    20284105.730    84305046.723 8        53.000    20284105.590    84305037.726 8        51.750    20284127.100    81329598.496 2        15.000
R12  21450177.296   114583152.614 8        51.250    21450177.446   114583026.615 8        50.250    21450182.406    89120153.572 8        49.250    21450182.466    89120124.579 8        48.000
R20  22704541.142   121411422.104 6        38.000    22704542.772   121411415.098 6        37.250    22704549.342    94431113.569 7        44.000    22704548.132    94431105.562 7        43.500
R21  21055373.365   112671729.659 8        53.000    21055373.585   112671651.665 8        52.500    21055376.975    87633493.575 8        49.500    21055377.325    87633440.568 8        48.750    21055333.105    84422084.095 8        51.750
R22  22910798.554   122299409.970 7        42.000    22910798.684   122299410.960 6        40.500    22910799.924    95121773.026 4        28.250    22910804.004    95121759.020 5        29.500
E03  24453588.372   128504491.854 8        51.250    24453588.802    98464486.652 9        53.750    24453590.872    95961153.035 8        52.000
E05  27280803.027   143361567.190 7        42.000    27280803.547   109848468.823 7        43.250    27280806.317   107055710.826 7        42.250
E24  27766920.698   145916164.655 6        40.750    27766920.688   111805893.865 7        42.500    27766924.938   108963371.837 7        44.250
E25  24157402.697   126948050.877 8        52.000    24157403.237    97271895.992 9        54.500    24157405.237    94798884.157 8        53.250
J01  44077039.601   231626439.368 5        34.000    44077037.861   180488139.084 5        30.250    44077037.061   172967804.131 6        36.250
C14  25004914.806   130207180.019 6        40.500                    25004910.326                   100684430.552 8                        49.000
C21  25214149.603   131296705.627 7        44.500    25214141.963                   101526898.860 8                        48.750
C24  25964569.624   135204364.713 6        40.500
C26  22166808.870   115428424.190 8        52.250    22166804.300                    89256542.423 9                        56.000
C29  23388383.738   121789505.659 8        49.250    23388377.738                    94175306.700 8                        53.250
C30  26792372.085   139514948.008 6        37.500    26792369.005                   107881773.295 7                        41.500
C33  26498539.398   137984865.606 6        38.250
C35  23360598.213   121644798.521 8        50.000
C36  26865162.870   139893977.155 6        39.250
C42  24516862.805   127665755.906 7        46.000
C44  26264271.882   136764976.609 6        36.750
C45  22639571.775   117890233.374 8        51.250    22639574.205                    91160231.699 9                        56.250
> 2021 01 03 00 11 30.0000000  0 39       -.000050672966
G01  24317302.417   127788322.694 5        31.000    24317304.197   127788284.695 3        18.750    24317308.457    99575318.532 6        38.500    24317308.317    99575288.506 3        18.750    24317305.747    95426331.651 7        45.250
G05  24856248.421   130620496.071 6        36.250    24856249.511   130620489.119 3        23.000    24856253.191   101782197.431 6        37.750    24856252.441   101782198.424 3        23.000
G07  21041715.268   110574998.792 8        50.500    21041714.698   110574996.789 7        44.250    21041714.678    86162348.476 8        49.500    21041714.758    86162346.473 7        44.250
G08  22980565.162   120763757.017 7        43.000    22980564.712   120763748.026 7        43.500    22980569.662    94101636.872 7        45.500    22980568.612    94101634.882 7        43.500    22980565.742    90180736.453 8        52.000
G09  23732984.732   124717673.329 6        41.000    23732983.072   124717681.317 5        29.750    23732984.892    97182603.909 7        42.250    23732986.512    97182610.904 5        29.750    23732984.522    93133331.804 8        49.000
G11  22748528.558   119544383.279 6        41.000    22748528.158   119544357.277 5        30.500                                                    22748527.688    93151458.405 5        30.500
G13  22751996.811   119562559.158 7        45.500    22751996.381   119562551.154 5        33.250                                                    22751996.701    93165625.675 5        33.250
G14  20570646.447   108099545.608 8        49.750    20570646.207   108099541.621 7        44.750    20570647.597    84233433.363 9        55.500    20570647.467    84233426.364 7        44.750    20570649.337    80723711.677 9        59.750
G17  22903940.922   120361053.270 7        44.000    22903939.832   120361052.263 5        33.750    22903941.832    93787841.127 7        43.500    22903941.362    93787841.114 5        33.750
G19  25357485.493   133254510.823 6        35.750    25357486.283   133254495.825 3        18.250                                                    25357486.643   103834675.552 3        18.250
G21  24361929.474   128022825.971 6        38.500    24361929.384   128022793.976 3        22.000                                                    24361930.944    99758023.507 3        22.000
G28  20844970.378   109541134.858 7        44.750    20844969.828   109541100.868 7        42.000                                                    20844970.198    85356714.727 7        42.000
G30  20533800.938   107905907.513 8        48.500    20533800.618   107905908.514 7        47.000    20533803.748    84082541.041 9        53.750    20533803.548    84082541.039 7        47.000    20533801.708    80579107.871 9        59.750
R01  21466104.555   114748662.221 7        46.000    21466105.565   114748658.235 7        46.500    21466112.525    89248961.281 7        42.750    21466112.335    89248933.289 7        41.750
R02  21277517.442   113540951.978 7        45.500    21277517.812   113540951.983 7        46.500    21277525.802    88309599.146 7        45.000    21277525.842    88309612.142 7        44.750
R08  23986679.048   128447597.061 7        42.750    23986679.248   128447568.051 7        43.500    23986681.418    99903646.145 6        38.250    23986682.878    99903658.162 6        39.250
R10  23042337.984   122828662.892 7        43.250    23042336.314   122828655.886 7        43.000
R11  20286972.777   108407544.533 9        54.750    20286972.857   108407519.536 9        54.750    20286975.987    84316974.716 8        52.500    20286975.617    84316965.718 8        51.250    20286994.967    81341105.534 2        14.500
R12  21440310.491   114530444.872 6        41.000    21440310.471   114530318.872 7        42.500    21440315.001    89079158.679 7        45.750    21440315.701    89079129.679 7        45.750
R20  22715483.655   121469942.943 6        37.250    22715485.175   121469935.962 6        36.250    22715494.175    94476629.829 7        46.250    22715492.705    94476621.809 7        45.500
R21  21044099.474   112611399.522 8        51.250    21044099.214   112611321.525 8        52.250    21044103.224    87586570.160 8        49.500    21044103.504    87586517.156 8        49.000    21044059.094    84376880.247 8        52.000
R22  22886833.200   122171480.430 6        39.500    22886832.890   122171481.446 6        40.250    22886835.030    95022272.380 4        28.500    22886837.020    95022258.394 4        28.500
E03  24463689.205   128557573.137 8        51.250    24463689.815    98505159.326 9        53.750    24463691.915    96000791.663 8        52.000
E05  27298419.807   143454153.407 6        39.750    27298423.827   109919411.467 7        44.000    27298426.107   107124849.849 7        42.500
E24  27778513.360   145977074.948 6        40.250    27778509.450   111852565.350 6        40.250    27778510.650   109008856.685 6        39.000
E25  24162827.421   126976557.195 8        51.750    24162827.611    97293738.498 9        54.500    24162829.841    94820171.353 8        53.250
J01  44075860.539   231620252.776 5        32.000    44075861.349   180483318.414 4        29.000    44075861.729   172963184.310 6        38.000
C14  25004321.447   130204080.665 7        41.500                    25004314.137                   100682033.927 8                        47.750
C21  25230623.636   131382503.357 7        43.250    25230617.996                   101593243.076 8                        48.500
C24  25951622.707   135136951.297 6        40.250
C26  22160301.731   115394541.185 8        51.500    22160297.501                    89230341.948 9                        56.250
C29  23390894.229   121802577.933 8        48.750    23390888.029                    94185415.026 8                        53.250
C30  26807511.654   139593788.795 6        36.000    26807508.884                   107942737.995 7                        41.500
C33  26491153.994   137946397.356 6        38.000
C35  23347200.527   121575032.321 8        50.000
C36  26878004.023   139960854.184 6        35.500
C42  24523072.743   127698087.839 7        43.500
C44  26244990.282   136664561.984 6        38.750
C45  22646181.440   117924650.778 8        51.250    22646183.820                    91186845.422 9                        56.000
> 2021 01 03 00 12  0.0000000  0 39       -.000050672791
G01  24302831.555   127712277.616 5        33.750    24302831.235   127712239.613 3        22.000    24302837.525    99516062.748 7        41.500    24302838.645    99516032.721 3        22.000    24302834.075    95369544.787 7        45.500
G05  24866831.192   130676090.812 5        35.250    24866829.772   130676083.777 3        23.250    24866831.132   101825517.917 6        38.250    24866832.902   101825518.936 3        23.250
G07  21047053.304   110603052.315 8        50.000    21047053.004   110603050.317 7        44.000    21047053.504    86184208.375 8        49.500    21047053.184    86184206.363 7        44.000
G08  22996612.432   120848084.547 7        43.500    22996612.372   120848075.545 7        43.750    22996615.422    94167346.653 7        44.750    22996615.992    94167344.636 7        43.750    22996612.882    90243708.301 8        52.000
G09  23754088.983   124828586.481 6        40.000    23754089.483   124828594.457 4        29.250    23754090.923    97269029.714 6        41.250    23754091.733    97269036.703 4        29.250    23754091.073    93216156.509 8        49.000
G11  22745045.685   119526079.809 6        39.250    22745045.165   119526053.809 5        30.250                                                    22745045.165    93137195.986 5        30.250
G13  22736095.067   119478996.368 7        45.000    22736094.777   119478988.364 5        30.750                                                    22736094.387    93100511.850 5        30.750
G14  20567315.036   108082038.470 8        51.000    20567314.806   108082034.476 7        44.750    20567315.936    84219791.450 9        55.500    20567315.946    84219784.442 7        44.750    20567317.776    80710638.174 9        60.250
G17  22884607.157   120259457.390 7        44.250    22884606.987   120259456.392 5        34.000    22884607.877    93708675.560 7        43.250    22884608.407    93708675.559 5        34.000
G19  25335367.797   133138272.475 6        36.250    25335365.637   133138257.493 3        20.000                                                    25335368.297   103744100.375 3        20.000
G21  24357019.243   127997020.241 6        38.250    24357018.993   127996988.246 3        19.500                                                    24357018.173    99737915.186 3        19.500
G28  20841586.872   109523352.242 7        46.750    20841586.232   109523318.241 7        42.250                                                    20841586.212    85342858.154 7        42.250
G30  20530489.510   107888505.077 8        49.500    20530488.890   107888506.079 7        47.000    20530492.140    84068980.709 9        53.500    20530491.890    84068980.707 7        47.000    20530490.120    80566112.552 9        60.000
R01  21485269.156   114851102.378 7        45.500    21485268.666   114851098.379 7        46.000    21485274.596    89328636.925 7        43.250    21485275.736    89328608.933 7        41.750
R02  21272209.352   113512607.082 7        44.250    21272208.562   113512607.089 7        45.750    21272213.112    88287553.140 7        46.000    21272213.612    88287566.137 7        46.000
R08  24011022.616   128577952.671 7        43.500    24011021.246   128577923.675 7        42.500    24011025.266   100005033.840 6        40.750    24011027.026   100005045.848 6        41.000
R10  23055646.597   122899604.015 7        44.750    23055645.487   122899597.023 7        43.750
R11  20289871.997   108423039.185 9        53.500    20289872.067   108423014.189 9        53.500    20289875.357    84329026.119 8        52.250    20289875.247    84329017.121 8        51.250    20289895.767    81352731.596 2        14.750
R12  21430463.547   114477845.901 7        45.000    21430463.597   114477719.903 7        46.000    21430468.087    89038248.429 7        46.000    21430468.317    89038219.422 7        46.000
R20  22726561.351   121529165.318 6        38.000    22726561.671   121529158.322 6        37.250    22726566.411    94522691.595 7        43.250    22726565.191    94522683.591 7        43.000
R21  21032952.334   112551748.483 8        51.750    21032952.184   112551670.481 8        52.250    21032956.004    87540174.937 8        49.500    21032956.544    87540121.941 8        49.250    21032911.904    84332185.238 8        51.750
R22  22862886.401   122043643.368 6        40.750    22862883.751   122043644.369 6        40.000    22862891.551    94922843.655 4        29.250    22862890.061    94922829.665 5        29.750
E03  24473853.954   128610988.083 8        51.000    24473854.464    98546087.663 9        53.750    24473856.504    96040679.445 8        52.000
E05  27316041.370   143546754.721 6        39.500    27316044.120   109990365.726 7        43.500    27316045.870   107194000.156 7        41.750
E24  27790093.887   146037942.903 6        40.750    27790095.517   111899204.586 7        44.250    27790097.187   109054310.231 7        41.750
E25  24168265.700   127005136.146 8        51.500    24168266.030    97315636.672 9        54.500    24168268.260    94841512.787 9        53.750
J01  44074687.196   231614081.305 5        33.250    44074685.416   180478509.585 4        28.000    44074687.276   172958575.811 6        37.750
C14  25003815.260   130201447.827 7        41.750                    25003808.620                   100679998.053 8                        48.250
C21  25247113.345   131468368.472 7        43.500    25247108.695                   101659639.406 8                        49.250
C24  25938678.568   135069536.607 6        41.000
C26  22153817.374   115360772.626 8        51.750    22153812.664                    89204229.968 9                        56.000
C29  23393501.168   121816150.347 8        49.000    23393494.488                    94195910.096 8                        53.250
C30  26822701.875   139672886.692 6        35.500    26822698.535                   108003901.546 6                        40.000
C33  26483850.345   137908357.024 6        40.750
C35  23333865.272   121505592.645 8        50.250
C36  26890856.375   140027767.529 6        37.750
C42  24529359.456   127730831.174 7        45.000
C44  26225695.062   136564078.891 6        41.000
C45  22652815.947   117959200.595 8        51.250    22652818.757                    91213561.528 9                        56.500
> 2021 01 03 00 12 30.0000000  0 39       -.000050670732
G01  24288393.419   127636388.039 6        36.000    24288392.569   127636350.039 3        22.000    24288396.129    99456928.016 6        39.500    24288395.559    99456898.020 3        22.000    24288393.449    95312874.050 7        47.250
G05  24877458.123   130731941.728 6        38.000    24877458.953   130731934.741 4        26.000    24877459.353   101869038.089 6        37.250    24877460.363   101869039.109 4        26.000
G07  21052450.721   110631416.381 8        50.000    21052450.551   110631414.377 7        44.250    21052450.711    86206310.229 8        49.500    21052450.671    86206308.219 7        44.250
G08  23012729.987   120932779.625 7        43.500    23012728.687   120932770.64017        43.500    23012732.497    94233342.85017        44.000    23012732.127    94233340.820 7        43.500    23012729.437    90306954.64818        52.000
G09  23775217.782   124939614.873 6        40.250    23775217.272   124939622.861 5        30.250    23775220.242    97355545.328 7        42.750    23775221.882    97355552.310 5        30.250    23775220.212    93299067.299 8        49.500
G11  22741661.775   119508300.898 6        39.250    22741661.155   119508274.929 5        30.000                                                    22741661.445    93123342.302 5        30.000
G13  22720260.751   119395785.718 7        45.000    22720260.281   119395777.71415        32.250                                                    22720260.461    93035672.41315        32.250
G14  20564046.935   108064863.329 8        49.750    20564046.435   108064859.339 7        45.000    20564047.355    84206408.243 9        54.750    20564047.545    84206401.244 7        45.000    20564049.535    80697812.605 9        60.500    20564047.025   108064794.335 8        48.500
G17  22865312.930   120158070.615 7        43.500    22865313.670   120158069.608 5        34.000    22865315.590    93629672.95317        44.000    22865315.530    93629672.935 5        34.000
G19  25313239.423   133021978.046 6        37.500    25313236.223   133021963.038 3        22.500                                                    25313237.993   103653481.541 3        22.500
G21  24352177.840   127971577.025 6        38.000    24352176.440   127971545.026 3        20.750                                                    24352177.380    99718089.340 3        20.750
G28  20838261.804   109505880.030 7        45.750    20838261.024   109505846.02417        42.250                                                    20838261.204    85329243.439 7        42.250
G30  20527232.522   107871391.349 8        51.500    20527232.222   107871392.361 7        47.250    20527235.342    84055645.351 9        54.000    20527235.252    84055645.346 7        47.250    20527233.432    80553332.836 9        60.500
R01  21504506.110   114953940.435 7        46.250    21504506.310   114953936.454 7        46.250    21504513.890    89408622.098 7        42.750    21504513.220    89408594.104 7        41.500
R02  21267042.988   113485041.621 8        51.750    21267042.758   113485041.626 8        51.750    21267046.078    88266113.333 8        47.500    21267047.198    88266126.324 7        47.250
R08  24035347.299   128708214.192 7        43.000    24035346.419   128708185.214 7        42.000    24035352.209   100106348.377 6        39.250    24035351.079   100106360.348 6        38.250
R10  23068959.585   122970578.919 7        43.000    23068958.975   122970571.935 7        42.750
R11  20292801.677   108438692.386 9        54.750    20292801.597   108438667.388 9        54.250    20292804.997    84341200.835 8        52.750    20292804.877    84341191.835 8        51.500    20292823.817    81364476.644 2        15.250
R12  21420636.838   114425355.644 8        50.250    21420637.028   114425229.65218        50.250    21420642.128    88997422.72118        49.000    21420642.568    88997393.71418        47.750
R20  22737766.476   121589086.602 6        37.250    22737765.686   121589079.60416        36.250    22737771.506    94569297.151 7        44.250    22737772.356    94569289.14417        44.000
R21  21021932.272   112492780.099 8        51.250    21021932.112   112492702.108 8        52.000    21021937.112    87494310.69618        49.750    21021936.712    87494257.695 8        49.000    21021892.042    84288001.73418        52.000
R22  22838953.318   121915903.255 6        39.750    22838952.778   121915904.23016        39.750    22838959.478    94823490.27614        29.250    22838959.918    94823476.31115        29.500
E03  24484081.421   128664735.360 8        51.000    24484082.101    98587270.636 9        53.500    24484084.141    96080815.394 8        52.000
E05  27333666.099   143639369.422 6        40.250    27333667.669   110061330.191 7        43.000    27333669.429   107263160.462 7        41.500
E24  27801668.612   146098768.969 6        38.250    27801668.632   111945811.399 7        41.750    27801671.112   109099732.169 7        42.500
E25  24173717.388   127033787.173 8        51.500    24173718.248    97337590.059 9        54.500    24173720.148    94862908.042 8        53.250
J01  44073517.406   231607925.436 5        34.250    44073516.206   180473712.83215        32.500    44073515.946   172953978.91516        38.250
C14  25003399.805   130199281.235 7        41.750                    25003392.385                   100678322.724 8                        47.750
C21  25263613.694   131554298.349 7        42.750    25263609.504                   101726085.835 8                        48.500
C24  25925729.613   135002120.576 6        40.250
C26  22147353.243   115327118.903 8        51.500    22147349.813                    89178206.77919                        56.250
C29  23396202.900   121830222.668 8        48.750    23396196.920                    94206791.721 8                        53.000
C30  26837942.685   139752239.746 6        35.500    26837938.295                   108065262.39316                        39.250
C33  26476632.170   137870745.610 6        35.750
C35  23320591.532   121436481.742 8        49.500
C36  26903714.236   140094719.78515        35.000
C42  24535725.720   127763984.310 7        45.250
C44  26206381.371   136463529.367 6        38.500
C45  22659477.073   117993883.044 8        51.250    22659479.103                    91240380.206 9                        56.250
> 2021 01 03 00 13  0.0000000  0 39       -.000050670709
G01  24273981.197   127560657.023 6        35.750    24273980.757   127560619.039 4        24.500    24273988.507    99397916.879 7        42.000    24273987.597    99397886.899 4        24.500    24273979.727    95256321.809 7        44.250
G05  24888135.786   130788046.416 6        37.500    24888134.006   130788039.409 4        24.500    24888136.006   101912756.029 6        37.000    24888137.156   101912757.014 4        24.500
G07  21057907.801   110660092.135 8        50.000    21057907.481   110660090.123 7        44.000    21057906.801    86228654.965 8        49.000    21057907.541    86228652.957 7        44.000
G08  23028915.996   121017839.577 7        43.250    23028915.156   121017830.574 7        43.250    23028920.446    94299623.302 7        46.000    23028918.706    94299621.297 7        43.250    23028916.806    90370473.434 8        52.500
G09  23796367.035   125050755.880 6        41.250    23796366.625   125050763.906 4        29.000    23796370.555    97442148.738 7        44.000    23796371.475    97442155.717 4        29.000    23796367.545    93382062.224 8        48.500
G11  22738379.042   119491048.167 6        40.250    22738377.312   119491022.139 5        30.750                                                    22738377.342    93109898.640 5        30.750
G13  22704493.298   119312929.857 7        45.000    22704493.298   119312921.853 5        33.250                                                    22704493.688    92971109.452 5        33.250
G14  20560841.076   108048019.467 8        50.750    20560841.246   108048015.481 7        45.000    20560841.836    84193283.165 9        54.500    20560842.386    84193276.155 7        45.000    20560844.196    80685234.411 9        60.750    20560841.126   108047950.475 8        50.750
G17  22846060.831   120056895.661 7        44.000    22846061.251   120056894.652 5        34.750    22846061.631    93550835.371 7        43.250    22846062.501    93550835.365 5        34.750
G19  25291098.139   132905629.452 6        38.500    25291095.689   132905614.456 3        22.250                                                    25291096.959   103562820.409 3        22.250
G21  24347406.601   127946498.409 6        40.500    24347404.731   127946466.429 3        23.250                                                    24347406.461    99698547.660 3        23.250
G28  20834995.608   109488717.405 7        46.500    20834995.208   109488683.419 7        42.250                                                    20834995.618    85315870.005 7        42.250
G30  20524031.221   107854567.589 8        53.250    20524030.851   107854568.600 8        47.500    20524033.901    84042535.932 9        54.500    20524033.761    84042535.934 8        47.500    20524031.851    80540769.648 9        60.750
R01  21523818.919   115057171.990 7        46.250    21523818.559   115057167.995 7        46.250    21523825.499    89488913.267 7        42.750    21523825.419    89488885.272 7        41.500
R02  21262022.940   113458256.311 8        51.500    21262022.700   113458256.315 8        51.500    21262028.380    88245280.295 8        48.500    21262028.030    88245293.293 8        47.500
R08  24059653.118   128838377.368 6        40.750    24059653.048   128838348.349 6        41.250    24059660.158   100207586.188 6        38.000    24059658.378   100207598.221 6        37.500
R10  23082280.517   123041588.214 7        42.250    23082279.857   123041581.231 7        42.750
R11  20295760.122   108454504.245 9        55.250    20295760.222   108454479.251 9        54.750    20295763.572    84353498.952 8        52.750    20295763.822    84353489.957 8        51.500    20295783.342    81376340.738 2        15.000
R12  21410831.657   114372973.672 8        51.250    21410831.857   114372847.678 8        51.250    21410837.167    88956681.205 8        49.750    21410837.047    88956652.198 8        48.500
R20  22749099.195   121649704.468 6        37.500    22749102.505   121649697.472 6        37.000    22749111.015    94616444.319 7        46.500    22749109.715    94616436.320 7        45.000
R21  21011040.876   112434497.623 8        51.500    21011040.866   112434419.629 8        52.000    21011044.856    87448979.915 8        50.000    21011044.916    87448926.917 8        48.750    21011000.586    84244332.155 8        52.000
R22  22815045.168   121788264.526 7        41.500    22815043.308   121788265.529 6        40.250    22815047.598    94724215.857 5        30.500    22815048.808    94724201.867 5        29.750
E03  24494372.339   128718813.598 8        51.000    24494372.859    98628707.205 9        53.750    24494374.849    96121198.489 8        52.000
E05  27351292.227   143731995.817 6        40.000    27351295.557   110132303.628 7        44.000    27351296.877   107332329.489 7        42.000
E24  27813237.731   146159552.769 7        42.750    27813235.321   111992386.143 7        42.000    27813238.441   109145122.672 6        41.250
E25  24179183.367   127062509.783 8        52.000    24179183.867    97359598.299 9        54.500    24179185.977    94884356.751 9        53.500
J01  44072347.631   231601785.065 5        34.250    44072349.051   180468928.157 5        32.750    44072347.691   172949393.598 6        37.750
C14  25003073.663   130197580.429 7        41.750                    25003066.173                   100677007.568 7                        46.500
C21  25280127.775   131640290.598 7        42.750    25280124.175                   101792580.479 8                        48.500
C24  25912782.805   134934703.258 6        40.750
C26  22140912.040   115293580.317 8        51.250    22140908.870                    89152272.624 9                        56.250
C29  23399001.325   121844794.555 8        49.000    23398995.285                    94218059.642 8                        53.000
C30  26853227.507   139831845.931 5        31.750
C33  26469489.167   137833562.980 5        31.000
C35  23307384.154   121367701.843 8        50.250
C36  26916578.271   140161706.623 6        37.000
C42  24542171.102   127797545.648 7        46.000
C44  26187062.083   136362915.444 6        38.250
C45  22666162.475   118028698.420 8        51.250    22666164.995                    91267301.661 9                        56.250
> 2021 01 03 00 13 30.0000000  0 39       -.000050669438
G01  24259600.586   127485088.164 5        34.250    24259600.586   127485050.169 4        24.250    24259607.016    99339032.138 7        42.500    24259607.916    99339002.132 4        24.250    24259604.516    95199890.472 7        47.250
G05  24898858.349   130844402.160 6        36.250    24898858.089   130844395.161 3        23.250    24898862.229   101956669.564 6        38.750    24898861.109   101956670.527 3        23.250
G07  21063423.814   110689080.358 8        49.750    21063423.814   110689078.358 7        44.250    21063423.264    86251243.198 8        49.500    21063423.754    86251241.185 7        44.250
G08  23045171.596   121103260.940 7        42.750    23045170.726   121103251.914 7        43.500    23045175.256    94366185.358 7        46.250    23045173.886    94366183.373 7        43.500    23045171.136    90434262.094 8        52.000
G09  23817537.251   125162007.063 6        39.750    23817535.751   125162015.024 4        27.750    23817538.651    97528837.890 6        40.500    23817540.021    97528844.869 4        27.750    23817538.481    93465139.314 8        48.500
G11  22735196.304   119474323.009 6        41.000    22735196.854   119474296.992 5        29.500                                                    22735195.644    93096866.098 5        29.500
G13  22688795.022   119230431.298 7        45.500    22688794.372   119230423.319 5        33.000                                                    22688794.432    92906824.851 5        33.000
G14  20557698.804   108031506.160 8        50.000    20557698.854   108031502.177 7        44.750    20557700.054    84180415.654 9        55.250    20557699.814    84180408.658 7        44.750    20557701.824    80672903.058 9        60.750    20557699.014   108031437.171 8        50.250
G17  22826849.339   119955934.957 7        44.250    22826848.269   119955933.969 5        34.250    22826849.939    93472164.763 7        43.250    22826849.149    93472164.787 5        34.250
G19  25268946.084   132789229.345 6        36.750    25268944.864   132789214.325 3        20.750                                                    25268947.824   103472119.151 3        20.750
G21  24342703.345   127921786.122 6        38.000    24342701.485   127921754.120 3        21.750                                                    24342703.425    99679291.344 3        21.750
G28  20831788.006   109471863.228 8        48.250    20831787.676   109471829.235 7        42.500                                                    20831788.226    85302736.881 7        42.500
G30  20520884.977   107838034.961 8        53.250    20520884.697   107838035.966 7        47.000    20520887.897    84029653.369 9        54.250    20520887.737    84029653.369 7        47.000    20520885.837    80528423.857 9        60.500
R01  21543202.609   115160792.323 7        46.000    21543202.219   115160788.347 7        46.250    21543209.249    89569506.878 7        42.250    21543210.249    89569478.873 7        41.750
R02  21257148.973   113432252.423 8        50.500    21257148.773   113432252.419 8        50.250    21257154.643    88225055.054 8        47.750    21257154.663    88225068.048 7        47.250
R08  24083939.882   128968438.602 7        42.000    24083942.212   128968409.602 7        42.500    24083945.572   100308744.941 6        40.250    24083947.252   100308756.946 6        39.750
R10  23095608.638   123112631.758 7        43.250    23095608.188   123112624.744 7        43.000
R11  20298749.459   108470474.809 9        55.250    20298749.279   108470449.815 9        55.000    20298752.219    84365920.510 8        53.000    20298752.219    84365911.513 8        51.500    20298772.579    81388323.935 2        15.000
R12  21401045.860   114320699.835 8        51.500    21401045.350   114320573.826 8        50.750    21401051.440    88916023.792 8        49.250    21401050.730    88915994.784 8        48.000
R20  22760569.070   121711016.217 6        38.000    22760567.690   121711009.219 6        36.750    22760571.240    94664131.282 6        40.250    22760570.400    94664123.262 6        41.000
R21  21000278.004   112376904.468 8        51.750    21000278.064   112376826.473 8        52.250    21000282.034    87404185.274 8        49.750    21000282.264    87404132.274 8        49.000    21000237.954    84201179.075 8        52.250
R22  22791151.963   121660731.985 6        41.000    22791152.303   121660732.985 6        40.750    22791160.123    94625023.985 5        31.250    22791158.763    94625009.976 5        30.250
E03  24504725.801   128773221.425 8        50.750    24504726.401    98670396.314 9        53.500    24504728.361    96161827.712 8        52.000
E05  27368919.443   143824632.112 6        39.500    27368922.353   110203284.659 7        43.250    27368926.443   107401505.911 7        42.500
E24  27824795.906   146220294.592 6        41.000    27824794.856   112038928.571 7        42.750    27824796.486   109190481.909 6        40.750
E25  24184662.561   127091303.430 8        51.750    24184663.141    97381660.969 9        54.750    24184665.141    94905858.505 8        53.250
J01  44071181.972   231595660.544 5        32.500    44071181.872   180464155.844 5        31.500    44071183.332   172944820.135 6        38.500
C14  25002835.187   130196345.027 7        42.250                    25002828.797                   100676052.284 8                        48.250
C21  25296654.412   131726342.658 7        43.250    25296648.642                   101859121.393 8                        47.750
C24  25899837.528   134867284.515 6        41.250
C26  22134495.257   115260157.241 8        49.500    22134490.377                    89126427.811 9                        56.250
C29  23401896.090   121859865.695 8        49.000    23401889.590                    94229713.612 8                        53.250
C30  26868563.174   139911703.193 4        27.250
C33  26462425.467   137796805.26316        39.000
C35  23294240.571   121299255.166 8        50.500
C36  26929447.440   140228730.759 6        37.000
C42  24548694.106   127831513.505 7        45.500
C44  26167729.088   136262239.324 6        40.500    26167726.788                   105366593.06017                        44.250
C45  22672874.321   118063646.960 8        51.250    22672876.581                    91294326.085 9                        56.250
> 2021 01 03 00 14  0.0000000  0 38       -.000050675001
G01  24245253.148   127409684.664 6        36.750    24245253.178   127409646.662 3        22.000    24245253.868    99280276.253 6        36.750    24245254.548    99280246.253 3        22.000    24245255.728    95143582.814 8        48.750
G05  24909630.297   130901005.774 6        38.500    24909631.017   130900998.78013        23.250    24909628.787   102000776.24115        34.750    24909628.317   102000777.238 3        23.250
G07  21068999.590   110718381.412 8        49.500    21068999.550   110718379.414 7        44.000    21068999.320    86274075.181 8        49.000    21068999.500    86274073.177 7        44.000
G08  23061492.940   121189041.171 7        41.750    23061493.920   121189032.207 7        43.500    23061496.810    94433027.182 7        44.500    23061497.510    94433025.180 7        43.500    23061495.140    90498318.826 8        52.250
G09  23838726.598   125273365.715 6        39.250    23838726.738   125273373.700 4        28.500    23838732.388    97615610.830 7        43.500    23838731.588    97615617.841 4        28.500    23838731.138    93548296.756 8        49.250
G11  22732114.205   119458126.437 7        41.500    22732113.605   119458100.441 5        30.250                                                    22732113.625    93084245.413 5        30.250
G13  22673163.491   119148292.902 7        44.000    22673163.331   119148284.903 5        31.500                                                    22673163.771    92842820.920 5        31.500
G14  20554619.408   108015322.641 8        51.250    20554619.438   108015318.647 7        45.250    20554620.238    84167805.134 9        55.500    20554620.178    84167798.138 7        45.250    20554622.208    80660817.975 9        60.500    20554619.518   108015253.651 8        51.000
G17  22807678.957   119855191.341 7        44.000    22807677.917   119855190.32615        34.750    22807678.887    93393663.30517        42.750    22807678.747    93393663.29615        34.750
G19  25246783.698   132672780.319 5        34.000    25246783.488   132672765.35313        19.750                                                    25246787.418   103381379.75013        19.750
G21  24338070.275   127897442.223 6        38.500    24338068.355   127897410.246 3        20.000                                                    24338070.635    99660322.164 3        20.000
G28  20828640.122   109455316.668 8        50.000    20828639.432   109455282.665 7        42.250                                                    20828639.442    85289843.475 7        42.250
G30  20517794.855   107821794.733 9        53.750    20517794.395   107821795.740 8        47.500    20517797.295    84016998.657 9        54.000    20517797.375    84016998.647 8        47.500    20517795.555    80516296.423 9        60.500
R01  21562659.353   115264797.042 7        46.250    21562659.863   115264793.05617        46.750    21562664.493    89650399.39917        42.000    21562665.783    89650371.399 6        41.250
R02  21252421.383   113407030.791 8        49.500    21252421.383   113407030.78618        49.750    21252428.263    88205438.23518        48.500    21252428.493    88205451.23718        47.750
R08  24108210.592   129098394.608 7        42.250    24108210.922   129098365.620 7        43.250    24108217.222   100409821.825 6        40.000    24108214.902   100409833.826 6        38.250
R10  23108941.813   123183709.958 6        40.750    23108940.643   123183702.930 7        41.750
R11  20301767.271   108486603.901 9        54.750    20301767.251   108486578.903 9        55.000    20301771.141    84378465.363 8        53.000    20301770.781    84378456.367 8        51.750    20301792.081    81400425.99112        15.500
R12  21391279.614   114268533.757 8        50.750    21391279.534   114268407.766 8        50.500    21391285.084    88875450.230 8        49.250    21391285.634    88875421.231 8        48.250
R20  22772164.319   121773019.598 6        39.250    22772164.449   121773012.608 6        37.750    22772169.629    94712356.192 7        44.000    22772168.419    94712348.183 7        43.500
R21  20989644.845   112320003.743 8        52.250    20989645.145   112319925.751 8        53.000    20989649.215    87359929.207 8        50.750    20989649.305    87359876.197 8        49.250    20989604.765    84158544.814 8        52.000
R22  22767284.338   121533309.950 7        42.250    22767282.668   121533310.93816        41.250    22767291.888    94525918.02515        33.250    22767290.378    94525904.01515        32.000
E03  24515141.406   128827957.444 8        50.750    24515142.266    98712336.905 9        53.500    24515144.256    96202702.012 8        51.750
E05  27386549.538   143917276.620 6        40.000    27386551.388   110274272.002 7        42.500    27386555.528   107470688.478 7        42.250
E24  27836348.263   146280994.301 7        42.250    27836346.253   112085438.599 7        42.750    27836347.683   109235809.511 7        42.000
E25  24190155.395   127120167.631 8        52.000    24190155.775    97403777.699 9        54.500    24190157.875    94927412.948 8        53.250
J01  44070020.098   231589551.933 5        34.250    44070019.788   180459395.878 5        33.250    44070019.558   172940258.54116        37.500
C14  25002686.677   130195574.611 6        40.750                    25002680.937                   100675456.571 8                        48.250
C21  25313192.340   131812451.995 7        43.500    25313186.010                   101925706.547 8                        48.500
C24  25886889.650   134799864.428 6        40.250
C26  22128098.536   115226850.108 8        51.750    22128093.926                    89100672.630 9                        56.500
C29  23404885.898   121875435.749 8        49.000    23404879.508                    94241753.380 8                        53.000
C33  26455456.387   137760485.544 6        41.250
C35  23281159.879   121231143.916 8        50.250
C36  26942328.647   140295792.137 6        35.500
C42  24555296.118   127865886.294 7        46.000
C44  26148382.309   136161503.01416        37.500    26148381.109                   105288697.45917                        44.500
C45  22679610.802   118098728.913 8        51.000    22679613.682                    91321453.675 9                        56.000
> 2021 01 03 00 14 30.0000000  0 38       -.000050672443
G01  24230931.168   127334449.924 5        32.000    24230932.378   127334411.938 3        20.750    24230940.738    99221651.811 6        40.750    24230940.548    99221621.818 3        20.750    24230934.198    95087401.143 7        44.500
G05  24920446.765   130957854.429 6        36.500    24920448.555   130957847.440 4        24.000    24920452.215   102045073.902 6        40.000    24920451.505   102045074.917 4        24.000
G07  21074635.045   110747996.217 8        49.500    21074635.055   110747994.220 7        44.000    21074634.775    86297151.651 8        49.000    21074635.155    86297149.645 7        44.000
G08  23077886.859   121275177.972 7        44.000    23077885.579   121275168.979 7        43.500    23077888.469    94500146.736 7        44.250    23077889.029    94500144.738 7        43.500    23077885.529    90562641.737 8        52.000
G09  23859938.699   125384829.307 6        40.500    23859938.369   125384837.313 4        29.250    23859941.219    97702465.595 7        41.750    23859943.259    97702472.575 4        29.250    23859939.829    93631532.535 8        48.250
G11  22729132.260   119442459.961 7        43.000    22729132.310   119442433.985 5        29.500                                                    22729132.310    93072037.760 5        29.500
G13  22657602.872   119066517.019 7        45.250    22657602.882   119066509.027 5        32.750                                                    22657602.602    92779099.485 5        32.750
G14  20551602.324   107999468.160 8        51.500    20551602.334   107999464.175 7        44.500    20551603.024    84155451.007 9        55.500    20551603.224    84155444.008 7        44.500    20551605.094    80648978.604 9        59.500    20551602.464   107999399.165 8        51.250
G17  22788547.835   119754667.338 7        43.000    22788548.395   119754666.351 5        34.750    22788549.665    93315333.002 7        43.250    22788549.885    93315332.999 5        34.750
G19  25224619.818   132556284.634 5        35.250    25224617.618   132556269.634 3        21.500                                                    25224619.128   103290603.920 3        21.500
G21  24333508.982   127873468.275 6        40.000    24333508.212   127873436.279 3        21.250                                                    24333507.422    99641641.200 3        21.250
G28  20825549.719   109439076.581 8        50.750    20825548.879   109439042.577 7        42.250                                                    20825549.029    85277188.861 7        42.250
G30  20514760.327   107805848.112 9        53.750    20514759.647   107805849.115 7        46.750    20514762.527    84004572.724 9        53.750    20514762.707    84004572.721 7        46.750    20514760.957    80504388.241 9        60.000
R01  21582186.929   115369181.264 7        46.250    21582186.479   115369177.277 7        46.250    21582193.099    89731587.106 7        42.750    21582193.459    89731559.121 6        41.250
R02  21247842.063   113382591.438 8        49.000    21247841.323   113382591.448 8        50.500    21247849.283    88186429.893 8        48.500    21247848.853    88186442.886 8        47.500
R08  24132458.779   129228241.536 6        41.000    24132458.139   129228212.510 6        41.250    24132463.719   100510813.834 6        39.250    24132463.129   100510825.807 6        38.750
R10  23122284.510   123254823.484 7        43.750    23122282.940   123254816.453 7        43.750
R11  20304815.116   108502891.632 9        54.250    20304815.366   108502866.638 9        54.750    20304818.796    84391133.601 8        52.250    20304818.596    84391124.611 8        51.250    20304839.886    81412647.14812        14.750
R12  21381535.118   114216475.385 8        51.750    21381535.498   114216349.388 8        51.500    21381539.798    88834960.398 8        48.750    21381539.718    88834931.400 8        48.000
R20  22783887.280   121835712.020 5        35.250    22783884.520   121835705.025 6        35.750    22783895.570    94761116.925 7        45.250    22783893.600    94761108.909 7        45.000
R21  20979141.689   112263799.186 8        51.250    20979141.789   112263721.195 8        52.750    20979146.149    87316214.592 8        49.750    20979146.199    87316161.588 8        49.250    20979101.379    84116432.172 8        52.250
R22  22743434.708   121406002.961 7        42.000    22743433.978   121406003.954 7        42.000    22743441.548    94426901.503 5        32.250    22743440.138    94426887.501 5        31.000
E03  24525619.786   128883020.272 8        51.000    24525620.336    98754527.898 9        53.500    24525622.466    96243820.351 8        51.750
E05  27404181.398   144009927.635 6        41.000    27404183.168   110345264.320 7        43.000    27404185.118   107539875.901 7        41.750
E24  27847884.115   146341651.831 5        35.250    27847887.975   112131916.615 7        41.500    27847891.305   109281105.795 7        41.500
E25  24195661.407   127149101.876 8        52.000    24195661.787    97425948.104 9        54.500    24195663.857    94949019.697 8        53.250
J01  44068860.466   231583459.373 5        33.500    44068861.146   180454648.523 5        34.250    44068861.536   172935708.967 6        39.500
C14  25002628.094   130195268.693 6        40.250                    25002621.564                   100675220.021 7                        47.250
C21  25329734.826   131898616.084 7        42.250    25329732.376                   101992334.067 8                        48.500
C24  25873938.790   134732442.983 6        40.000
C26  22121724.954   115193659.262 8        52.250    22121720.044                    89075007.381 9                        56.250
C29  23407971.731   121891504.351 8        49.000    23407965.381                    94254178.650 8                        53.000
C33  26448562.664   137724596.994 6        40.000
C35  23268144.543   121163370.297 8        50.250
C36  26955214.267   140362890.857 6        38.250
C42  24561974.455   127900662.277 7        46.250
C44  26129025.658   136060708.648 6        39.250    26129024.568                   105210756.932 7                        44.750
C45  22686373.878   118133944.553 8        51.000    22686376.518                    91348684.641 9                        56.250
> 2021 01 03 00 15  0.0000000  0 38       -.000050670631
G01  24216649.746   127259387.267 5        34.750    24216649.936   127259349.265 3        23.000    24216656.486    99163161.569 6        41.000    24216658.196    99163131.530 3        23.000    24216652.636    95031347.864 7        46.750
G05  24931310.281   131014945.558 5        35.250    24931309.831   131014938.569 3        21.750    24931316.451   102089560.413 6        39.750    24931314.771   102089561.418 3        21.750
G07  21080330.228   110777925.353 8        48.750    21080330.268   110777923.355 7        44.000    21080330.238    86320473.049 8        49.500    21080330.458    86320471.042 7        44.000
G08  23094344.916   121361668.500 7        43.250    23094343.396   121361659.495 7        42.750    23094348.456    94567541.992 7        45.250    23094347.006    94567539.960 7        42.750    23094345.206    90627228.835 8        52.000
G09  23881170.140   125496395.322 6        41.250    23881168.930   125496403.330 4        27.750    23881172.530    97789400.123 7        42.000    23881171.320    97789407.101 4        27.750    23881171.190    93714844.775 8        48.500
G11  22726252.088   119427324.741 7        42.500    22726252.158   119427298.746 5        29.750                                                    22726251.838    93060244.127 5        29.750
G13  22642111.061   118985106.457 7        45.750    22642110.361   118985098.476 5        33.500                                                    22642110.911    92715662.716 5        33.500
G14  20548647.772   107983941.965 8        51.500    20548647.742   107983937.968 7        44.500    20548648.532    84143352.685 9        54.500    20548648.742    84143345.684 7        44.500    20548650.632    80637384.379 9        59.250    20548647.932   107983872.970 8        51.500
G17  22769462.328   119654365.793 7        44.250    22769461.628   119654364.813 5        34.500    22769463.498    93237175.981 7        43.500    22769463.118    93237175.995 5        34.500
G19  25202441.198   132439744.473 6        37.250    25202440.908   132439729.482 3        23.000                                                    25202442.658   103199793.460 3        23.000
G21  24329017.353   127849865.980 6        39.750    24329015.263   127849833.982 3        22.000                                                    24329016.913    99623249.858 3        22.000
G28  20822517.003   109423142.105 8        50.750    20822516.323   109423108.111 7        42.500                                                    20822516.743    85264772.408 7        42.500
G30  20511781.717   107790196.348 8        53.250    20511781.157   107790197.353 7        46.750    20511784.427    83992376.546 9        53.750    20511784.357    83992376.540 7        46.750    20511782.537    80492700.240 9        59.250
R01  21601783.418   115473940.650 7        45.750    21601783.748   115473936.657 7        46.250    21601790.418    89813066.604 7        42.000    21601790.348    89813038.609 6        41.250
R02  21243410.299   113358936.330 8        51.250    21243409.909   113358936.342 8        51.500    21243416.229    88168031.495 8        48.750    21243415.889    88168044.488 8        48.000
R08  24156686.615   129357975.567 6        41.250    24156685.605   129357946.563 7        41.750    24156688.425   100611718.121 6        37.750    24156689.575   100611730.123 6        38.000
R10  23135629.440   123325972.159 7        42.250    23135630.010   123325965.189 7        42.500
R11  20307893.610   108519338.001 9        54.250    20307893.400   108519313.004 9        55.000    20307896.380    84403925.240 8        52.000    20307895.980    84403916.243 8        51.250
R12  21371808.361   114164524.306 8        50.750    21371808.231   114164398.305 8        50.500    21371814.761    88794554.045 8        49.750    21371814.971    88794525.041 8        48.500
R20  22795741.228   121899090.546 6        39.250    22795741.488   121899083.569 6        37.750    22795747.218    94810411.372 7        45.000    22795745.128    94810403.365 7        44.250
R21  20968769.068   112208293.703 8        51.500    20968769.548   112208215.709 8        52.500    20968773.298    87273043.706 8        49.000    20968773.378    87272990.693 8        49.250    20968728.928    84074843.327 8        52.250
R22  22719607.805   121278815.771 6        41.000    22719607.115   121278816.779 6        41.250    22719615.215    94327978.214 5        31.250    22719613.205    94327964.220 5        30.000
E03  24536159.772   128938408.511 8        50.750    24536160.452    98796968.240 8        53.250    24536162.552    96285181.704 8        52.000
E05  27421814.036   144102583.461 6        41.000    27421815.666   110416260.289 7        43.500    27421815.756   107609066.886 6        41.000
E24  27859423.633   146402267.326 6        39.750    27859421.543   112178362.209 7        41.500    27859421.813   109326370.620 6        39.000
E25  24201180.310   127178105.646 8        51.750    24201181.010    97448171.782 9        54.750    24201183.100    94970678.365 9        53.500
J01  44067705.430   231577383.189 6        36.000    44067706.180   180449913.796 5        33.500    44067705.830   172931171.570 6        40.250
C14  25002658.593   130195426.921 6        40.750                    25002652.373                   100675342.386 8                        48.000
C21  25346295.735   131984832.395 7        43.000    25346289.815                   102059001.986 8                        48.250
C24  25860992.265   134665020.200 6        41.000
C26  22115373.110   115160585.113 8        52.000    22115368.590                    89049432.360 9                        56.250
C29  23411153.744   121908071.122 8        48.750    23411146.844                    94266989.150 8                        53.000
C33  26441752.801   137689142.876 6        40.750
C35  23255195.256   121095936.516 8        50.750
C36  26968104.186   140430027.376 5        31.500
C42  24568729.396   127935839.822 7        45.750
C44  26109660.492   135959858.253 6        38.000    26109657.952                   105132773.133 7                        45.250
C45  22693162.883   118169294.116 8        51.000    22693164.883                    91376019.171 9                        56.250
> 2021 01 03 00 15 30.0000000  0 38       -.000050671127
G01  24202400.748   127184500.123 5        34.250    24202399.938   127184462.119 3        22.500    24202404.228    99104807.895 6        38.750    24202402.208    99104777.902 3        22.500    24202404.138    94975425.703 8        47.750
G05  24942221.437   131072276.020 6        36.750    24942221.997   131072269.034 4        24.000    24942224.487   102134233.497 6        37.500    24942222.297   102134234.488 4        24.000
G07  21086085.279   110808169.542 8        49.500    21086085.539   110808167.541 7        44.250    21086085.459    86344039.948 8        49.250    21086085.659    86344037.944 7        44.250
G08  23110869.713   121448509.881 7        42.500    23110869.573   121448500.884 7        43.250    23110873.283    94635210.595 7        44.500    23110872.703    94635208.574 7        43.250    23110869.933    90692077.920 8        51.750
G09  23902418.441   125608061.157 6        41.000    23902418.771   125608069.164 4        28.500    23902422.011    97876412.416 7        41.500    23902421.771    97876419.410 4        28.500    23902421.111    93798231.584 8        48.500
G11  22723474.200   119412722.213 6        39.250    22723473.780   119412696.226 5        29.750                                                    22723473.410    93048865.554 5        29.750
G13  22626689.218   118904063.977 7        45.500    22626688.458   118904055.978 5        33.500                                                    22626688.848    92652512.730 5        33.500
G14  20545755.820   107968743.262 8        51.500    20545755.320   107968739.273 7        44.500    20545756.110    84131509.547 9        55.000    20545756.540    84131502.549 7        44.500    20545758.410    80626034.711 9        60.250    20545755.650   107968674.268 8        51.500
G17  22750418.315   119554289.011 7        44.500    22750417.485   119554288.009 5        34.750    22750418.075    93159194.117 7        42.250    22750418.705    93159194.120 5        34.750
G19  25180258.044   132323162.356 6        36.750    25180256.094   132323147.345 3        20.500                                                    25180256.404   103108950.218 3        20.500
G21  24324596.730   127826637.515 6        39.250    24324596.670   127826605.515 3        22.500                                                    24324597.910    99605149.804 3        22.500
G28  20819543.298   109407512.199 8        50.250    20819542.168   109407478.199 7        42.250                                                    20819542.788    85252593.273 7        42.250
G30  20508859.730   107774840.683 8        52.250    20508859.220   107774841.688 7        46.750    20508862.290    83980411.099 9        53.500    20508862.110    83980411.095 7        46.750    20508860.370    80481233.357 9        60.000
R01  21621451.616   115579070.777 7        46.500    21621450.406   115579066.798 7        46.000    21621456.466    89894834.477 6        41.250    21621457.666    89894806.494 6        40.750
R02  21239125.058   113336065.889 8        52.500    21239124.568   113336065.892 8        52.000    21239129.388    88150243.372 8        48.750    21239129.708    88150256.364 8        48.000
R08  24180891.948   129487593.537 6        40.250    24180890.518   129487564.538 7        41.750    24180895.248   100712532.041 6        38.000    24180895.668   100712544.020 6        38.750
R10  23148985.047   123397156.964 7        43.000    23148982.927   123397149.955 7        42.250
R11  20311000.253   108535943.097 9        54.250    20311000.593   108535918.099 9        54.750    20311003.703    84416840.321 8        52.500    20311003.463    84416831.323 8        51.250    20311023.743    81437439.59812        13.750
R12  21362103.599   114112680.423 8        51.250    21362103.609   114112554.427 8        51.250    21362108.699    88754231.072 8        49.250    21362108.849    88754202.062 8        48.250
R20  22807715.707   121963152.866 6        36.250    22807717.197   121963145.866 6        36.000    22807727.417    94860237.580 7        46.250    22807726.657    94860229.581 7        45.500
R21  20958528.652   112153490.632 8        50.750    20958528.062   112153412.642 8        52.500    20958532.192    87230419.105 8        48.250    20958531.762    87230366.113 8        49.250    20958487.482    84033780.775 8        52.250
R22  22695804.744   121151752.932 7        42.250    22695804.224   121151753.941 7        42.000    22695810.484    94229151.627 5        31.000    22695806.904    94229137.660 5        30.000
E03  24546761.305   128994120.763 8        50.500    24546762.045    98839656.841 9        53.500    24546764.165    96326784.997 8        52.000
E05  27439444.757   144195242.378 6        40.750    27439448.517   110487258.646 7        43.500    27439448.787   107678260.193 7        41.500
E24  27870951.386   146462840.795 7        42.500    27870951.246   112224775.664 7        44.000    27870953.086   109371604.084 7        42.750
E25  24206712.936   127207178.478 8        51.750    24206713.336    97470448.365 9        54.500    24206715.496    94992388.598 8        53.250
J01  44066549.615   231571323.322 5        34.000    44066553.375   180445191.854 5        34.500    44066552.195   172926646.358 6        40.000
C14  25002776.150   130196048.741 6        40.250                    25002771.430                   100675823.229 8                        48.000
C21  25362862.514   132071098.491 7        43.500    25362855.814                   102125708.385 8                        48.000
C24  25848046.620   134597595.904 7        42.000
C26  22109043.734   115127628.026 8        52.000    22109039.554                    89023947.865 9                        56.250
C29  23414430.636   121925135.662 8        48.750    23414424.046                    94280184.548 8                        53.000
C33  26435026.489   137654122.678 6        39.750
C35  23242309.746   121028844.743 8        50.000
C36  26981007.161   140497201.641 6        36.500
C42  24575561.483   127971417.222 7        45.750
C44  26090280.684   135858954.006 6        40.500    26090278.504                   105054747.542 7                        42.500
C45  22699977.171   118204777.886 8        51.000    22699979.151                    91403457.475 9                        56.000
> 2021 01 03 00 16  0.0000000  0 38       -.000050670649
G01  24188183.804   127109791.616 6        35.750    24188184.044   127109753.580 3        22.000    24188191.234    99046593.482 7        41.750    24188187.984    99046563.487 3        22.000    24188186.154    94919636.953 7        47.250
G05  24953177.680   131129843.075 6        38.000    24953178.330   131129836.093 4        24.750    24953179.360   102179090.919 6        38.750    24953179.330   102179091.906 4        24.750
G07  21091900.800   110838729.431 8        49.750    21091900.820   110838727.439 7        44.000    21091901.360    86367852.849 8        49.500    21091901.020    86367850.847 7        44.000
G08  23127461.208   121535699.549 7        42.750    23127461.198   121535690.548 7        43.250    23127466.208    94703150.604 7        46.000    23127464.288    94703148.590 7        43.250    23127461.638    90757187.102 8        51.750
G09  23923685.612   125719824.225 6        40.250    23923686.372   125719832.250 4        28.750    23923689.262    97963500.510 7        42.750    23923691.382    97963507.513 4        28.750    23923687.282    93881691.003 8        47.750
G11  22720796.564   119398653.392 6        39.250    22720796.134   119398627.425 5        30.000                                                    22720796.064    93037902.841 5        30.000
G13  22611337.852   118823391.951 7        45.750    22611337.152   118823383.968 5        33.500                                                    22611337.442    92589651.449 5        33.500
G14  20542925.828   107953871.309 8        51.250    20542925.328   107953867.316 7        44.500    20542926.318    84119921.026 9        55.250    20542926.458    84119914.029 7        44.500    20542928.318    80614929.044 9        60.000    20542925.438   107953802.315 8        51.500
G17  22731417.514   119454439.959 7        44.000    22731417.074   119454438.967 5        34.750    22731417.264    93081389.716 7        42.500    22731417.834    93081389.741 5        34.750
G19  25158063.687   132206540.599 6        36.000    25158063.007   132206525.581 3        19.000                                                    25158063.087   103018076.212 3        19.000
G21  24320248.727   127803784.552 6        39.750    24320246.557   127803752.526 3        22.500                                                    24320247.037    99587342.362 3        22.500
G28  20816626.149   109392185.742 8        49.250    20816625.779   109392151.739 7        42.000                                                    20816625.959    85240650.595 7        42.000
G30  20505994.066   107759782.320 8        53.250    20505993.686   107759783.325 7        46.750    20505996.786    83968677.315 8        53.250    20505996.696    83968677.307 7        46.750    20505994.846    80469988.478 9        59.750
R01  21641185.450   115684566.953 7        46.500    21641186.050   115684562.956 7        45.750    21641191.910    89976887.039 7        42.250    21641192.830    89976859.039 6        41.250
R02  21234986.441   113313980.441 9        53.500    21234986.041   113313980.448 8        52.500    21234990.571    88133065.801 8        49.500    21234991.111    88133078.801 8        48.000
R08  24205070.440   129617091.275 6        40.750    24205072.860   129617062.298 6        41.000    24205079.380   100813252.519 6        38.500    24205077.890   100813264.545 6        36.500
R10  23162346.181   123468377.616 7        44.250    23162345.051   123468370.633 7        43.000
R11  20314137.488   108552707.000 9        55.750    20314137.548   108552682.003 9        54.750    20314141.238    84429878.923 8        53.000    20314140.628    84429869.923 8        51.250    20314161.488    81450018.054 2        16.500
R12  21352419.045   114060943.631 8        52.250    21352418.945   114060817.640 8        51.500    21352423.665    88713991.375 8        49.750    21352423.765    88713962.365 8        48.000
R20  22819828.505   122027895.863 6        38.500    22819827.335   122027888.864 6        37.250    22819830.905    94910593.248 7        43.500    22819830.775    94910585.245 7        43.250
R21  20948418.247   112099393.197 8        52.750    20948418.327   112099315.213 8        52.000    20948423.177    87188343.388 8        51.000    20948422.587    87188290.378 8        49.500    20948377.927    83993246.949 8        52.250
R22  22672024.567   121024818.949 7        42.250    22672024.557   121024819.958 6        41.250    22672026.737    94130425.311 5        31.000    22672028.857    94130411.323 5        31.000
E03  24557424.567   129050155.575 8        51.000    24557425.107    98882592.604 8        53.250    24557427.337    96368629.174 8        51.750
E05  27457077.627   144287902.609 6        39.250    27457081.057   110558258.024 7        43.250    27457080.797   107747454.515 6        40.500
E24  27882469.920   146523372.311 6        40.750    27882464.890   112271156.949 6        38.750    27882469.460   109416806.155 6        40.500
E25  24212258.223   127236319.878 8        52.000    24212258.803    97492777.497 9        54.750    24212260.943    95014150.040 8        53.250
J01  44065402.017   231565280.214 5        34.000    44065401.577   180440482.956 5        35.000    44065402.527   172922133.685 6        40.500
C14  25002984.787   130197133.655 6        40.750                    25002980.737                   100676662.177 8                        49.250
C21  25379436.290   132157411.816 7        42.500    25379431.920                   102192451.295 8                        48.250
C24  25835100.255   134530170.368 7        42.000
C26  22102737.334   115094788.436 8        52.500    22102733.024                    88998554.224 9                        56.500
C29  23417801.422   121942697.527 8        48.500    23417796.562                    94293764.507 8                        53.000
C33  26428386.063   137619537.357 6        37.750
C35  23229492.162   120962097.170 8        50.500
C36  26993912.543   140564414.006 6        36.250
C42  24582470.076   128007392.795 7        45.750
C44  26070894.149   135757997.886 7        41.500    26070892.559                   104976681.976 7                        44.500
C45  22706816.691   118240396.128 8        51.000    22706819.221                    91430999.752 9                        55.750
> 2021 01 03 00 16 30.0000000  0 38       -.000050672594
G01  24174002.631   127035265.269 6        36.750    24174002.301   127035227.269 4        24.750    24174008.341    98988521.168 7        42.000    24174007.811    98988491.157 4        24.750    24174000.481    94863984.249 7        45.000
G05  24964175.780   131187643.832 6        36.250    24964174.970   131187636.828 3        22.000    24964177.860   102224130.408 6        38.250    24964177.150   102224131.388 3        22.000
G07  21097776.424   110869605.680 8        49.500    21097776.464   110869603.683 7        43.750    21097776.704    86391912.255 8        49.500    21097776.644    86391910.251 7        43.750
G08  23144117.555   121623234.499 6        41.000    23144117.355   121623225.510 7        42.250    23144122.455    94771359.643 7        45.250    23144121.415    94771357.644 7        42.250    23144118.215    90822554.118 8        51.500
G09  23944972.864   125831682.089 6        40.000    23944971.634   125831690.073 4        28.250    23944975.684    98050662.476 7        41.750    23944974.514    98050669.416 4        28.250    23944974.094    93965221.146 8        47.750
G11  22718221.248   119385119.709 6        40.500    22718220.918   119385093.718 5        30.250                                                    22718220.948    93027357.158 5        30.250
G13  22596057.217   118743093.131 7        46.250    22596056.867   118743085.121 5        34.000                                                    22596057.667    92527080.948 5        34.000
G14  20540157.240   107939325.331 8        49.750    20540157.270   107939321.340 7        44.750    20540158.470    84108586.509 9        55.500    20540158.300    84108579.511 7        44.750    20540160.310    80604066.801 9        60.500    20540157.350   107939256.335 8        51.250
G17  22712461.323   119354820.951 7        45.000    22712460.433   119354819.937 5        35.000    22712459.503    93003764.566 7        42.000    22712460.823    93003764.552 5        35.000
G19  25135863.938   132089881.767 6        37.000    25135864.398   132089866.803 3        22.250                                                    25135864.808   102927173.301 3        22.250
G21  24315969.847   127781308.607 6        38.750    24315969.487   127781276.606 3        21.500                                                    24315970.687    99569828.774 3        21.500
G28  20813767.359   109377161.649 8        49.750    20813766.729   109377127.658 7        42.250                                                    20813767.059    85228943.515 7        42.250
G30  20503185.519   107745022.496 9        54.000    20503184.999   107745023.500 7        46.750    20503188.239    83957176.156 9        53.500    20503187.909    83957176.152 7        46.750    20503186.209    80458966.538 9        60.250
R01  21660989.840   115790424.680 7        46.500    21660988.370   115790420.691 7        45.500    21660995.300    90059220.821 7        42.500    21660995.230    90059192.825 6        41.000
R02  21230993.845   113292680.710 8        52.250    21230993.445   113292680.703 8        51.750    21230999.315    88116499.327 8        49.500    21230999.275    88116512.330 8        48.000
R08  24229231.381   129746465.448 6        39.750    24229232.701   129746436.477 6        40.250    24229239.391   100913876.865 6        41.250    24229237.651   100913888.870 6        38.250
R10  23175713.097   123539634.712 7        42.750    23175711.807   123539627.721 7        42.250
R11  20317304.405   108569629.809 9        55.750    20317304.615   108569604.810 9        54.750    20317307.805    84443041.108 8        53.000    20317307.745    84443032.113 8        51.500    20317327.165    81462715.70212        14.750
R12  21342753.669   114009313.596 8        52.000    21342752.979   114009187.587 8        51.000    21342758.619    88673834.675 8        50.000    21342758.359    88673805.681 8        48.250
R20  22832057.464   122093317.089 6        37.000    22832059.474   122093310.102 6        36.500    22832067.184    94961476.438 7        44.750    22832066.014    94961468.439 7        44.000
R21  20938441.693   112046004.445 9        53.500    20938442.063   112045926.455 8        52.750    20938445.363    87146818.824 8        50.250    20938445.753    87146765.825 8        49.500    20938401.123    83953244.111 8        52.250
R22  22648271.438   120898018.286 7        42.500    22648269.948   120898019.294 7        41.500    22648278.608    94031802.655 5        32.250    22648274.908    94031788.644 5        31.000
E03  24568148.945   129106511.509 8        50.750    24568149.325    98925774.424 8        53.000    24568151.475    96410713.150 8        51.750
E05  27474712.361   144380562.483 6        41.000    27474714.531   110629257.143 7        43.750    27474714.751   107816648.549 7        41.500
E24  27893980.306   146583861.841 6        39.250    27893979.726   112317506.024 7        43.000    27893980.136   109461976.860 6        39.750
E25  24217816.557   127265529.340 8        52.000    24217817.117    97515158.780 9        54.750    24217819.267    95035962.308 8        53.250
J01  44064254.759   231559253.814 5        34.000    44064256.289   180435787.062 6        36.000    44064255.759   172917633.480 6        40.750
C14  25003281.569   130198681.155 6        40.500                    25003277.269                   100677858.817 8                        48.750
C21  25396021.414   132243769.876 7        42.500    25396015.744                   102259228.821 8                        48.000
C24  25822148.452   134462743.391 6        41.250
C26  22096453.460   115062066.714 8        52.750    22096449.150                    88973251.726 9                        56.250
C29  23421270.746   121960756.314 8        48.500    23421264.476                    94307728.723 8                        53.000
C33  26421826.277   137585387.687 6        35.750
C35  23216740.294   120895695.955 8        50.750
C36  27006829.967   140631664.380 5        33.500
C42  24589455.526   128043764.786 7        45.500
C44  26051497.894   135656992.108 6        39.750    26051496.214                   104898577.991 7                        46.250
C45  22713682.761   118276149.101 8        51.000    22713685.231                    91458646.216 9                        55.750
> 2021 01 03 00 17  0.0000000  0 38       -.000050673759
G01  24159850.536   126960924.472 5        30.500    24159852.536   126960886.471 3        20.000    24159859.286    98930593.318 6        39.000    24159857.266    98930563.292 3        20.000    24159858.856    94808470.092 7        47.250
G05  24975218.295   131245675.615 6        37.000    24975219.375   131245668.622 4        23.500    24975220.395   102269349.957 6        36.750    24975219.475   102269350.927 4        23.500
G07  21103712.882   110900798.971 8        49.000    21103712.302   110900796.977 7        44.000    21103712.752    86416218.714 8        49.500    21103712.382    86416216.707 7        44.000
G08  23160841.856   121711112.209 7        42.750    23160840.956   121711103.20717        42.750    23160844.916    94839835.77717        45.500    23160844.276    94839833.800 7        42.750    23160841.586    90888177.10218        51.750
G09  23966277.077   125943632.002 7        41.500    23966276.227   125943640.013 4        28.000    23966280.087    98137896.071 7        43.500    23966278.477    98137903.094 4        28.000    23966277.977    94048820.083 8        48.500
G11  22715747.748   119372122.065 7        44.750    22715747.208   119372096.050 5        30.750                                                    22715748.078    93017229.160 5        30.750
G13  22580848.024   118663170.445 7        45.750    22580847.544   118663162.45115        34.000                                                    22580848.034    92464803.55315        34.000
G14  20537451.317   107925104.537 8        49.000    20537451.307   107925100.543 7        44.500    20537452.097    84097505.375 9        56.000    20537452.337    84097498.382 7        44.500    20537454.197    80593447.390 9        60.250    20537451.227   107925035.542 8        51.000
G17  22693546.975   119255434.610 7        44.750    22693547.555   119255433.615 5        35.000    22693546.435    92926320.72217        42.000    22693548.425    92926320.726 5        35.000
G19  25113659.179   131973188.267 6        37.250    25113657.939   131973173.270 3        22.250                                                    25113658.899   102836243.354 3        22.250
G21  24311765.765   127759211.465 6        40.250    24311765.175   127759179.464 3        22.000                                                    24311764.355    99552610.221 3        22.000
G28  20810965.884   109362438.972 8        48.750    20810964.884   109362404.98017        42.500                                                    20810965.504    85217471.307 7        42.500
G30  20500433.841   107730562.440 9        53.750    20500433.411   107730563.443 7        46.750    20500436.241    83945908.584 9        53.750    20500436.281    83945908.579 7        46.750    20500434.451    80448168.447 9        60.000
R01  21680858.892   115896638.965 7        46.500    21680858.072   115896634.992 7        46.000    21680866.572    90141831.921 7        43.000    21680865.342    90141803.925 6        41.000
R02  21227149.233   113272167.698 8        52.000    21227149.033   113272167.696 8        51.750    21227154.993    88100544.795 8        49.000    21227154.813    88100557.784 8        48.000
R08  24253366.826   129875712.243 7        42.750    24253368.706   129875683.259 7        42.500    24253373.956   101014402.072 6        41.000    24253373.756   101014414.092 6        39.250
R10  23189087.336   123610928.469 7        44.000    23189088.546   123610921.487 7        43.500
R11  20320501.149   108586711.518 9        56.000    20320501.079   108586686.524 9        54.750    20320504.379    84456326.898 8        53.250    20320504.549    84456317.900 8        51.500    20320524.509    81475532.605 2        13.750
R12  21333107.270   113957789.981 8        52.000    21333107.850   113957663.98418        51.250    21333113.230    88633760.80018        50.250    21333114.090    88633731.80118        49.000
R20  22844421.374   122159414.215 6        38.750    22844421.124   122159407.21116        37.250    22844425.914    95012885.356 7        43.250    22844424.824    95012877.34317        43.000
R21  20928597.698   111993327.565 8        53.000    20928597.768   111993249.568 8        52.500    20928601.558    87105847.93918        50.250    20928601.768    87105794.943 8        49.500    20928557.248    83913774.65818        52.250
R22  22624543.165   120771355.610 7        42.250    22624541.905   120771356.63816        41.000    22624548.145    93933287.33315        32.000    22624548.935    93933273.32915        31.250
E03  24578933.939   129163187.149 8        50.750    24578934.359    98969201.203 8        53.250    24578936.569    96453035.867 8        51.500
E05  27492342.948   144473220.327 6        41.000    27492345.528   110700254.655 7        43.000    27492346.048   107885841.026 6        40.500
E24  27905480.158   146644309.234 6        38.750    27905482.578   112363823.001 7        43.000    27905485.298   109507116.329 7        41.750
E25  24223388.020   127294806.409 8        51.750    24223388.410    97537591.863 9        54.500    24223390.410    95057825.064 8        53.250
J01  44063110.712   231553244.345 5        34.000    44063111.862   180431104.39316        35.500    44063112.502   172913145.92116        40.750
C14  25003669.386   130200690.776 6        41.000                    25003663.256                   100679412.797 8                        48.500
C21  25412613.191   132330170.197 7        43.250    25412608.321                   102326039.007 8                        48.000
C24  25809195.460   134395315.064 6        40.250
C26  22090192.007   115029463.292 8        52.250    22090187.997                    88948040.70119                        56.500
C29  23424834.079   121979311.583 8        49.000    23424827.839                    94322076.838 8                        53.000
C33  26415353.989   137551674.518 7        42.000
C35  23204055.190   120829643.247 8        50.500
C36  27019750.905   140698970.04516        36.250
C42  24596515.194   128080531.495 7        45.750
C44  26032090.078   135555938.749 6        39.750    26032087.518                   104820437.195 7                        43.250
C45  22720575.219   118312037.063 8        51.250    22720577.259                    91486397.072 9                        55.750
> 2021 01 03 00 17 30.0000000  0 38       -.000050670276
G01  24145744.982   126886772.498 6        36.000    24145745.782   126886734.518 4        24.500    24145747.032    98872812.627 6        39.500    24145748.572    98872782.647 4        24.500    24145747.112    94753096.943 8        47.750
G05  24986305.369   131303935.484 6        37.250    24986304.309   131303928.484 3        22.250    24986307.159   102314747.252 6        37.000    24986306.609   102314748.244 3        22.250
G07  21109708.846   110932309.977 8        49.750    21109708.826   110932307.989 7        44.000    21109708.876    86440772.747 8        49.500    21109708.916    86440770.742 7        44.000
G08  23177629.771   121799329.544 7        43.000    23177628.861   121799320.530 7        42.750    23177630.321    94908576.560 7        43.250    23177630.431    94908574.571 7        42.750    23177628.421    90954053.677 8        51.500
G09  23987597.288   126055671.538 6        40.750    23987595.958   126055679.533 4        28.000    23987600.208    98225199.568 7        43.500    23987600.478    98225206.579 4        28.000    23987598.018    94132485.919 8        48.000
G11  22713376.817   119359661.964 6        40.500    22713376.357   119359635.960 5        30.500                                                    22713375.507    93007520.009 5        30.500
G13  22565711.208   118583626.172 7        46.000    22565711.558   118583618.175 5        34.250                                                    22565711.598    92402821.016 5        34.250
G14  20534807.098   107911208.158 7        46.750    20534806.798   107911204.160 7        44.750    20534807.668    84086677.034 9        56.250    20534808.038    84086670.039 7        44.750    20534809.718    80583070.228 9        60.750    20534806.908   107911139.155 8        51.250
G17  22674680.284   119156283.850 7        44.750    22674680.374   119156282.872 5        35.250    22674679.404    92849060.422 7        42.500    22674680.824    92849060.445 5        35.250
G19  25091447.588   131856462.565 6        37.750    25091446.188   131856447.580 4        23.500                                                    25091446.908   102745288.346 4        23.500
G21  24307633.231   127737494.776 6        39.750    24307631.971   127737462.775 3        22.500                                                    24307632.071    99535688.154 3        22.500
G28  20808221.532   109348016.649 7        46.750    20808220.752   109347982.662 7        42.000                                                    20808220.962    85206233.149 7        42.000
G30  20497739.594   107716403.382 8        51.750    20497738.844   107716404.384 7        46.750    20497742.084    83934875.555 9        54.500    20497741.904    83934875.550 7        46.750    20497740.114    80437595.130 9        60.250
R01  21700793.210   116003205.750 7        46.000    21700794.050   116003201.762 7        45.500    21700801.720    90224717.133 7        42.250    21700800.320    90224689.159 6        40.500
R02  21223452.823   113252442.113 8        51.750    21223452.153   113252442.115 8        51.250    21223458.583    88085202.677 8        49.000    21223458.283    88085215.669 8        48.000
R08  24277480.798   130004828.406 7        42.750    24277480.918   130004799.425 7        42.000    24277484.808   101114825.726 6        39.000    24277485.478   101114837.742 6        38.500
R10  23202466.189   123682259.422 6        41.000    23202467.319   123682252.420 6        41.250
R11  20323727.130   108603952.309 9        55.500    20323727.470   108603927.312 9        55.000    20323731.040    84469736.410 8        53.250    20323730.850    84469727.409 8        51.500    20323751.570    81488468.849 2        13.500
R12  21323482.331   113906372.859 8        52.500    21323482.741   113906246.865 8        51.750    21323487.881    88593769.734 8        49.750    21323487.781    88593740.729 8        48.750
R20  22856905.589   122226184.137 6        37.500    22856906.649   122226177.144 6        36.250    22856912.299    95064817.518 7        43.250    22856911.639    95064809.511 7        43.500
R21  20918887.705   111941365.551 8        53.250    20918887.095   111941287.554 8        52.750    20918890.655    87065433.084 8        49.750    20918891.005    87065380.081 8        49.500    20918846.875    83874840.844 8        52.250
R22  22600841.196   120644835.513 7        42.500    22600839.636   120644836.544 6        41.000    22600844.966    93834882.884 5        30.750    22600846.036    93834868.876 5        31.500
E03  24589779.755   129220181.052 8        50.750    24589779.905    99012871.853 8        53.250    24589782.075    96495596.239 8        51.750
E05  27509973.901   144565874.357 6        40.250    27509978.001   110771249.296 7        43.750    27509978.261   107955030.721 7        41.500
E24  27916976.498   146704714.955 6        40.750    27916975.928   112410107.801 6        40.750    27916978.648   109552224.393 6        41.250
E25  24228971.895   127324150.606 8        51.500    24228972.455    97560076.377 9        54.500    24228974.435    95079737.935 8        53.000
J01  44061971.898   231547252.056 5        34.750    44061970.788   180426435.110 6        36.000    44061972.358   172908671.183 6        41.250
C14  25004144.475   130203161.874 7        41.750                    25004137.715                   100681323.616 8                        48.250
C21  25429211.976   132416610.246 7        42.500    25429207.766                   102392879.918 8                        48.000
C24  25796251.249   134327885.347 7        41.500
C26  22083953.913   114996978.566 8        52.250    22083949.633                    88922921.468 9                        56.500
C29  23428492.967   121998362.816 8        48.500    23428486.367                    94336808.478 8                        52.750
C33  26408957.525   137518398.564 5        33.250
C35  23191438.514   120763941.198 8        50.750
C36  27032677.940   140766298.142 6        36.750
C42  24603652.165   128117691.149 7        46.000
C44  26012674.721   135454839.990 6        41.000    26012673.651                   104742261.269 7                        44.500
C45  22727492.387   118348060.304 8        50.750    22727495.057                    91514252.529 9                        55.500
> 2021 01 03 00 18  0.0000000  0 38       -.000050675172
G01  24131670.776   126812812.623 6        36.250    24131669.926   126812774.635 3        21.750    24131674.166    98815181.657 6        39.250    24131674.106    98815151.638 3        21.750    24131672.676    94697867.328 8        47.500
G05  24997430.144   131362420.692 5        30.750    24997431.904   131362413.685 3        19.250    24997436.344   102360320.059 6        37.000    24997436.184   102360321.055 3        19.250
G07  21115765.689   110964139.408 8        50.500    21115765.699   110964137.419 7        44.000    21115765.399    86465574.890 8        49.000    21115765.689    86465572.889 7        44.000
G08  23194478.566   121887883.914 6        40.750    23194479.006   121887874.929 7        42.500    23194481.726    94977580.023 7        43.750    23194482.556    94977578.024 7        42.500    23194480.986    91020181.990 8        51.750
G09  24008930.798   126167798.057 6        38.500    24008931.888   126167806.063 4        27.500    24008936.268    98312570.914 7        42.250    24008935.658    98312577.886 4        27.500    24008934.238    94216216.744 8        47.500
G11  22711107.995   119347740.359 7        43.500    22711108.015   119347714.350 5        31.000                                                    22711107.295    92998230.470 5        31.000
G13  22550647.327   118504462.992 7        46.000    22550646.827   118504455.004 5        33.250                                                    22550646.687    92341135.414 5        33.250
G14  20532223.966   107897635.367 8        48.000    20532224.086   107897631.382 7        44.750    20532224.996    84076100.850 9        56.500    20532225.056    84076093.849 7        44.750    20532226.986    80572934.722 9        60.750    20532223.976   107897566.373 8        51.250
G17  22655857.255   119057371.172 7        44.000    22655856.695   119057370.189 5        35.000    22655857.715    92771985.665 7        42.500    22655858.275    92771985.651 5        35.000
G19  25069229.789   131739707.006 6        37.500    25069227.439   131739692.009 3        22.000                                                    25069228.319   102654310.077 3        22.000
G21  24303574.693   127716160.499 6        41.000    24303573.593   127716128.485 4        23.750                                                    24303573.243    99519064.090 4        23.750
G28  20805533.724   109333893.719 8        47.750    20805533.284   109333859.710 7        42.500                                                    20805533.234    85195228.281 7        42.500
G30  20495102.582   107702546.542 8        53.000    20495101.972   107702547.547 7        47.000    20495105.082    83924078.022 9        54.500    20495104.972    83924078.018 7        47.000    20495103.262    80427247.495 9        60.250
R01  21720793.630   116110120.120 7        46.500    21720794.550   116110116.126 7        45.500    21720801.210    90307872.749 7        42.250    21720801.240    90307844.769 6        40.750
R02  21219902.815   113233503.832 8        51.500    21219902.535   113233503.828 8        50.750    21219909.235    88070472.903 8        48.500    21219908.655    88070485.894 8        47.750
R08  24301569.644   130133810.254 7        41.750    24301567.724   130133781.248 6        39.500    24301569.824   101215144.909 6        37.750    24301572.274   101215156.887 6        35.750
R10  23215859.720   123753628.215 7        45.250    23215858.430   123753621.225 7        43.750
R11  20326983.607   108621352.111 9        55.750    20326983.467   108621327.116 9        55.250    20326987.147    84483269.595 9        53.750    20326986.827    84483260.602 8        51.250    20327004.947    81501524.42712        15.250
R12  21313876.489   113855061.797 8        52.000    21313876.549   113854935.798 8        51.000    21313881.939    88553861.140 8        49.750    21313882.059    88553832.138 8        48.250
R20  22869517.413   122293624.071 6        37.250    22869517.893   122293617.068 6        36.250    22869524.893    95117270.796 7        44.750    22869523.923    95117262.787 7        43.750
R21  20909310.911   111890121.626 9        53.500    20909311.241   111890043.630 8        52.750    20909314.951    87025576.731 8        50.500    20909315.201    87025523.730 8        49.500    20909270.631    83836445.080 8        52.250
R22  22577166.072   120518462.704 7        41.750    22577165.802   120518463.713 7        41.500    22577172.852    93736592.969 5        32.500    22577172.352    93736578.988 5        31.500
E03  24600685.236   129277491.750 8        50.750    24600685.846    99056785.247 8        53.250    24600687.906    96538393.194 8        51.750
E05  27527605.357   144658522.933 7        41.750    27527607.727   110842239.737 7        43.000    27527609.557   108024216.318 7        41.500
E24  27928465.719   146765078.727 7        42.500    27928463.739   112456360.641 7        42.250    27928465.969   109597301.279 6        40.750
E25  24234568.599   127353561.452 8        51.500    24234569.219    97582611.965 9        54.500    24234571.219    95101700.586 8        53.000
J01  44060834.712   231541277.049 6        36.000    44060836.362   180421779.303 6        36.250    44060835.212   172904209.376 6        41.000
C14  25004708.686   130206093.930 7        41.750                    25004700.636                   100683590.888 8                        48.250
C21  25445819.421   132503087.525 7        42.250    25445815.691                   102459749.622 8                        48.250
C24  25783299.728   134260454.246 6        40.000
C26  22077738.767   114964612.967 8        52.250    22077734.187                    88897894.339 9                        56.750
C29  23432245.846   122017909.560 8        48.250    23432240.146                    94351923.270 8                        53.000
C33  26402654.112   137485560.548 6        36.000
C35  23178889.409   120698591.974 8        51.250
C36  27045615.801   140833664.539 6        36.500
C42  24610862.062   128155241.983 7        44.750
C44  25993252.977   135353697.823 6        41.000    25993250.317                   104664051.840 7                        45.250
C45  22734436.696   118384219.096 8        50.750    22734438.886                    91542212.799 9                        55.750
> 2021 01 03 00 18 30.0000000  0 38       -.000050673077
G01  24117633.497   126739048.298 5        35.250    24117632.627   126739010.310 4        24.000    24117639.707    98757703.051 7        43.000    24117639.977    98757673.020 4        24.000    24117633.087    94642783.649 7        45.250
G05  25008606.978   131421127.817 6        38.500    25008606.788   131421120.825 4        25.500    25008608.558   102406065.861 6        39.000    25008608.108   102406066.853 4        25.500
G07  21121883.182   110996287.683 8        49.750    21121883.412   110996285.688 7        44.000    21121883.072    86490625.492 8        49.000    21121883.392    86490623.491 7        44.000
G08  23211395.377   121976773.026 7        42.500    23211394.437   121976764.009 7        42.750    23211397.587    95046844.244 7        43.750    23211397.357    95046842.243 7        42.750    23211395.007    91086560.206 8        51.500
G09  24030287.023   126280009.071 6        40.750    24030285.583   126280017.068 4        27.250    24030289.163    98400008.005 7        42.250    24030289.533    98400015.026 4        27.250    24030288.413    94300010.648 8        48.000
G11  22708942.701   119336358.159 7        46.000    22708941.361   119336332.166 5        30.750                                                    22708941.401    92989361.249 5        30.750
G13  22535654.913   118425683.445 7        45.250    22535654.913   118425675.447 5        33.750                                                    22535655.603    92279748.786 5        33.750
G14  20529702.701   107884385.421 8        50.250    20529702.521   107884381.433 7        44.750    20529703.631    84065776.228 9        56.250    20529703.501    84065769.225 7        44.750    20529705.601    80563040.294 9        60.750    20529702.561   107884316.416 8        51.500
G17  22637080.477   118958698.755 7        44.000    22637080.797   118958697.754 5        35.250    22637081.007    92695098.077 7        44.000    22637080.877    92695098.080 5        35.250
G19  25047005.979   131622924.010 6        36.500    25047004.689   131622908.998 3        20.500                                                    25047004.909   102563310.467 3        20.500
G21  24299586.105   127695210.165 6        39.250    24299586.195   127695178.174 3        23.250                                                    24299587.545    99502739.247 3        23.250
G28  20802902.937   109320069.107 8        49.750    20802902.397   109320035.109 7        42.250                                                    20802902.387    85184455.879 7        42.250
G30  20492523.513   107688993.139 9        53.750    20492522.923   107688994.142 7        46.750    20492526.103    83913516.931 9        54.250    20492525.983    83913516.927 7        46.750    20492524.063    80417126.450 9        60.500
R01  21740859.141   116217377.757 7        45.750    21740859.041   116217373.776 7        45.250    21740865.601    90391295.364 7        42.000    21740865.691    90391267.366 6        40.500
R02  21216501.383   113215353.583 8        51.750    21216501.783   113215353.589 8        51.250    21216507.853    88056356.048 8        49.500    21216507.913    88056369.051 8        47.750
R08  24325629.939   130262654.053 6        37.750    24325628.409   130262625.076 6        36.500    24325630.459   101315356.680 5        32.750    24325632.969   101315368.710 5        32.750
R10  23229251.349   123825034.928 6        40.750    23229250.329   123825027.948 6        39.750
R11  20330269.664   108638911.222 9        56.000    20330269.604   108638886.228 9        55.000    20330273.344    84496926.694 8        53.250    20330272.874    84496917.694 8        51.500    20330291.664    81514699.50712        15.750
R12  21304291.069   113803856.807 8        52.250    21304291.619   113803730.811 8        51.750    21304295.819    88514035.062 8        49.500    21304296.639    88514006.070 8        48.500
R20  22882257.684   122361731.267 6        38.750    22882256.214   122361724.268 6        37.250    22882262.604    95170243.120 7        45.500    22882261.584    95170235.101 7        44.750
R21  20899869.801   111839598.779 8        53.000    20899869.581   111839520.778 8        53.000    20899873.521    86986281.211 8        50.750    20899873.711    86986228.208 8        49.250    20899829.171    83798589.589 8        52.500
R22  22553520.130   120392241.588 7        42.000    22553521.050   120392242.605 7        42.000    22553531.270    93638421.054 5        32.250    22553526.150    93638407.091 5        31.250
E03  24611650.980   129335117.756 8        50.750    24611651.740    99100940.239 9        53.500    24611653.860    96581425.596 8        51.750
E05  27545234.419   144751164.343 6        39.250    27545237.299   110913224.668 7        43.250    27545238.609   108093396.559 7        42.000
E24  27939939.556   146825400.630 6        35.500    27939940.436   112502581.286 6        40.250    27939941.366   109642346.859 6        38.500
E25  24240177.954   127383038.500 8        52.000    24240178.454    97605198.282 9        54.250    24240180.504    95123712.675 8        53.000
J01  44059700.324   231535319.460 5        34.250    44059702.714   180417137.047 6        37.000    44059702.004   172899760.551 7        41.500
C14  25005359.010   130209486.313 7        41.500                    25005351.900                   100686214.119 8                        48.000
C21  25462433.418   132589599.541 7        42.000    25462428.638                   102526646.182 8                        48.000
C24  25770352.169   134193021.889 7        41.750
C26  22071545.800   114932366.917 8        52.250    22071541.680                    88872959.659 9                        56.750
C29  23436095.139   122037951.281 8        48.250    23436088.909                    94367420.826 8                        52.750
C33  26396434.268   137453161.357 6        40.000
C35  23166406.908   120633597.690 8        50.500
C36  27058560.059   140901070.588 4        28.750
C42  24618148.493   128193182.247 7        45.000
C44  25973820.371   135252514.463 6        39.750    25973817.161                   104585810.524 7                        43.000
C45  22741406.842   118420513.705 8        51.000    22741408.862                    91570278.101 9                        55.500
> 2021 01 03 00 19  0.0000000  0 38       -.000050672410
G01  24103636.686   126665482.835 5        35.000    24103635.306   126665444.811 3        22.000    24103636.156    98700379.349 6        38.000    24103637.026    98700349.350 3        22.000    24103636.676    94587848.384 8        48.500
G05  25019818.133   131480054.524 6        35.500    25019819.233   131480047.562 3        22.500    25019823.393   102451982.778 6        39.000    25019823.043   102451983.747 3        22.500
G07  21128061.686   111028755.430 8        49.750    21128061.806   111028753.431 7        43.750    21128061.886    86515925.026 8        49.000    21128061.926    86515923.026 7        43.750
G08  23228372.474   122065993.515 7        41.500    23228372.984   122065984.509 7        43.500    23228376.964    95116366.733 7        45.250    23228376.784    95116364.722 7        43.500    23228373.234    91153185.925 8        51.500
G09  24051654.613   126392302.004 6        38.750    24051653.863   126392310.029 4        27.500    24051658.253    98487508.978 7        42.750    24051658.613    98487515.967 4        27.500    24051656.783    94383865.733 8        47.500
G11  22706879.648   119325516.937 7        41.500    22706878.638   119325490.954 5        31.250                                                    22706878.718    92980913.586 5        31.250
G13  22520738.422   118347290.153 7        46.250    22520737.812   118347282.162 5        33.500                                                    22520738.352    92218663.128 5        33.500
G14  20527242.789   107871457.465 8        52.250    20527242.499   107871453.479 7        44.500    20527243.499    84055702.510 9        56.000    20527243.549    84055695.508 7        44.500    20527245.419    80553386.316 9        60.250    20527242.639   107871388.472 8        51.750
G17  22618350.158   118860269.305 7        44.750    22618349.818   118860268.297 5        35.250    22618352.338    92618399.837 7        44.500    22618350.728    92618399.824 5        35.250
G19  25024776.736   131506115.564 6        36.750    25024776.786   131506100.564 4        23.500                                                    25024777.016   102472291.025 4        23.500
G21  24295674.337   127674645.274 6        39.750    24295670.907   127674613.279 3        21.750                                                    24295674.127    99486714.746 3        21.750
G28  20800329.084   109306541.643 8        51.000    20800328.054   109306507.651 7        42.250                                                    20800328.134    85173914.995 7        42.250
G30  20490002.657   107675744.413 8        52.750    20490001.807   107675745.413 7        47.000    20490004.617    83903193.249 9        54.000    20490004.737    83903193.246 7        47.000    20490002.957    80407232.923 9        60.000
R01  21760987.949   116324973.833 7        46.000    21760986.379   116324969.819 7        44.750    21760993.519    90474981.141 7        41.500    21760993.529    90474953.153 6        40.250
R02  21213248.982   113197992.069 8        52.250    21213248.902   113197992.069 8        51.500    21213254.292    88042852.653 8        49.000    21213254.572    88042865.651 8        47.750
R08  24349659.717   130391356.648 5        34.500    24349662.217   130391327.696 5        32.750    24349668.117   101415458.706 5        32.500    24349666.707   101415470.688 5        29.750
R10  23242657.874   123896479.773 7        44.500    23242658.394   123896472.777 7        44.250
R11  20333585.403   108656629.691 9        56.000    20333585.373   108656604.693 9        54.750    20333588.583    84510707.732 8        53.000    20333588.473    84510698.728 8        51.250    20333608.703    81527994.132 2        14.750
R12  21294725.688   113752757.479 8        52.750    21294725.718   113752631.488 8        52.000    21294730.778    88474291.177 8        50.500    21294731.318    88474262.174 8        49.000
R20  22895114.709   122430502.814 6        36.000    22895113.919   122430495.804 6        35.500    22895120.689    95223732.053 7        43.500    22895120.359    95223724.054 7        43.000
R21  20890563.603   111789799.959 9        54.000    20890563.493   111789721.972 8        53.000    20890567.943    86947548.836 8        51.250    20890567.483    86947495.839 8        49.500    20890523.063    83761276.613 8        52.500
R22  22529907.951   120266176.955 7        43.750    22529905.001   120266177.960 7        42.000    22529912.691    93540370.875 5        32.750    22529909.201    93540356.885 5        30.750
E03  24622676.690   129393057.617 8        50.750    24622677.470    99145335.710 8        53.250    24622679.460    96624692.370 8        51.750
E05  27562860.644   144843796.825 6        39.250    27562863.904   110984202.777 7        42.750    27562866.404   108162570.118 7        41.750
E24  27951414.201   146885680.763 6        41.000    27951414.061   112548770.029 7        42.750    27951417.611   109687361.309 7        43.250
E25  24245799.733   127412581.301 8        51.750    24245800.253    97627834.977 9        54.250    24245802.273    95145773.867 8        52.750
J01  44058570.149   231529379.497 6        36.000    44058570.989   180412508.513 6        37.000    44058572.139   172895324.892 7        42.000
C14  25006096.509   130213338.447 6        40.500                    25006091.879                   100689192.825 8                        48.500
C21  25479053.864   132676143.838 7        42.750    25479049.184                   102593567.702 8                        48.000
C24  25757401.238   134125588.199 6        41.250
C26  22065375.993   114900240.878 8        52.250    22065372.163                    88848117.777 9                        56.750
C29  23440038.731   122058487.474 8        48.500    23440032.721                    94383300.717 8                        53.000
C33  26390300.645   137421201.480 6        41.250
C35  23153994.729   120568960.444 8        51.250
C36  27071514.253   140968514.608 6        40.000
C42  24625509.006   128231510.154 7        45.750
C44  25954380.267   135151292.006 6        39.750    25954381.067                   104507539.009 7                        46.250
C45  22748402.767   118456944.427 8        50.750    22748405.077                    91598448.646 9                        55.750
> 2021 01 03 00 19 30.0000000  0 38       -.000050673285
G01  24089674.922   126592118.437 6        35.750    24089672.702   126592080.444 4        24.000    24089678.992    98643212.152 7        42.500    24089679.652    98643182.111 4        24.000    24089675.572    94533063.242 8        48.000
G05  25031075.851   131539198.311 6        36.250    25031074.801   131539191.310 3        19.250    25031071.991   102498068.765 5        34.000    25031075.251   102498069.729 3        19.250
G07  21134301.381   111061543.744 8        50.000    21134301.231   111061541.744 7        43.750    21134301.261    86541474.357 8        49.250    21134301.261    86541472.352 7        43.750
G08  23245413.199   122155542.943 7        41.500    23245413.249   122155533.946 7        42.250    23245416.189    95186145.504 7        44.000    23245415.739    95186143.511 7        42.250    23245412.989    91220057.253 8        51.000
G09  24073038.616   126504674.225 6        39.250    24073038.216   126504682.233 4        27.000    24073040.836    98575071.716 7        41.750    24073041.686    98575078.723 4        27.000    24073039.996    94467780.016 7        47.250
G11  22704919.578   119315217.387 7        42.500    22704918.628   119315191.392 5        31.250                                                    22704918.078    92972887.987 5        31.250
G13  22505894.009   118269285.832 7        45.750    22505894.119   118269277.835 5        34.250                                                    22505894.699    92157880.549 5        34.250
G14  20524843.815   107858850.781 8        51.250    20524843.515   107858846.792 7        44.500    20524844.675    84045879.126 9        56.500    20524844.465    84045872.125 7        44.500    20524846.555    80543972.243 9        60.500    20524843.665   107858781.787 8        51.250
G17  22599667.218   118762086.123 7        45.500    22599666.768   118762085.112 6        36.000    22599665.698    92541893.478 7        42.750    22599667.018    92541893.470 6        36.000
G19  25002545.585   131389284.873 6        38.000    25002544.595   131389269.871 3        21.750                                                    25002544.145   102381254.269 3        21.750
G21  24291832.492   127654468.200 6        39.500    24291832.582   127654436.223 3        21.500                                                    24291831.842    99470992.400 3        21.500
G28  20797811.478   109293310.719 8        51.000    20797810.308   109293276.715 7        42.500                                                    20797810.658    85163605.202 7        42.500
G30  20487539.386   107662801.573 9        53.500    20487538.886   107662802.576 7        47.250    20487541.776    83893107.928 9        54.500    20487541.846    83893107.923 7        47.250    20487539.976    80397567.822 9        59.750
R01  21781176.472   116432903.881 7        45.500    21781177.502   116432899.899 7        45.500    21781183.712    90558926.752 7        42.000    21781185.062    90558898.769 6        40.500
R02  21210143.565   113181419.502 8        53.000    21210143.225   113181419.512 8        51.750    21210149.015    88029962.896 8        49.250    21210148.975    88029975.894 8        48.000
R08  24373796.133   130519914.471 4        29.250    24373670.433   130519884.712 4        28.250    24373684.303   101515447.747 5        30.500
R10  23256067.102   123967963.254 7        42.000    23256064.042   123967956.262 6        40.500
R11  20336930.481   108674507.453 9        55.250    20336930.971   108674482.457 9        55.000    20336933.791    84524612.659 8        52.750    20336933.911    84524603.663 8        51.250    20336953.061    81541408.36012        13.500
R12  21285178.708   113701763.815 8        52.000    21285178.818   113701637.815 8        51.250    21285184.138    88434629.470 8        50.000    21285184.568    88434600.468 8        48.750
R20  22908101.686   122499935.930 6        38.000    22908099.356   122499928.938 6        37.000    22908108.176    95277735.665 7        45.000    22908106.436    95277727.635 7        44.250
R21  20881393.706   111740728.386 9        54.000    20881393.616   111740650.393 8        53.000    20881397.326    86909382.087 8        51.000    20881397.226    86909329.087 8        49.750    20881352.756    83724508.524 8        52.500
R22  22506319.421   120140273.609 7        42.750    22506318.021   120140274.623 7        41.500    22506327.331    93442446.102 5        31.500    22506322.701    93442432.127 5        30.750
E03  24633761.666   129451309.858 8        50.500    24633762.426    99189970.535 8        53.250    24633764.386    96668192.409 8        51.500
E05  27580486.337   144936418.684 6        40.750    27580488.877   111055172.759 7        42.500    27580491.077   108231735.794 6        41.250
E24  27962878.157   146945919.274 6        41.250    27962874.097   112594926.802 6        39.250    27962876.127   109732344.539 6        38.250
E25  24251434.372   127442189.390 8        51.500    24251434.512    97650521.701 9        54.000    24251436.482    95167883.808 8        53.000
J01  44057442.962   231523457.326 6        36.000    44057444.712   180407893.848 6        37.250    44057445.512   172890902.518 7        42.250
C14  25006925.364   130217649.712 7        41.500                    25006919.844                   100692526.596 8                        48.250
C21  25495677.105   132762717.943 7        41.750    25495674.575                   102660512.266 8                        48.000
C24  25744453.275   134058153.309 7        42.000
C26  22059229.531   114868235.242 8        52.000    22059225.781                    88823369.001 9                        56.750
C29  23444076.787   122079517.567 8        48.250    23444071.297                    94399562.539 8                        53.000
C33  26384240.234   137389681.901 6        36.000
C35  23141650.196   120504682.383 8        51.000
C36  27084470.152   141035998.574 5        34.250
C42  24632944.741   128270223.873 7        45.750
C44  25934939.752   135050032.588 7        41.500    25934934.072                   104429238.873 7                        44.750
C45  22755424.966   118493511.522 8        50.500    22755427.426                    91626724.644 9                        55.500
> 2021 01 03 00 20  0.0000000  0 38       -.000050674684
G01  24075750.389   126518960.576 5        33.500    24075750.579   126518922.581 3        22.500    24075756.999    98586206.118 7        41.500    24075756.919    98586176.098 3        22.500    24075752.969    94478432.368 7        47.000
G05  25042372.079   131598555.416 6        38.500    25042370.879   131598548.421 4        24.500    25042371.229   102544320.961 6        38.250    25042373.029   102544321.960 4        24.500
G07  21140602.014   111094652.774 8        50.000    21140601.504   111094650.776 7        43.500    21140601.344    86567273.591 8        49.250    21140601.644    86567271.599 7        43.500
G08  23262516.516   122245418.177 7        41.750    23262515.746   122245409.167 7        42.500    23262519.726    95256178.203 7        45.000    23262519.636    95256176.186 7        42.500    23262516.826    91287171.909 8        51.500
G09  24094436.268   126617123.314 6        38.000    24094436.388   126617131.317 4        26.250    24094437.978    98662694.382 6        40.000    24094439.088    98662701.355 4        26.250    24094439.918    94551751.706 8        47.750
G11  22703062.203   119305460.661 7        42.000    22703061.963   119305434.679 5        31.500                                                    22703061.253    92965285.363 5        31.500
G13  22491124.380   118191673.068 7        45.750    22491124.270   118191665.082 5        35.250                                                    22491125.340    92097403.111 5        35.250
G14  20522505.648   107846564.464 8        51.250    20522505.568   107846560.477 7        44.500    20522506.638    84036305.392 9        56.750    20522506.508    84036298.390 7        44.500    20522508.528    80534797.414 9        60.250    20522505.608   107846495.469 8        51.000
G17  22581029.292   118664151.377 7        43.500    22581029.872   118664150.374 6        35.750    22581030.292    92465580.712 7        43.500    22581030.872    92465580.719 6        35.750
G19  24980309.015   131272433.916 6        37.000    24980308.575   131272418.918 3        22.750                                                    24980308.695   102290201.675 3        22.750
G21  24288068.885   127634680.161 7        41.500    24288067.985   127634648.176 3        22.000                                                    24288067.125    99455573.175 3        22.000
G28  20795349.434   109280374.768 8        51.000    20795348.814   109280340.786 7        42.250                                                    20795348.874    85153525.250 7        42.250
G30  20485134.973   107650165.835 8        53.000    20485134.323   107650166.837 7        46.750    20485137.463    83883261.902 9        54.750    20485137.453    83883261.897 7        46.750    20485135.513    80388132.047 9        59.750
R01  21801428.030   116541163.423 7        44.750    21801429.860   116541159.429 7        45.250    21801437.750    90643128.613 7        42.750    21801437.340    90643100.602 6        40.750
R02  21207186.227   113165636.374 8        53.250    21207185.877   113165636.372 8        52.000    21207190.577    88017687.134 8        49.250    21207191.267    88017700.130 8        48.000
R08  24397675.937   130648325.403 4        29.250    24397648.477   130648294.410 4        26.500    24397777.057   101615321.746 5        33.500    24397786.587   101615703.76914        28.500
R10  23269482.889   124039485.665 7        42.500    23269483.659   124039478.639 7        42.000
R11  20340306.179   108692544.908 9        55.750    20340306.489   108692519.909 9        54.750    20340309.779    84538641.798 8        53.000    20340309.609    84538632.800 8        51.500    20340330.039    81554942.408 2        14.000
R12  21275652.942   113650875.712 8        52.500    21275653.212   113650749.722 8        51.750    21275657.662    88395049.859 8        50.000    21275657.932    88395020.859 8        48.750
R20  22921207.277   122570027.638 6        37.750    22921206.787   122570020.634 6        36.000    22921214.727    95332251.391 7        45.000    22921213.027    95332243.387 7        43.750
R21  20872359.191   111692386.491 8        53.250    20872359.731   111692308.498 8        52.750    20872363.541    86871782.862 8        51.000    20872363.771    86871729.865 8        49.500    20872319.041    83688287.167 8        52.500
R22  22482761.435   120014535.755 7        42.000    22482762.745   120014536.765 7        41.500    22482772.725    93344650.095 5        32.750    22482770.025    93344636.097 5        31.000
E03  24644905.961   129509872.973 8        50.500    24644906.661    99234843.570 8        53.250    24644908.511    96711924.611 8        51.750
E05  27598109.495   145029028.275 6        38.500    27598111.445   111126133.294 7        41.750    27598113.105   108300892.247 6        40.500
E24  27974330.171   147006116.045 6        36.500    27974333.111   112641051.566 7        44.250    27974334.971   109777296.729 7        42.500
E25  24257080.305   127471862.320 8        51.500    24257080.985    97673258.107 9        54.250    24257083.005    95190042.170 8        53.000
J01  44056320.410   231517553.075 6        36.750    44056321.050   180403293.144 6        37.250    44056322.430   172886493.531 7        42.750
C14  25007843.582   130222419.509 7        42.250                    25007836.592                   100696214.894 8                        49.250
C21  25512308.932   132849319.297 7        42.250    25512305.232                   102727477.918 8                        47.500
C24  25731497.475   133990717.139 6        38.750
C26  22053106.957   114836350.478 8        52.500    22053102.577                    88798713.687 9                        56.250
C29  23448210.723   122101040.999 8        48.500    23448204.663                    94416205.834 8                        52.750
C33  26378275.940   137358603.017 6        39.250
C35  23129375.893   120440765.562 8        50.750
C36  27097442.089   141103523.401 6        38.250
C42  24640453.233   128309321.610 7        45.750
C44  25915482.564   134948738.361 6        40.000    25915481.124                   104350911.923 7                        44.500
C45  22762473.118   118530215.294 8        50.500    22762475.958                    91655106.322 9                        55.500
> 2021 01 03 00 20 30.0000000  0 37       -.000050674083
G01  24061867.309   126446011.554 5        33.250    24061866.629   126445973.589 3        21.000    24061875.089    98529362.802 7        41.500    24061875.729    98529332.800 3        21.000    24061872.419    94423957.569 8        47.750
G05  25053705.827   131658123.223 6        39.250    25053706.017   131658116.20614        25.750    25053707.647   102590737.47216        38.500    25053707.167   102590738.483 4        25.750
G07  21146963.309   111128083.447 8        50.250    21146963.179   111128081.446 7        43.750    21146963.159    86593323.463 8        49.500    21146963.269    86593321.463 7        43.750
G08  23279680.886   122335617.029 6        41.250    23279680.456   122335608.013 7        41.750    23279682.256    95326463.038 7        41.750    23279682.436    95326460.998 7        41.750    23279680.476    91354528.186 8        51.250
G09  24115849.083   126729646.656 6        37.750    24115849.533   126729654.63514        28.000    24115853.433    98750374.83017        43.500    24115854.793    98750381.830 4        28.000    24115850.443    94635778.84417        46.500
G11  22701309.797   119296247.882 7        45.000    22701309.197   119296221.882 5        31.250                                                    22701308.357    92958106.589 5        31.250
G13  22476430.660   118114454.361 7        46.250    22476430.810   118114446.364 5        34.750                                                    22476431.110    92037232.710 5        34.750
G14  20520228.406   107834597.744 8        51.750    20520228.426   107834593.755 7        44.750    20520229.006    84026980.683 9        56.250    20520229.216    84026973.684 7        44.750    20520231.296    80525861.240 9        59.750    20520228.326   107834528.758 8        51.250
G17  22562441.492   118566467.399 7        45.000    22562441.672   118566466.42316        36.000    22562443.492    92389463.36617        45.000    22562441.872    92389463.35916        36.000
G19  24958070.695   131155565.286 6        37.000    24958068.805   131155550.29114        24.000                                                    24958070.255   102199135.36414        24.000
G21  24284376.639   127615282.962 6        39.250    24284376.159   127615250.946 3        21.500                                                    24284376.889    99440458.506 3        21.500
G28  20792943.684   109267732.948 8        51.000    20792943.044   109267698.952 7        42.250                                                    20792943.054    85143674.490 7        42.250
G30  20482789.176   107637838.429 9        53.500    20482788.586   107637839.433 7        46.750    20482791.696    83873656.134 9        54.500    20482791.506    83873656.128 7        46.750    20482789.626    80378926.522 9        59.250
R01  21821742.895   116649747.708 7        45.750    21821742.765   116649743.71917        45.250    21821749.825    90727583.02217        42.500    21821750.245    90727555.029 6        40.250
R02  21204376.095   113150643.248 8        52.750    21204375.595   113150643.25118        51.250    21204381.945    88006025.80718        49.750    21204381.565    88006038.81118        48.000
R10  23282907.679   124111047.110 6        41.250    23282906.909   124111040.12416        41.250
R11  20343711.433   108710742.061 9        55.750    20343712.143   108710717.062 9        55.000    20343714.983    84552795.138 8        52.750    20343714.903    84552786.147 8        51.500    20343734.203    81568596.20512        14.000
R12  21266146.525   113600092.990 8        52.750    21266146.635   113599966.992 8        52.000    21266150.955    88355552.189 8        49.750    21266151.365    88355523.183 8        48.750
R20  22934435.327   122640774.963 6        37.500    22934436.997   122640767.963 6        36.250    22934443.997    95387277.121 7        44.500    22934443.147    95387269.113 7        43.750
R21  20863461.702   111644777.355 8        52.750    20863462.532   111644699.359 8        52.750    20863467.182    86834753.57018        51.500    20863466.562    86834700.56518        49.500    20863422.032    83652614.84918        52.750
R22  22459239.105   119888968.338 6        41.250    22459239.585   119888969.33417        41.500    22459247.085    93246986.60915        30.750    22459244.705    93246972.58415        31.000
E03  24656109.066   129568745.441 8        50.750    24656109.746    99279953.638 8        53.250    24656111.716    96755887.809 8        51.500
E05  27615729.465   145121623.820 6        38.000    27615733.755   111197083.105 7        43.500    27615736.045   108370038.225 7        42.500
E24  27985779.341   147066271.259 6        41.000    27985775.461   112687144.595 6        38.250    27985778.631   109822217.797 6        39.250
E25  24262739.469   127501599.669 8        51.500    24262739.849    97696043.87119        54.250    24262741.809    95212248.63418        52.750
J01  44055200.660   231511666.917 6        36.500    44055199.970   180398706.565 6        37.500    44055202.080   172882098.05717        42.750
C14  25008847.577   130227647.082 7        42.250                    25008839.957                   100700257.214 8                        48.750
C21  25528945.798   132935945.531 7        42.000    25528941.668                   102794462.797 8                        48.000
C24  25718550.400   133923279.704 6        40.750
C26  22047007.745   114804587.014 8        52.750    22047002.825                    88774152.18019                        56.750
C29  23452438.681   122123057.166 8        48.500    23452432.591                    94433230.145 8                        52.750
C33  26372390.816   137327965.733 6        40.750
C35  23117171.915   120377212.084 8        51.250
C36  27110413.635   141171086.725 6        37.250
C42  24648033.970   128348801.569 7        45.000
C44  25896025.418   134847411.458 6        41.250    25896023.488                   104272559.639 7                        45.750
C45  22769547.887   118567056.010 8        50.750    22769550.777                    91683593.899 9                        55.500
> 2021 01 03 00 21  0.0000000  0 37       -.000050675648
G01  24048025.265   126373274.841 5        31.500    24048027.805   126373236.819 3        22.500    24048031.255    98472684.842 6        39.000    24048031.955    98472654.819 3        22.500    24048032.295    94369641.256 8        48.500
G05  25065077.982   131717898.948 5        35.250    25065078.982   131717891.967 3        22.500    25065084.202   102637315.937 6        39.750    25065081.642   102637316.903 3        22.500
G07  21153386.111   111161836.227 8        50.250    21153386.241   111161834.230 7        43.500    21153385.931    86619624.328 8        49.000    21153385.981    86619622.325 7        43.500
G08  23296904.936   122426136.357 6        40.750    23296904.326   122426127.351 7        41.750    23296909.506    95396997.597 7        43.750    23296908.856    95396995.547 7        41.750    23296906.596    91422123.806 8        51.250
G09  24137277.178   126842241.606 6        39.250    24137275.848   126842249.608 4        26.750    24137279.488    98838111.147 7        42.000    24137278.788    98838118.150 4        26.750    24137277.058    94719859.453 7        47.000
G11  22699660.760   119287579.771 7        46.000    22699659.710   119287553.772 5        31.500                                                    22699659.090    92951352.235 5        31.500
G13  22461812.205   118037632.276 7        46.000    22461811.615   118037624.277 5        34.250                                                    22461812.225    91977371.368 5        34.250
G14  20518011.762   107822949.836 8        51.500    20518011.942   107822945.842 7        44.750    20518012.552    84017904.400 9        56.000    20518012.732    84017897.404 7        44.750    20518014.802    80517163.140 9        60.750    20518011.932   107822880.834 8        51.500
G17  22543900.914   118469037.110 7        45.250    22543901.294   118469036.115 6        35.750    22543900.504    92313543.678 7        43.000    22543901.124    92313543.673 6        35.750
G19  24935826.137   131038681.284 6        36.250    24935825.467   131038666.287 3        21.000                                                    24935825.897   102108057.012 3        21.000
G21  24280759.361   127596277.943 6        40.000    24280759.181   127596245.936 3        22.250                                                    24280760.291    99425649.474 3        22.250
G28  20790593.792   109255383.710 8        51.500    20790593.062   109255349.723 7        42.250                                                    20790593.162    85134051.730 7        42.250
G30  20480502.036   107625820.546 9        54.000    20480501.566   107625821.556 7        47.000    20480504.656    83864291.560 9        54.500    20480504.656    83864291.551 7        47.000    20480502.756    80369952.138 9        60.250
R01  21842114.983   116758652.220 7        45.500    21842116.503   116758648.242 7        45.750    21842121.693    90812286.518 7        42.000    21842122.933    90812258.528 6        40.750
R02  21201714.784   113136440.210 8        52.750    21201714.284   113136440.214 8        52.000    21201719.914    87994979.012 8        49.750    21201719.834    87994992.004 8        48.500
R10  23296341.556   124182648.106 7        43.500    23296341.396   124182641.091 7        43.000
R11  20347146.767   108729099.042 9        55.750    20347146.877   108729074.048 9        54.750    20347150.107    84567072.807 8        53.250    20347150.287    84567063.811 8        51.250    20347168.777    81582369.96312        15.500
R12  21256658.500   113549415.510 8        51.750    21256658.840   113549289.517 8        51.250    21256664.860    88316136.404 8        50.750    21256665.050    88316107.399 8        49.000
R20  22947790.948   122712175.176 6        37.500    22947789.668   122712168.173 6        36.500    22947796.438    95442810.610 7        45.000    22947796.528    95442802.610 7        44.000
R21  20854702.232   111597903.906 8        52.500    20854702.802   111597825.922 8        52.750    20854707.072    86798296.490 8        51.000    20854707.332    86798243.477 8        49.750    20854662.602    83617493.770 8        52.500
R22  22435751.418   119763575.877 7        43.750    22435750.598   119763576.881 7        42.250    22435756.258    93149459.177 5        31.750    22435755.598    93149445.197 5        30.500
E03  24667370.644   129627925.777 8        50.500    24667371.364    99325299.604 8        53.000    24667373.324    96800080.911 8        51.500
E05  27633347.468   145214203.652 6        40.250    27633350.518   111268020.930 7        42.500    27633352.888   108439172.539 7        41.750
E24  27997219.787   147126384.986 7        41.750    27997218.857   112733205.757 7        44.000    27997219.507   109867108.001 6        40.000
E25  24268410.499   127531400.985 8        51.750    24268410.859    97718878.653 9        54.250    24268412.859    95234502.873 8        52.750
J01  44054082.543   231505798.998 6        37.750    44054084.583   180394134.190 6        37.500    44054085.223   172877716.199 7        42.750
C14  25009938.970   130233331.829 7        41.750                    25009932.640                   100704653.020 8                        49.750
C21  25545585.556   133022594.046 7        42.000    25545580.386                   102861464.942 7                        47.000
C24  25705601.915   133855841.224 7        43.500
C26  22040930.771   114772945.339 8        52.500    22040926.391                    88749684.831 9                        56.750
C29  23456760.465   122145565.517 8        48.000    23456755.195                    94450635.024 8                        52.750
C33  26366592.072   137297770.680 6        39.500
C35  23105036.240   120314024.053 8        51.250
C36  27123398.287   141238690.103 6        39.000
C42  24655687.786   128388661.887 7        44.750
C44  25876559.762   134746053.985 6        41.000    25876557.222                   104194183.762 7                        44.500
C45  22776649.978   118604033.935 8        50.500    22776651.968                    91712187.589 9                        55.500
> 2021 01 03 00 21 30.0000000  0 37       -.000050674295
G01  24034227.594   126300753.595 5        35.250    24034226.684   126300715.581 4        24.000    24034235.014    98416174.882 7        43.250    24034234.944    98416144.866 4        24.000    24034228.324    94315485.828 7        46.000
G05  25076493.168   131777879.800 6        35.750    25076494.598   131777872.810 3        20.000    25076497.388   102684054.150 6        38.250    25076496.908   102684055.154 3        20.000
G07  21159871.071   111195911.584 8        50.250    21159870.561   111195909.582 7        43.500    21159870.401    86646176.552 8        49.000    21159870.481    86646174.544 7        43.500
G08  23314190.671   122516973.051 6        41.000    23314190.971   122516964.045 7        41.750    23314195.361    95467779.450 7        44.250    23314193.731    95467777.403 7        41.750    23314191.311    91489956.404 8        50.750
G09  24158713.677   126954905.725 6        38.000    24158713.287   126954913.748 4        26.000    24158716.137    98925901.369 6        40.000    24158716.847    98925908.367 4        26.000    24158715.997    94803991.756 7        46.750
G11  22698113.994   119279457.532 7        43.500    22698114.164   119279431.555 5        31.500                                                    22698113.474    92945023.243 5        31.500
G13  22447269.499   117961209.223 7        46.250    22447269.029   117961201.230 5        34.250                                                    22447269.189    91917820.962 5        34.250
G14  20515855.911   107811619.857 8        51.000    20515855.831   107811615.868 7        44.750    20515856.821    84009075.865 9        56.250    20515856.771    84009068.863 7        44.750    20515858.721    80508702.457 9        60.750    20515855.891   107811550.856 8        51.500
G17  22525411.193   118371863.081 7        45.750    22525409.543   118371862.099 6        36.500    22525410.183    92237823.691 7        44.500    22525410.163    92237823.681 6        36.500
G19  24913581.591   130921784.269 5        34.250    24913579.701   130921769.258 3        22.500                                                    24913582.961   102016968.610 3        22.500
G21  24277218.734   127577666.878 6        39.000    24277216.704   127577634.879 3        22.250                                                    24277218.534    99411147.401 3        22.250
G28  20788299.302   109243326.686 8        51.250    20788298.612   109243292.697 7        42.250                                                    20788298.712    85124656.660 7        42.250
G30  20478274.361   107614113.444 9        54.250    20478273.751   107614114.448 7        47.000    20478276.951    83855169.146 9        54.500    20478276.731    83855169.139 7        47.000    20478274.941    80361209.827 9        60.000
R01  21862547.286   116867872.339 7        45.500    21862547.616   116867868.338 7        45.000    21862553.636    90897235.474 6        41.250    21862554.606    90897207.473 6        40.250
R02  21199200.820   113123027.472 8        52.750    21199200.670   113123027.477 8        51.750    21199206.700    87984546.894 8        49.000    21199206.320    87984559.892 8        48.000
R10  23309779.128   124254289.756 7        41.750    23309779.348   124254282.754 6        41.000
R11  20350612.544   108747616.050 9        56.000    20350612.104   108747591.052 9        54.750    20350615.504    84581474.934 8        53.000    20350615.294    84581465.931 8        51.250    20350635.984    81596263.75012        15.750
R12  21247191.898   113498843.120 8        52.500    21247191.848   113498717.120 8        51.500    21247196.678    88276802.374 8        50.000    21247197.168    88276773.357 8        48.500
R20  22961263.925   122784225.147 6        38.750    22961264.125   122784218.157 6        37.500    22961268.625    95498849.429 7        42.750    22961267.415    95498841.453 7        42.500
R21  20846081.540   111551768.917 8        52.750    20846081.710   111551690.926 8        52.500    20846085.930    86762413.729 8        51.250    20846085.790    86762360.725 8        49.500    20846041.040    83582925.985 8        52.750
R22  22412294.624   119638363.315 7        44.250    22412293.874   119638364.311 7        42.000    22412303.374    93052071.641 5        32.250    22412300.424    93052057.667 5        31.500
E03  24678690.745   129687412.448 8        50.500    24678691.315    99370880.295 8        53.000    24678693.215    96844502.773 8        51.500
E05  27650961.618   145306766.074 6        40.250    27650963.048   111338945.299 7        41.750    27650964.878   108508293.782 6        40.500
E24  28008647.601   147186457.281 5        35.000    28008647.811   112779235.106 6        39.750    28008651.731   109911967.138 7        42.000
E25  24274093.679   127561265.849 8        51.750    24274093.909    97741762.127 9        54.250    24274096.029    95256804.563 8        53.000
J01  44052971.809   231499949.584 6        38.250    44052971.609   180389576.216 6        37.250    44052971.949   172873348.156 7        43.000
C14  25011119.061   130239473.037 7        41.500                    25011110.761                   100709401.808 8                        48.250
C21  25562229.990   133109262.544 7        42.750    25562225.970                   102928482.475 8                        48.750
C24  25692648.692   133788401.563 7        41.750
C26  22034877.813   114741425.868 8        52.500    22034873.453                    88725311.989 9                        56.750
C29  23461177.458   122168565.376 8        48.500    23461171.888                    94468420.007 8                        52.750
C33  26360880.779   137268018.387 6        41.250
C35  23092971.559   120251203.466 8        50.500
C36  27136386.137   141306333.597 5        33.250
C42  24663415.709   128428900.685 7        45.500
C44  25857090.448   134644668.102 6        41.250    25857087.528                   104115785.893 7                        45.000
C45  22783776.023   118641149.424 8        50.250    22783779.593                    91740887.631 9                        55.250
