     3.03           OBSERVATION DATA    M                   RINEX VERSION / TYPE
sbf2rin-13.0.0x                         20210104 000712 UTC PGM / RUN BY / DATE
IISC                                                        MARKER NAME
22306M002                                                   MARKER NUMBER
GGN                 C-MMACS                                 OBSERVER / AGENCY
3013572             SEPT POLARX5        5.3.2               REC # / TYPE / VERS
CR6200548032        ASH701945E_M    NONE                    ANT # / TYPE
  1337936.4550  6070317.1261  1427876.7852                  APPROX POSITION XYZ
        0.0780        0.0000        0.0000                  ANTENNA: DELTA H/E/N
G   14 C1C L1C S1C C1W S1W C2W L2W S2W C2L L2L S2L C5Q L5Q  SYS / # / OBS TYPES
       S5Q                                                  SYS / # / OBS TYPES
E   15 C1C L1C S1C C6C L6C S6C C5Q L5Q S5Q C7Q L7Q S7Q C8Q  SYS / # / OBS TYPES
       L8Q S8Q                                              SYS / # / OBS TYPES
R   12 C1C L1C S1C C1P L1P S1P C2P L2P S2P C2C L2C S2C      SYS / # / OBS TYPES
C    9 C2I L2I S2I C7I L7I S7I C6I L6I S6I                  SYS / # / OBS TYPES
J    9 C1C L1C S1C C2L L2L S2L C5Q L5Q S5Q                  SYS / # / OBS TYPES
I    3 C5A L5A S5A                                          SYS / # / OBS TYPES
SEPTENTRIO RECEIVERS OUTPUT ALIGNED CARRIER PHASES.         COMMENT
NO FURTHER PHASE SHIFT APPLIED IN THE RINEX ENCODER.        COMMENT
G L1C                                                       SYS / PHASE SHIFT
G L2W                                                       SYS / PHASE SHIFT
G L2L  0.00000                                              SYS / PHASE SHIFT
G L5Q  0.00000                                              SYS / PHASE SHIFT
E L1C  0.00000                                              SYS / PHASE SHIFT
E L6C  0.00000                                              SYS / PHASE SHIFT
E L5Q  0.00000                                              SYS / PHASE SHIFT
E L7Q  0.00000                                              SYS / PHASE SHIFT
E L8Q  0.00000                                              SYS / PHASE SHIFT
R L1C                                                       SYS / PHASE SHIFT
R L1P  0.00000                                              SYS / PHASE SHIFT
R L2P  0.00000                                              SYS / PHASE SHIFT
R L2C                                                       SYS / PHASE SHIFT
C L2I                                                       SYS / PHASE SHIFT
C L7I                                                       SYS / PHASE SHIFT
C L6I                                                       SYS / PHASE SHIFT
J L1C                                                       SYS / PHASE SHIFT
J L2L  0.00000                                              SYS / PHASE SHIFT
J L5Q  0.00000                                              SYS / PHASE SHIFT
I L5A                                                       SYS / PHASE SHIFT
    30.000                                                  INTERVAL
  2021     1     3     0     0    0.0000000     GPS         TIME OF FIRST OBS
  2021     1     3    23    59   30.0000000     GPS         TIME OF LAST OBS
   123                                                      # OF SATELLITES
 C1C    0.000 C1P    0.000 C2C    0.000 C2P    0.000        GLONASS COD/PHS/BIS
DBHZ                                                        SIGNAL STRENGTH UNIT
 24 R01  1 R02 -4 R03  5 R04  6 R05  1 R06 -4 R07  5 R08  6 GLONASS SLOT / FRQ #
    R09 -2 R10 -7 R11  0 R12 -1 R13 -2 R14 -7 R15  0 R16 -1 GLONASS SLOT / FRQ #
    R17  4 R18 -3 R19  3 R20  2 R21  4 R22 -3 R23  3 R24  2 GLONASS SLOT / FRQ #
                                                            END OF HEADER
> 2021 01 03 00 00  0.0000000  0 49
C01  40364942.570 5                        31.719    40364939.308 4 162532886.78204        29.844
C02  35828894.232 7 186570516.18107        45.469    35828890.465 8 144268167.44308        50.156    35828889.660 6 151603827.89706        39.844
C03  37044251.495 7 192899146.94607        43.031    37044250.334 7 149161854.63207        46.531    37044247.155 6 156746341.80306        36.500
C05  36461205.594 7 189863079.80907        44.875    36461203.741 8 146814172.53408        48.562    36461201.658 6 154279287.14506        39.594
C06  37185689.680 7 193635661.98007        44.062    37185687.797 7 149731370.21707        46.906    37185683.452 6 157344802.43406        38.281
C08  38144475.146 6 198628370.24506        39.594    38144472.503 7 153592071.92607        44.906    38144467.868 5 161401812.46405        35.156
C09  35931090.378 7 187102633.38307        47.031    35931089.982 8 144679715.67708        50.500    35931083.969 6 152036189.42506        40.281
C10  39663767.769 5 206539723.31705        33.781    39663767.602 6 159709660.35906        36.531    39663761.293 4 167830409.65004        28.688
C13  37113498.984 7 193259814.77007        44.938    37113503.490 7 149440816.86907        45.125    37113498.101 6 157039443.10406        37.562
C16  36938369.570 7 192347801.39707        46.500    36938372.510 7 148735536.43407        47.094    36938366.340 6 156298321.79906        36.906
C23  25824521.857 6 134475080.69606        37.188                                                    25824512.158 5 109271966.66905        31.125
C25  25967865.197 4                        25.031
C27  22537356.350 8 117357938.46408        49.594                                                    22537353.965 6  95362924.28606        40.594
C28  21813068.354 8 113586375.52308        50.312                                                    21813066.678 7  92298232.68607        44.062
C32  23885865.753 7 124379981.82907        45.188                                                    23885865.955 6 101068920.44706        38.969
C33  25872808.481 5                        30.875
E01                                                                                                  28528908.659 3                        19.438
E07  26015515.758 7 136712482.02107        42.750    26015510.178 5 110967884.50905        31.281    26015513.829 5 102090473.84405        34.844    26015517.168 7 104753737.66607        44.969    26015513.688 7 103422096.32507        44.469
E13  25808452.234 6 135624370.86506        41.062    25808448.879 5 110084684.72205        30.125    25808449.718 6 101277946.43206        36.375    25808453.079 7 103919989.95007        45.469    25808449.574 7 102598967.26507        45.062
E18  19562547.583 7 102801890.04607        47.375    19562541.764 6  83443057.96606        36.000    19562543.968 6  76767630.59406        41.438    19562547.481 8  78770273.62808        50.625    19562543.964 8  77768951.19008        50.312
E19  24854742.839 6 130612568.41306        40.594                                                    24854738.948 5  97535331.78605        33.125    24854742.066 7 100079751.15907        43.250
E26  23039718.972 8 121074563.94008        48.344    23039714.676 6  98274773.01606        38.000    23039717.323 7  90412829.33507        42.094    23039720.544 8  92771438.46608        51.719    23039717.420 8  91592128.47708        51.312
E33  25838061.587 6 135779953.00206        40.188                                                    25838057.583 5 101394097.27505        34.625    25838061.438 7 104039175.76407        45.531    25838057.569 7 102716626.58807        44.750
G10  22812656.337 7 119881314.45607        43.688    22812655.676 7        44.625    22812656.807 7  93414018.79307        44.625    22812656.668 7  93414027.80107        43.281    22812650.287 6  89521749.09706        38.281
G15  22616896.572 7 118852605.61307        42.281    22616896.148 6        39.156    22616894.740 6  92612417.59906        39.156    22616895.633 6  92612424.58706        38.188
G18  21179603.814 7 111299571.46607        45.281    21179603.425 6        37.969    21179601.893 6  86726935.61106        37.969    21179602.453 7  86726940.61707        47.375    21179601.864 7  83113320.07607        42.375
G20  21884455.728 7 115003608.25507        43.156    21884454.427 5        31.812    21884453.393 5  89613192.77505        31.812
G23  21973243.908 7 115470191.01807        43.094    21973243.542 5        32.594    21973242.064 5  89976770.41405        32.594    21973242.600 7  89976770.42107        44.031    21973242.028 6  86227738.55806        39.562
G24  22552661.868 6 118515044.06306        39.969    22552661.444 6        40.469    22552662.144 6  92349383.23606        40.469    22552663.150 7  92349374.23107        42.312    22552658.175 6  88501469.37906        37.812
G25                                                                                                                                  25087328.355 3                        22.500
G26                                                                                                                                  25247960.153 3                        21.500
G29  21390801.591 7 112409431.87207        46.594    21390800.965 8        50.969    21390800.212 8  87591755.81408        50.969    21390800.404 7  87591754.82207        45.469
G32  22471874.627 7 118090504.14507        44.750    22471874.198 7        45.688    22471874.215 7  92018574.21407        45.688    22471875.243 7  92018571.21607        43.375    22471868.512 6  88184447.48206        37.281
I01  41815543.691 7 164093236.79507        43.188
I02  37754421.853 6 148156561.67706        38.750
I03  35942286.594 7 141045328.89407        46.188
I04  38735932.208 6 152008141.95706        38.688
I05  36965294.398 6 145059790.52706        41.250
I06  38148504.864 6 149703038.11906        38.625
I07  43525402.862 6 170803034.80606        38.438
J01                                                  42848328.171 4 175456747.17804        29.656
J03  36984091.809 6 194352807.15806        37.844    36984091.874 6 151443789.33406        40.781    36984087.991 5 145133630.47205        34.031
J07  38437085.512 5 201988282.58605        34.781    38437085.529 7 157393455.49407        43.125    38437082.698 6 150835390.44006        37.750
R03  21995791.308 6 117745218.23506        36.406    21995791.063 6 117745197.22306        36.500    21995796.773 7  91579632.85507        42.344    21995796.823 7  91579630.85307        42.156
R04  20099019.484 6 107629325.19506        40.875    20099019.261 6 107629349.21606        41.719    20099024.833 7  83711737.63707        46.969    20099024.582 7  83711737.64407        47.062
R05  22011340.902 6 117663241.79606        37.562    22011341.017 6 117663246.77506        37.594    22011347.462 6  91515876.93506        41.406    22011347.334 6  91515881.92806        41.688
R17  20903895.226 6 111860969.07106        40.125    20903895.490 6 111860975.08206        40.000    20903901.153 7  87003009.91407        45.031    20903901.362 7  87003035.92107        44.625
R18  19375386.135 7 103427137.23207        45.688    19375386.402 7 103427143.22907        45.562    19375392.486 8  80443354.05608        49.969    19375392.275 8  80443364.06708        49.312
R19                                                                                                                                                  21647529.532 6  90066430.34406        40.594
> 2021 01 03 00 00 30.0000000  0 48
C01  40364968.076 5 210190979.65205        30.688    40364965.945 5                        30.250
C02  35828876.421 7 186570424.21307        45.188    35828872.752 8 144268096.33908        50.094    35828871.952 6 151603753.17406        39.750
C03  37044367.288 7 192899750.31207        42.844    37044365.881 7 149162321.19607        46.312    37044363.174 6 156746832.08506        36.469
C05  36461189.505 7 189862996.60507        44.469    36461187.521 8 146814108.19008        48.406    36461185.693 6 154279219.53206        39.469
C06  37187555.304 7 193645377.35407        43.719    37187553.334 7 149738882.75807        46.656    37187549.357 6 157352696.98206        38.375
C08  38139617.460 6 198603074.48106        39.688    38139614.483 7 153572511.63307        44.656    38139609.785 5 161381257.56105        34.719
C09  35929530.361 7 187094511.25307        46.312    35929529.993 8 144673435.13008        50.188    35929524.297 6 152029589.53306        40.281
C10  39667590.469 5 206559629.17505        33.406    39667590.249 6 159725052.84106        36.688    39667584.084 4 167846584.83704        28.562
C13  37108356.501 7 193233037.27407        44.625    37108361.233 7 149420110.79907        45.062    37108355.730 6 157017684.19306        37.375
C16  36939956.301 7 192356063.08107        46.312    36939959.191 7 148741924.89207        47.094    36939953.073 6 156305035.09006        37.281
C23  25816850.353 6 134435131.89506        37.344                                                    25816841.218 5 109239505.02905        31.469
C25  25961881.906 4                        25.281
C27  22525887.720 8 117298219.24408        49.188                                                    22525885.447 6  95314397.52506        40.688
C28  21818451.753 8 113614408.45808        50.250                                                    21818450.288 7  92321011.75307        43.781
C32  23882626.310 7 124363112.33207        45.906                                                    23882626.346 6 101055212.60006        39.281
C33  25885811.602 5                        32.219
E07  26029353.954 7 136785201.77907        42.906    26029348.560 5 111026910.26405        31.250    26029352.281 5 102144777.52805        35.250    26029355.031 7 104809458.00107        44.781    26029351.919 7 103477108.33607        44.469
E13  25816383.772 6 135666050.85606        40.625    25816379.641 5 110118515.86505        30.156    25816381.237 6 101309071.10706        36.156    25816384.179 7 103951926.56407        44.938    25816381.006 7 102630497.90807        44.750
E18  19558370.294 7 102779939.19007        47.156    19558364.628 6  83425240.69006        36.000    19558366.602 6  76751238.72606        41.156    19558370.226 8  78753454.14208        50.344    19558366.746 8  77752345.51408        50.062
E19  24846435.272 6 130568911.47406        40.594                                                    24846431.208 5  97502730.86105        33.312    24846434.658 7 100046299.75007        43.125
E26  23035432.098 7 121052035.94807        47.969    23035427.803 6  98256487.32506        38.281    23035430.367 6  90396006.48106        41.969    23035433.566 8  92754176.75908        51.250    23035430.501 8  91575086.19608        51.000
E33  25824925.785 6 135710924.26606        40.250                                                    25824921.845 5 101342549.83305        34.344    25824925.830 7 103986283.61907        45.656    25824921.868 7 102664406.79707        44.812
G10  22811074.713 7 119873002.59407        42.188    22811074.052 7        42.844    22811074.424 7  93407542.01907        42.844    22811074.937 7  93407551.02907        42.125    22811068.407 6  89515542.19106        37.500
G15  22635374.183 7 118949706.31807        42.219    22635373.759 6        39.469    22635372.722 6  92688080.48006        39.469    22635372.664 6  92688087.49106        38.906
G18  21171911.424 7 111259148.28807        45.594    21171911.035 6        37.938    21171909.395 6  86695437.03206        37.938    21171910.402 7  86695442.03607        47.125    21171909.654 7  83083133.93307        42.188
G20  21885189.293 7 115007464.00907        44.062    21885187.992 5        32.000    21885186.931 5  89616197.25105        32.000
G23  21976261.989 7 115486051.12007        43.812    21976261.609 5        33.188    21976260.373 5  89989128.92405        33.188    21976260.989 7  89989128.92907        44.375    21976260.380 6  86239582.12106        39.031
G24  22549681.664 6 118499385.13806        40.125    22549681.244 6        40.562    22549682.343 6  92337181.46306        40.562    22549682.722 7  92337172.47307        42.188    22549678.058 6  88489776.02606        37.406
G25                                                                                                                                  25093540.763 4                        25.281
G26                                                                                                                                  25252126.100 3                        19.406
G29  21405548.604 7 112486926.27607        46.656    21405547.974 8        50.969    21405547.143 8  87652141.06408        50.969    21405547.138 7  87652140.06907        46.000
G32  22456487.451 7 118009646.78407        43.781    22456487.018 7        45.031    22456487.490 7  91955568.47907        45.031    22456488.656 7  91955565.48707        42.875    22456481.694 6  88124066.98206        36.938
I01  41831113.953 7 164154339.53007        43.500
I02  37756225.581 6 148163640.74606        38.688
I03  35942219.184 7 141045064.52807        46.281
I04  38734377.418 6 152002041.95606        38.438
I05  36965113.691 6 145059080.63206        41.562
I06  38148631.944 6 149703535.85206        38.781
I07  43522010.240 6 170789721.59506        38.656
J01                                                  42848110.132 5 175455848.98905        30.062
J03  36983956.179 6 194352096.07306        38.562    36983956.646 6 151443235.25406        40.688    36983952.790 5 145133099.48405        34.312
J07  38437073.250 5 201988216.91505        34.750    38437072.981 7 157393404.30507        43.188    38437070.052 6 150835341.41106        37.656
R03  22014007.263 6 117842735.07806        36.719    22014008.037 6 117842714.04106        36.219    22014013.885 7  91655479.26307        42.688    22014013.509 7  91655477.27507        42.844
R04  20105425.370 6 107663632.39006        41.875    20105426.182 6 107663656.39506        41.781    20105431.634 7  83738421.01007        47.438    20105431.049 7  83738421.00407        47.219
R05  22001272.121 6 117609417.27706        36.406    22001272.052 6 117609422.28706        36.938    22001278.122 6  91474013.45106        41.938    22001277.938 6  91474018.44306        41.781
R17  20918422.850 6 111938711.56806        40.094    20918423.361 6 111938717.57206        39.875    20918429.614 7  87063476.31607        45.125    20918429.376 7  87063502.31307        45.156
R18  19369815.381 7 103397398.93607        45.312    19369815.210 7 103397404.95407        45.438    19369821.817 8  80420224.29208        50.281    19369821.589 8  80420234.29308        49.688
R19                                                                                                                                                  21626743.292 6  89979948.50906        41.250
> 2021 01 03 00 01  0.0000000  0 47
C01  40364995.222 5 210191118.36005        30.562    40364992.719 5                        30.219
C02  35828859.159 7 186570334.40907        45.406    35828855.467 8 144268026.89408        50.156    35828854.681 6 151603680.18306        39.812
C03  37044483.798 7 192900355.53107        42.812    37044482.265 7 149162789.18107        46.531    37044479.164 6 156747323.88606        36.375
C05  36461174.013 7 189862916.29607        44.656    36461172.321 8 146814046.09008        48.562    36461170.193 6 154279154.27806        39.469
C06  37189445.138 7 193655216.14907        44.000    37189442.793 7 149746490.74207        46.594    37189438.873 6 157360691.79606        38.469
C08  38134768.037 6 198577823.76006        40.156    38134764.831 7 153552986.18007        44.125    38134760.298 5 161360739.29305        35.031
C09  35927999.619 7 187086539.14407        46.531    35927999.307 8 144667270.59208        50.594    35927993.356 6 152023111.54106        40.375
C10  39671388.944 5 206579406.14505        33.406    39671388.136 6 159740345.63006        36.781    39671381.913 4 167862655.18704        28.812
C13  37103213.388 7 193206253.16207        45.094    37103217.809 7 149399399.62707        45.688    37103211.965 6 156995919.91306        37.250
C16  36941569.070 7 192364463.90107        46.156    36941572.545 7 148748420.93407        47.469    36941566.434 6 156311861.44106        37.594
C23  25809141.650 6 134394983.67406        37.312                                                    25809130.567 5 109206881.28005        31.375
C25  25955896.731 3                        20.688
C27  22514482.910 8 117238831.64208        49.062                                                    22514480.793 6  95266140.23006        40.625
C28  21823922.640 8 113642896.33008        50.406                                                    21823921.033 7  92344160.47407        43.969
C32  23879434.513 7 124346491.44307        46.219                                                    23879434.345 6 101041706.77006        38.625
C33  25898789.809 5 134861802.30915        33.312
E07  26043204.580 7 136857987.94307        42.812    26043199.057 5 111085989.95305        30.938    26043202.893 5 102199130.85005        34.969    26043205.843 7 104865229.21607        44.844    26043202.728 7 103532170.60107        44.406
E13  25824369.405 6 135708015.44606        41.250    25824365.501 5 110152578.03005        30.781    25824366.209 6 101340408.31306        36.031    25824370.087 7 103984081.26407        45.219    25824366.620 7 102662243.86307        44.969
E18  19554432.609 7 102759245.70407        47.094    19554426.634 5  83408444.03805        35.531    19554428.615 6  76735785.81206        40.781    19554432.137 8  78737598.09308        50.250    19554428.932 8  77736691.02708        49.906
E19  24838185.969 6 130525561.47606        40.594                                                    24838182.211 5  97470359.09505        33.219    24838185.209 7 100013083.50907        43.000
E26  23031192.894 7 121029759.41207        47.750    23031188.915 6  98238405.71806        38.125    23031191.280 6  90379371.39906        41.906    23031194.431 8  92737107.72708        51.125    23031191.446 8  91558234.13908        50.875
E33  25811792.383 6 135641907.39006        40.688                                                    25811788.500 5 101291011.25405        34.406    25811792.511 7 103933400.56507        45.844    25811788.492 7 102612195.98007        44.906
G10  22809503.670 7 119864749.55907        43.250    22809503.004 7        43.125    22809503.859 7  93401111.08507        43.125    22809504.320 7  93401120.09107        42.750    22809498.019 6  89509379.23006        37.125
G15  22653889.480 7 119047004.39707        42.219    22653889.065 6        39.812    22653887.974 6  92763897.16206        39.812    22653887.952 6  92763904.16406        39.062
G18  21164253.078 7 111218903.24907        45.219    21164252.698 6        38.094    21164251.033 6  86664077.26506        38.094    21164252.168 7  86664082.26307        47.156    21164251.206 7  83053080.82607        42.312
G20  21885918.895 7 115011297.09107        44.469    21885917.581 5        32.031    21885916.010 5  89619184.07005        32.031
G23  21979280.041 7 115501910.74007        44.281    21979279.652 5        34.000    21979278.560 5  90001487.06505        34.000    21979278.953 7  90001487.07007        44.719    21979278.073 6  86251425.35806        39.125
G24  22546779.014 6 118484129.34006        40.688    22546778.585 6        40.500    22546779.229 6  92325293.82106        40.500    22546779.739 6  92325284.82506        41.812    22546775.063 6  88478383.67906        37.312
G25                                                                                                                                  25099679.955 3                        23.000
G29  21420368.806 7 112564806.93707        46.781    21420368.176 8        50.906    21420367.136 8  87712827.30008        50.906    21420367.377 7  87712826.30807        45.312
G32  22441164.980 7 117929124.13607        44.906    22441164.551 7        45.750    22441164.597 7  91892823.56507        45.750    22441165.736 7  91892820.57307        43.281    22441158.966 6  88063936.45606        36.875
I01  41846679.842 7 164215423.11607        43.719
I02  37758019.615 6 148170679.91406        39.438
I03  35942152.721 7 141044803.75107        46.469
I04  38732812.774 6 151995902.06306        38.531
I05  36964929.432 6 145058356.95706        41.781
I06  38148758.526 6 149704033.93906        39.031
I07  43518617.916 6 170776410.29006        38.812
J01                                                  42847871.503 4 175454873.23304        29.438
J03  36983845.845 6 194351516.44606        38.656    36983846.024 6 151442783.59806        41.312    36983842.402 5 145132666.65705        34.562
J07  38437061.725 5 201988153.31205        34.250    38437060.763 7 157393354.75407        43.406    38437057.936 6 150835293.91306        37.844
R03  22032222.209 6 117940245.82106        36.375    22032223.615 6 117940224.78606        36.000    22032229.691 7  91731320.95607        42.438    22032229.154 7  91731318.96807        42.500
R04  20111915.036 6 107698383.88206        41.188    20111915.381 6 107698407.87906        41.469    20111921.261 7  83765449.94707        47.250    20111920.509 7  83765449.94707        47.188
R05  21991295.624 6 117556093.34106        37.219    21991296.517 6 117556098.33306        37.188    21991301.858 6  91432539.26306        41.312    21991302.077 6  91432544.24806        40.750
R17  20933058.860 6 112017036.73906        39.750    20933060.195 6 112017042.72106        39.969    20933065.889 7  87124395.86707        44.344    20933066.039 7  87124421.87307        44.312
R18  19364371.873 7 103368341.27007        45.031    19364371.650 7 103368347.28307        45.250    19364377.989 8  80397623.88108        49.719    19364378.038 8  80397633.88508        49.062
R19                                                                                                                                                  21605995.828 6  89893622.96706        40.500
> 2021 01 03 00 01 30.0000000  0 48
C01  40365021.903 5                        31.344    40365020.224 5                        30.562
C02  35828842.072 7 186570244.70307        45.500    35828838.510 8 144267957.52908        50.344    35828837.527 6 151603607.29506        39.812
C03  37044599.782 7 192900960.57607        42.938    37044598.468 7 149163257.05807        46.656    37044595.368 6 156747815.52106        36.656
C05  36461158.863 7 189862836.86607        44.719    36461156.880 8 146813984.66308        48.688    36461154.975 6 154279089.71906        39.594
C06  37191357.836 7 193665176.00507        44.219    37191355.301 7 149754192.34407        46.688    37191351.530 6 157368785.00306        38.625
C08  38129926.862 6 198552616.66806        40.156    38129924.709 7 153533494.44807        44.531    38129919.721 5 161340256.45705        34.938
C09  35926496.727 7 187078715.19007        46.469    35926496.768 8 144661220.61808        50.812    35926490.834 6 152016753.93806        40.188
C10  39675161.241 5 206599051.94305        33.250    39675161.044 6 159755537.03006        36.594    39675155.285 4 167878619.07704        28.438
C13  37098067.889 7 193179461.16707        45.250    37098072.609 7 149378682.35207        45.844    37098067.010 6 156974149.20206        37.562
C16  36943208.562 7 192373001.45007        46.500    36943212.206 7 148755022.71107        47.812    36943206.015 6 156318798.89706        37.688
C23  25801392.264 6 134354635.26806        38.094                                                    25801382.525 5 109174094.92605        32.656
C25  25949938.495 4                        28.969
C27  22503141.613 8 117179775.67608        49.250                                                    22503139.617 6  95218152.41106        40.719
C28  21829480.464 8 113671836.70608        50.688                                                    21829478.703 7  92367676.89907        44.094
C32  23876290.215 7 124330116.02507        45.531                                                    23876289.574 6 101028400.38106        38.750
C33  25911741.937 5 134929243.27505        31.875
E07  26057067.383 7 136930836.76507        42.438    26057061.677 5 111145120.48205        31.000    26057065.518 5 102253530.91805        34.156    26057068.565 7 104921048.44807        45.344    26057065.446 7 103587280.25707        44.531
E13  25832408.965 6 135750262.51106        41.812    25832404.986 5 110186869.47605        30.094    25832405.376 5 101371956.43205        35.812    25832409.380 7 104016452.37807        45.656    25832405.934 7 102694203.48307        44.969
E18  19550733.428 7 102739807.53207        47.406    19550727.670 6  83392666.29806        36.000    19550729.587 6  76721270.28406        40.188    19550733.099 8  78722703.91408        50.375    19550730.057 8  77721986.17608        49.812
E19  24829994.885 6 130482516.74706        40.219                                                    24829991.109 5  97438215.28905        32.812    24829994.329 7  99980101.18407        43.594
E26  23027001.733 7 121007733.83007        47.719    23026997.505 6  98220527.82406        37.969    23027000.090 6  90362923.71906        41.406    23027003.191 8  92720230.97708        51.594    23027000.112 8  91541571.92608        50.938
E33  25798660.949 7 135572901.97407        42.000                                                    25798657.068 5 101239481.25205        34.281    25798660.817 7 103880526.28607        45.844    25798657.156 7 102559993.83807        44.781
G10  22807943.407 6 119856551.80406        41.969    22807942.737 7        42.094    22807944.331 7  93394723.22607        42.094    22807944.174 7  93394732.23707        42.938    22807938.018 6  89503257.53806        36.906
G15  22672441.615 6 119144494.94906        41.031    22672441.191 6        38.750    22672440.011 6  92839863.82306        38.750    22672440.060 6  92839870.83206        39.000
G18  21156628.645 7 111178836.59107        45.656    21156628.265 6        38.062    21156627.072 6  86632856.49206        38.062    21156627.538 7  86632861.49407        47.812    21156626.840 7  83023160.91407        42.188
G20  21886643.386 7 115015104.68007        44.562    21886642.081 5        31.750    21886640.077 5  89622151.02705        31.750
G23  21982297.359 7 115517766.61907        43.594    21982296.975 5        34.031    21982296.216 5  90013842.28105        34.031    21982296.274 7  90013842.28607        45.406    21982295.189 6  86263265.77206        39.062
G24  22543952.623 6 118469275.87306        40.719    22543952.167 6        40.219    22543952.572 6  92313719.69806        40.219    22543952.850 6  92313710.71906        41.500    22543948.596 6  88467291.81406        37.719
G25  25105761.658 3                        21.031                                                                                    25105764.850 3                        20.875
G26                                                                                                                                  25260478.324 3                        19.750
G29  21435261.678 7 112643068.96307        46.781    21435261.048 8        50.531    21435259.533 8  87773810.69808        50.531    21435260.319 7  87773809.70407        45.031
G32  22425905.600 7 117848936.05507        44.188    22425905.171 7        44.906    22425905.367 7  91830339.34507        44.906    22425906.121 7  91830336.35407        43.000    22425900.225 6  88004055.74906        37.281
I01  41862240.498 7 164276485.99807        43.688
I02  37759802.618 6 148177678.45506        39.000
I03  35942086.849 7 141044545.04807        46.625
I04  38731237.560 6 151989720.78106        38.844
I05  36964741.045 6 145057618.08206        41.812
I06  38148885.409 6 149704530.86506        39.188
I07  43515225.952 6 170763099.37706        38.844
J01                                                  42847612.133 4 175453818.42004        27.938
J03  36983760.150 6 194351066.05906        38.844    36983760.787 6 151442432.65006        41.344    36983756.882 5 145132330.30805        34.125
J07  38437049.432 5 201988089.72305        34.469    38437049.016 7 157393305.22107        43.312    38437045.947 6 150835246.43806        37.531
R03  22050436.819 5 118037745.24105        35.438    22050437.472 5 118037724.24705        35.094    22050443.383 6  91807153.85006        41.906    22050442.509 7  91807151.85307        42.156
R04  20118485.938 6 107733574.37006        41.312    20118486.988 6 107733598.35606        41.500    20118492.426 7  83792820.31207        46.719    20118492.158 7  83792820.30707        46.875
R05  21981412.234 6 117503267.40906        37.000    21981414.096 6 117503272.41706        37.062    21981419.651 6  91391452.42806        41.344    21981420.040 6  91391457.41506        41.375
R17  20947804.051 6 112095940.22506        39.719    20947804.944 6 112095946.22606        39.562    20947810.911 7  87185765.27807        44.562    20947810.676 7  87185791.27507        44.219
R18  19359055.890 7 103339964.17507        46.062    19359056.181 7 103339970.18307        45.688    19359062.024 8  80375552.80208        49.594    19359062.031 8  80375562.80408        49.062
R19                                                                                                                                                  21585285.597 6  89807455.69506        40.250
> 2021 01 03 00 02  0.0000000  0 48
C01  40365048.058 5                        31.531    40365046.343 5                        30.281
C02  35828824.803 7 186570153.21707        45.500    35828820.893 8 144267886.78708        50.344    35828819.959 6 151603532.95806        39.719
C03  37044715.951 7 192901563.51207        42.812    37044714.399 7 149163723.27507        46.594    37044711.079 6 156748305.46906        36.656
C05  36461143.494 7 189862756.44407        44.719    36461141.372 8 146813922.47908        48.594    36461139.352 6 154279024.36906        39.594
C06  37193293.181 7 193675254.63107        44.156    37193291.124 7 149761985.77707        46.812    37193286.878 6 157376974.72606        38.688
C08  38125094.554 6 198527451.87506        39.312    38125091.880 7 153514035.45107        44.219    38125087.285 5 161319808.02105        34.938
C09  35925021.958 7 187071037.27007        46.250    35925022.240 8 144655283.57008        50.562    35925016.347 6 152010514.99906        40.281
C10  39678908.673 5 206618564.38605        33.094    39678907.569 6 159770625.29006        36.906    39678901.344 4 167894474.51004        28.000
C13  37092921.115 7 193152659.82307        45.188    37092925.633 7 149357957.84307        45.969    37092920.180 6 156952370.91806        37.094
C16  36944874.338 7 192381673.43807        46.438    36944877.356 7 148761728.44207        47.719    36944871.320 6 156325845.58606        37.719
C23  25793604.485 6 134314086.17006        37.812                                                    25793594.995 5 109141145.44905        32.281
C25  25943974.039 5                        31.250
C27  22491864.518 8 117121051.50408        49.500                                                    22491862.140 6  95170434.20906        40.719
C28  21835124.421 8 113701227.19208        50.594                                                    21835122.933 7  92391559.09007        43.906
C32  23873192.123 7 124313983.01007        45.656                                                    23873191.425 6 101015290.99006        38.531
C33  25924665.914 5 134996544.99505        30.750
E07  26070941.184 7 137003744.66207        42.156    26070935.332 5 111204298.95905        31.125    26070939.330 5 102307975.13805        34.875    26070942.612 7 104976912.94207        45.312    26070939.312 7 103642434.61507        44.781
E13  25840501.468 6 135792790.01306        41.969    25840497.750 5 110221388.58205        30.406    25840498.687 6 101403713.98806        36.562    25840501.623 7 104049038.40207        45.094    25840498.739 7 102726375.27307        44.938
E18  19547273.067 7 102721622.57607        47.938    19547266.941 6  83377905.78106        36.719    19547269.425 6  76707690.61206        40.750    19547272.600 8  78708769.99008        50.281    19547269.623 8  77708229.37608        50.000
E19  24821861.672 6 130439775.67606        40.719                                                    24821856.978 5  97406298.26505        33.469    24821860.822 7  99947351.53307        43.562
E26  23022857.985 8 120985958.78608        48.031    23022853.655 6  98202853.25106        38.031    23022856.363 6  90346663.13806        41.719    23022859.530 8  92703546.19308        51.500    23022856.425 8  91525099.24008        51.031
E33  25785531.814 6 135503907.73006        41.906                                                    25785527.795 5 101187959.54905        35.125    25785531.360 7 103827660.56407        45.406    25785528.074 7 102507800.13007        44.844
G10  22806394.072 6 119848405.90106        41.219    22806393.411 7        42.000    22806394.176 7  93388375.76607        42.000    22806394.461 7  93388384.77207        42.469    22806387.858 6  89497174.54706        37.188
G15  22691029.258 6 119242173.18706        40.125    22691028.811 6        38.406    22691027.794 6  92915976.72706        38.406    22691027.902 6  92915983.73306        38.969
G18  21149038.201 7 111138948.61407        45.562    21149037.821 6        38.219    21149036.605 6  86601774.94806        38.219    21149037.195 7  86601779.95007        47.438    21149036.331 7  82993374.44207        42.062
G20  21887362.495 7 115018883.41207        44.406    21887361.199 5        32.531    21887359.105 5  89625095.49705        32.531
G23  21985313.340 7 115533615.58107        43.594    21985312.960 5        33.906    21985311.887 5  90026192.11305        33.906    21985312.263 7  90026192.12707        44.312    21985311.547 6  86275101.02006        39.000
G24  22541202.536 6 118454825.52406        40.781    22541202.080 6        41.000    22541202.725 6  92302459.68006        41.000    22541203.274 7  92302450.67607        42.031    22541198.544 6  88456500.95906        37.656
G25  25111782.752 3                        20.094                                                                                    25111793.555 3                        22.562
G26                                                                                                                                  25264667.264 3                        18.875
G29  21450226.008 7 112721707.75807        46.625    21450225.369 8        50.656    21450223.813 8  87835087.67908        50.656    21450224.448 7  87835086.68007        45.000
G32  22410709.925 7 117769082.51807        44.125    22410709.505 7        45.531    22410709.720 7  91768115.80707        45.531    22410710.493 7  91768112.82107        43.094    22410704.196 6  87944424.85006        37.062
I01  41877795.322 7 164337526.59707        43.719
I02  37761575.551 6 148184634.29806        39.531
I03  35942021.071 7 141044286.98307        46.469
I04  38729651.671 6 151983496.81306        38.531
I05  36964548.310 6 145056862.54006        41.938
I06  38149011.245 6 149705025.13006        39.188
I07  43511833.681 6 170749787.41606        38.719
J01                                                  42847337.093 4 175452682.76804        27.750
J03  36983698.855 6 194350742.80706        38.938    36983699.673 6 151442180.78006        41.281    36983695.389 5 145132088.92505        34.438
J07  38437036.992 5 201988024.21805        34.469    38437036.326 7 157393254.18707        42.781    38437033.338 6 150835197.52806        37.875
R03  22068647.701 5 118135228.21505        35.406    22068648.325 5 118135207.20005        35.031    22068654.012 7  91882973.93407        42.000    22068653.327 7  91882971.94907        42.250
R04  20125138.609 6 107769198.22606        41.688    20125139.424 6 107769222.21706        41.469    20125144.871 7  83820527.75907        46.688    20125144.708 7  83820527.76007        46.531
R05  21971624.333 6 117450937.77206        37.094    21971624.944 6 117450942.78506        37.438    21971630.039 6  91350751.59606        41.188    21971631.096 6  91350756.58006        40.750
R17  20962655.717 6 112175418.27706        39.812    20962657.366 6 112175424.26106        39.219    20962663.449 7  87247581.53107        44.656    20962663.687 7  87247607.53107        44.094
R18  19353867.853 7 103312268.89007        46.000    19353867.855 7 103312274.89707        45.844    19353873.917 8  80354012.01008        50.000    19353874.041 8  80354022.01808        49.469
R19                                                                                                                                                  21564613.213 6  89721447.86606        40.062
> 2021 01 03 00 02 30.0000000  0 46
C01  40365076.525 5 210191536.41905        31.250    40365072.806 5                        30.438
C02  35828807.583 7 186570066.08207        45.312    35828803.995 8 144267819.40808        50.219    35828803.146 6 151603462.16606        39.812
C03  37044832.096 7 192902170.49207        42.844    37044830.701 7 149164192.62807        46.469    37044827.571 6 156748798.69806        36.375
C05  36461129.127 7 189862681.08907        44.594    36461127.005 8 146813864.20608        48.562    36461124.949 6 154278963.14006        39.188
C06  37195252.488 7 193685457.86907        44.250    37195250.307 7 149769875.56707        46.438    37195246.287 6 157385265.69706        38.531
C08  38120271.692 6 198502336.41806        39.906    38120268.446 7 153494614.57807        44.094    38120263.760 5 161299399.62905        34.188
C09  35923576.820 7 187063511.58407        46.188    35923576.896 8 144649464.23008        50.500    35923571.162 6 152004399.77206        40.125
C10  39682630.651 5 206637949.49105        33.281    39682630.361 6 159785615.14106        36.188    39682624.029 4 167910226.57704        27.219
C13  37087773.021 7 193125856.07607        45.031    37087778.475 7 149337231.48807        46.188    37087772.590 6 156930590.67306        37.062
C16  36946566.243 7 192390485.68807        46.469    36946569.735 7 148768542.63407        47.750    36946563.453 6 156333006.27006        37.375
C23  25785781.035 6 134273343.93306        37.344                                                    25785771.083 5 109108039.03505        32.344
C25  25938023.955 5                        33.062
C27  22480652.128 8 117062667.26708        49.781                                                    22480650.431 6  95122992.22306        40.906
C28  21840856.216 8 113731073.48208        50.000                                                    21840854.585 7  92415811.63907        43.719
C32  23870141.109 7 124298097.40007        45.906                                                    23870140.646 6 101002382.65106        38.594
C33  25937563.809 5 135063712.81705        33.500
E07  26084827.340 6 137076716.13006        41.469    26084821.683 5 111263529.05705        30.875    26084825.069 5 102362466.80805        34.812    26084828.717 7 105032826.13007        45.250    26084825.288 7 103697637.04707        44.594
E13  25848648.788 6 135835604.05406        41.062    25848645.236 5 110256140.24105        30.062    25848645.829 6 101435685.50306        36.375    25848649.098 7 104081843.96307        45.000    25848645.964 7 102758763.81107        44.812
E18  19544052.330 7 102704696.84107        47.125    19544046.448 6  83364167.36106        36.594    19544048.367 6  76695051.25306        40.750    19544051.872 8  78695800.91408        50.375    19544048.675 8  77695425.16508        50.031
E19  24813787.068 6 130397344.82306        40.625                                                    24813782.890 5  97374612.88905        32.750    24813786.821 7  99914839.57907        43.750
E26  23018763.469 7 120964441.98007        47.594    23018759.243 6  98185388.31306        37.812    23018761.769 6  90330595.39206        41.594    23018765.010 8  92687059.29008        51.281    23018761.907 8  91508821.91708        50.875
E33  25772406.141 6 135434932.48606        41.406                                                    25772402.153 5 101136452.07605        35.094    25772405.959 7 103774809.39607        45.188    25772402.436 7 102455620.80607        44.625
G10  22804854.563 7 119840316.51607        42.281    22804853.893 7        42.250    22804855.280 7  93382072.35807        42.250    22804855.136 7  93382081.35407        42.562    22804848.685 6  89491133.77206        37.000
G15  22709653.173 6 119340042.70806        39.812    22709652.722 6        37.375    22709651.727 6  92992238.68006        37.375    22709651.658 6  92992245.69306        37.969
G18  21141483.383 7 111099247.83707        45.688    21141482.999 6        38.125    21141481.705 6  86570839.27006        38.125    21141482.168 7  86570844.26807        47.375    21141481.518 7  82963727.74307        42.188
G20  21888076.929 7 115022639.50707        44.625    21888075.628 5        32.344    21888074.252 5  89628022.31305        32.344
G23  21988328.906 7 115549462.63407        44.156    21988328.517 5        33.094    21988326.821 5  90038540.45805        33.094    21988327.653 7  90038540.46907        43.812    21988326.936 6  86286934.84506        39.250
G24  22538530.676 6 118440786.53406        39.625    22538530.189 6        40.250    22538531.574 6  92291520.20106        40.250    22538532.133 7  92291511.20207        42.219    22538527.308 6  88446017.30006        37.281
G25                                                                                                                                  25117755.816 3                        23.938
G29  21465262.755 7 112800726.84807        46.719    21465262.121 8        50.156    21465260.341 8  87896660.99808        50.156    21465261.408 7  87896660.00307        44.344
G32  22395579.036 7 117689571.65607        44.062    22395578.621 7        44.969    22395579.462 7  91706159.30407        44.969    22395580.187 7  91706156.31107        43.219    22395573.762 6  87885049.87906        37.438
I01  41893345.758 7 164398549.47307        43.812
I02  37763338.785 6 148191553.05106        39.125
I03  35941956.774 7 141044034.14707        46.562
I04  38728055.420 6 151977234.78406        38.281
I05  36964352.570 6 145056095.11106        41.875
I06  38149137.111 6 149705521.38706        38.719
I07  43508442.234 6 170736479.01106        38.844
J03  36983662.899 6 194350552.75706        39.188    36983663.400 7 151442032.68207        42.125    36983659.321 5 145131947.01505        35.000
J07  38437025.161 5 201987963.12805        34.562    38437024.834 7 157393206.56207        43.406    38437021.940 6 150835151.88606        37.688
R03  22086855.698 5 118232697.87405        35.094    22086856.156 5 118232676.87905        35.156    22086861.552 6  91958783.68306        41.688    22086861.154 6  91958781.66506        41.562
R04  20131874.147 6 107805258.73806        41.625    20131873.866 6 107805282.74106        41.281    20131879.215 7  83848574.85807        46.469    20131879.353 7  83848574.83707        46.500
R05  21961928.249 6 117399111.07406        37.625    21961929.500 6 117399116.06406        37.688    21961934.890 6  91310441.94506        41.344    21961934.859 6  91310446.94506        41.281
R17  20977618.169 6 112255474.73306        39.344    20977618.323 6 112255480.72406        39.062    20977623.740 7  87309847.66807        44.562    20977623.742 7  87309873.65107        44.156
R18  19348808.348 7 103285263.82507        46.281    19348808.808 7 103285269.82007        45.656    19348815.048 8  80333008.09008        49.750    19348815.175 8  80333018.08208        49.625
R19                                                                                                                                                  21543981.787 6  89635608.17506        39.594
> 2021 01 03 00 03  0.0000000  0 47
C01  40365100.317 5                        30.750    40365099.139 5                        31.062
C02  35828790.000 7 186569973.75807        45.219    35828786.237 8 144267748.02008        50.188    35828785.384 6 151603387.14606        40.000
C03  37044947.694 7 192902772.03607        42.781    37044946.336 7 149164657.78607        46.375    37044943.183 6 156749287.49006        36.594
C05  36461113.923 7 189862601.43507        44.750    36461111.948 8 146813802.60508        48.562    36461109.830 6 154278898.40806        39.812
C06  37197233.810 7 193695775.71707        44.156    37197231.870 7 149777853.98907        46.438    37197228.038 6 157393649.77606        38.875
C08  38115456.452 6 198477261.34806        39.844    38115453.375 7 153475224.95407        43.750    38115448.381 5 161279024.10305        34.656
C09  35922158.934 7 187056128.62007        45.875    35922159.132 8 144643755.25808        50.406    35922153.179 6 151998400.50906        40.312
C10  39686327.384 5 206657197.22305        33.062    39686325.606 5 159800498.70605        35.656    39686320.683 4 167925866.87204        28.000
C13  37082623.915 7 193099041.09307        44.625    37082628.843 7 149316496.43607        46.094    37082623.221 6 156908801.30106        37.594
C16  36948284.005 7 192399428.36407        46.438    36948287.143 7 148775457.69107        47.625    36948280.517 6 156340272.94406        37.312
C23  25777918.294 6 134232400.47606        38.156                                                    25777908.313 5 109074769.14805        32.438
C25  25932084.825 5 135035171.40415        33.969
C27  22469504.265 8 117004615.54108        50.000                                                    22469502.118 6  95075820.44806        41.188
C28  21846673.769 8 113761365.59908        50.469                                                    21846671.731 7  92440426.47207        44.094
C32  23867136.003 7 124282448.59007        45.875                                                    23867135.726 6 100989666.73206        38.719
C33  25950436.354 5 135130736.46405        31.781
E07  26098723.207 6 137149739.94106        41.719    26098717.462 5 111322801.64505        30.750    26098721.050 5 102416997.56005        35.125    26098724.871 7 105088779.43907        45.719    26098721.346 7 103752879.07807        44.906
E13  25856848.871 6 135878694.95106        41.906    25856844.783 4 110291116.57704        29.281    25856845.810 5 101467863.78305        35.750    25856849.192 7 104114861.67607        45.312    25856845.939 7 102791361.81007        44.781
E18  19541068.964 7 102689020.42907        47.625    19541063.607 6  83351443.00706        36.031    19541065.134 6  76683344.85306        40.500    19541068.494 8  78683789.13308        50.344    19541065.598 8  77683566.07308        49.844
E19  24805770.003 6 130355214.94406        40.781                                                    24805766.142 5  97343152.24205        33.062    24805769.485 7  99882558.24407        43.688
E26  23014716.678 8 120943175.37508        48.000    23014712.554 6  98168126.46206        38.031    23014714.849 6  90314714.48806        41.469    23014718.110 8  92670764.10008        51.344    23014714.994 8  91492733.87108        50.875
E33  25759282.798 6 135365968.37006        41.406                                                    25759278.817 5 101084952.86905        34.719    25759282.401 7 103721966.75807        45.125    25759278.983 7 102403449.89007        44.531
G10  22803323.998 7 119832272.63007        42.625    22803323.310 7        42.531    22803324.880 7  93375804.39107        42.531    22803324.245 7  93375813.39007        43.000    22803317.847 6  89485126.97606        37.156
G15  22728311.170 6 119438090.82406        40.312    22728310.728 6        37.125    22728309.750 6  93068639.81006        37.125    22728309.604 6  93068646.80506        37.625
G18  21133962.803 7 111059726.93107        45.812    21133962.419 6        38.000    21133960.971 6  86540043.75406        38.000    21133961.740 7  86540048.75307        47.500    21133960.998 7  82934215.37707        42.250
G20  21888785.637 7 115026362.63907        44.562    21888784.332 5        32.469    21888782.860 5  89630923.44705        32.469
G23  21991341.971 7 115565296.98407        44.781    21991341.596 5        33.594    21991340.162 5  90050878.91005        33.594    21991340.696 7  90050878.91007        44.281    21991340.235 6  86298759.19206        39.250
G24  22535936.018 6 118427150.67906        40.438    22535935.518 6        40.656    22535936.944 6  92280894.86206        40.656    22535937.621 7  92280885.86607        42.500    22535932.634 6  88435834.66406        38.031
G25  25123627.582 3                        18.656                                                                                    25123658.181 3                        20.031
G29  21480369.677 7 112880113.83507        46.312    21480369.043 8        49.875    21480367.457 8  87958520.98708        49.875    21480368.275 7  87958519.98307        45.156
G32  22380512.278 7 117610395.77407        44.719    22380511.854 7        45.000    22380512.623 7  91644463.81207        45.000    22380513.836 7  91644460.82807        43.688    22380507.146 6  87825925.02106        37.875
I01  41908889.798 7 164459547.28607        43.812
I02  37765090.504 6 148198426.28506        39.594
I03  35941891.926 7 141043779.44507        46.688
I04  38726448.376 6 151970927.63906        38.531
I05  36964152.648 7 145055308.77507        42.281
I06  38149262.450 6 149706012.51906        38.875
I07  43505050.125 6 170723167.05606        38.906
J01                                                  42846722.267 4 175450175.77004        26.031
J03  36983650.275 6 194350486.13706        38.969    36983650.847 7 151441980.77107        42.188    36983646.991 5 145131897.26205        35.094
J07  38437011.843 5 201987896.75505        34.094    38437012.286 7 157393154.85307        43.281    38437008.980 6 150835102.34206        37.875
R03  22105058.506 6 118330141.43806        36.094    22105059.526 5 118330120.42305        35.344    22105065.236 7  92034573.12207        42.500    22105064.884 7  92034571.13607        42.688
R04  20138686.604 6 107841742.70106        41.094    20138686.556 6 107841766.70006        40.938    20138692.378 7  83876951.26107        46.812    20138691.973 7  83876951.26507        47.094
R05  21952326.770 6 117347777.26906        38.156    21952327.355 6 117347782.27006        37.906    21952331.779 6  91270515.64006        40.906    21952331.961 6  91270520.66106        41.344
R17  20992684.879 6 112336097.53306        39.125    20992684.545 6 112336103.52706        39.125    20992690.637 7  87372554.28707        44.938    20992690.137 7  87372580.29607        44.812
R18  19343876.948 7 103258941.96707        45.250    19343877.326 7 103258947.96807        44.875    19343884.107 8  80312535.51008        49.906    19343883.535 8  80312545.52508        49.812
R19                                                                                                                                                  21523388.763 6  89549932.35806        40.562
> 2021 01 03 00 03 30.0000000  0 48
C01  40365128.018 5                        31.906    40365126.898 5                        30.875
C02  35828772.931 7 186569885.20307        45.938    35828769.440 8 144267679.55008        50.250    35828768.440 6 151603315.20006        40.031
C03  37045064.027 7 192903377.10107        43.219    37045062.354 7 149165125.66307        46.469    37045059.699 6 156749779.15206        36.562
C05  36461099.644 7 189862526.31907        45.219    36461097.276 8 146813744.52308        48.750    36461095.327 6 154278837.37906        39.625
C06  37199238.726 7 193706216.90707        44.438    37199237.028 7 149785927.78407        46.812    37199232.990 6 157402134.12406        38.562
C08  38110650.617 6 198452236.43306        40.406    38110647.689 7 153455874.09807        44.562    38110642.589 5 161258689.31105        34.625
C09  35920770.510 7 187048897.25207        46.469    35920770.577 8 144638163.49608        50.625    35920764.434 6 151992524.42806        40.281
C10  39689999.309 5 206676316.41305        32.344    39689997.972 6 159815282.83406        36.125    39689991.870 4 167941402.78804        28.000
C13  37077473.966 7 193072224.32207        45.375    37077479.191 7 149295760.01507        46.250    37077473.100 6 156887010.47606        37.125
C16  36950028.070 7 192408510.02207        47.188    36950031.307 8 148782480.19308        48.094    36950024.790 6 156347652.51206        37.531
C23  25770018.139 6 134191266.13006        39.438                                                    25770008.981 5 109041344.15405        32.969
C25  25926155.451 5 135004299.53505        31.438
C27  22458421.955 8 116946907.26508        50.312                                                    22458419.783 6  95028927.74306        41.125
C28  21852578.112 8 113792111.99408        51.000                                                    21852576.388 7  92465410.43607        44.000
C32  23864177.813 7 124267044.38607        46.062                                                    23864177.389 6 100977149.52306        39.000
C33  25963280.272 5 135197624.12405        31.094
E07  26112630.476 6 137222823.42506        40.969    26112624.612 5 111382122.63605        30.594    26112628.178 5 102471572.91605        35.688    26112632.371 7 105144778.48107        45.469    26112628.677 7 103808166.26907        45.031
E13  25865102.916 6 135922071.61906        41.031    25865099.064 4 110326324.94304        29.531    25865099.915 5 101500255.44805        35.594    25865103.294 7 104148098.34107        44.750    25865100.248 7 102824175.97307        44.500
E18  19538325.318 7 102674601.94607        46.906    19538319.619 6  83339739.71906        36.188    19538321.836 6  76672577.82806        41.031    19538324.784 8  78672741.22108        50.062    19538321.897 8  77672658.59708        49.938
E19  24797812.143 6 130313395.38706        40.844                                                    24797808.261 5  97311923.38505        33.531    24797811.348 7  99850514.68807        43.438
E26  23010719.284 7 120922169.50007        47.906    23010714.838 6  98151076.24406        38.000    23010717.415 6  90299028.29206        41.812    23010720.895 8  92654668.69208        51.469    23010717.706 8  91476843.06508        51.031
E33  25746163.423 6 135297026.03106        41.062                                                    25746159.307 5 101033469.96205        35.469    25746163.006 7 103669140.81007        44.938    25746159.666 7 102351295.46007        44.625
G10  22801803.508 7 119824281.79107        43.031    22801802.811 7        42.969    22801803.834 7  93369577.77107        42.969    22801803.814 7  93369586.78507        42.875    22801797.228 6  89479159.80006        37.094
G15  22747003.860 6 119536323.62606        40.719    22747003.418 6        36.531    22747002.781 6  93145184.86306        36.531    22747003.382 6  93145191.85606        37.406
G18  21126478.778 7 111020397.23507        45.156    21126478.389 6        38.281    21126477.128 6  86509397.23406        38.281    21126477.564 8  86509402.23308        48.344    21126476.511 6  82904845.78106        41.844
G20  21889489.489 7 115030061.20807        44.969    21889488.179 5        32.875    21889486.371 5  89633805.45005        32.875
G23  21994354.372 7 115581126.47907        43.812    21994354.006 5        33.219    21994352.085 5  90063213.58505        33.219    21994353.127 7  90063213.58307        44.406    21994352.394 6  86310579.92306        38.500
G24  22533420.327 6 118413929.30006        40.656    22533419.813 6        40.844    22533420.555 6  92270592.49406        40.844    22533421.245 6  92270583.47806        41.969    22533416.761 6  88425961.56806        37.938
G25  25129489.260 3                        21.219                                                                                    25129499.813 3                        23.625
G26                                                                                                                                  25277275.064 3                        20.375
G29  21495547.451 7 112959875.04507        46.469    21495546.821 8        49.781    21495545.770 8  88020672.58008        49.781    21495546.152 7  88020671.58707        45.219
G32  22365511.416 7 117531565.76807        45.031    22365510.987 7        46.219    22365511.906 7  91583037.84507        46.219    22365512.659 7  91583034.85907        44.281    22365506.464 6  87767058.47006        37.688
I01  41924428.789 7 164520526.83807        43.594
I02  37766831.512 6 148205260.23706        39.406
I03  35941828.119 7 141043529.57207        46.406
I04  38724831.444 6 151964582.26206        38.688
I05  36963948.436 7 145054510.32807        42.156
I06  38149388.275 6 149706505.25906        38.375
I07  43501658.425 6 170709858.29306        38.812
J01                                                  42846389.993 4 175448803.86604        25.688
J03  36983662.441 6 194350551.87006        39.375    36983663.500 7 151442031.97607        42.406    36983659.636 5 145131946.33305        34.875
J07  38437000.811 5 201987834.19105        34.531    38437000.198 7 157393106.08507        43.250    38436997.286 6 150835055.58406        37.438
R03  22123259.442 5 118427564.91605        34.625    22123258.663 5 118427543.91705        34.688    22123264.493 7  92110346.96107        42.125    22123264.172 6  92110344.96906        41.688
R04  20145578.562 6 107878655.86906        41.438    20145579.931 6 107878679.85406        41.125    20145585.423 7  83905661.49207        46.844    20145585.487 7  83905661.49207        46.438
R05  21942818.458 6 117296945.53706        37.750    21942817.732 6 117296950.56506        37.906    21942823.708 7  91230979.90607        42.406    21942822.963 7  91230984.91207        42.219
R17  21007857.287 6 112417293.74506        39.125    21007858.118 6 112417299.75006        38.938    21007863.870 7  87435706.90707        44.812    21007863.597 7  87435732.91707        44.531
R18  19339076.811 7 103233315.24007        45.250    19339077.028 7 103233321.24607        45.281    19339083.058 8  80292603.61808        49.812    19339082.908 8  80292613.61908        49.125
R19                                                                                                                                                  21502838.732 6  89464430.69906        40.688
> 2021 01 03 00 04  0.0000000  0 47
C01  40365154.768 5 210191950.28505        31.438    40365152.650 4                        29.781
C02  35828755.170 7 186569792.00907        45.219    35828751.465 8 144267607.47908        49.969    35828750.715 6 151603239.46206        40.156
C03  37045178.919 7 192903977.09007        42.688    37045177.888 7 149165589.61607        46.125    37045174.622 6 156750266.72006        36.969
C05  36461084.092 7 189862447.17307        44.406    36461082.122 8 146813683.32508        48.250    36461080.156 6 154278773.06206        39.844
C06  37201266.277 7 193716772.45607        44.031    37201264.287 7 149794090.00507        46.562    37201259.876 6 157410711.36506        38.906
C08  38105853.428 6 198427253.68106        40.812    38105850.252 7 153436555.85407        44.219    38105845.056 5 161238388.75705        34.562
C09  35919409.583 7 187041808.89007        46.312    35919409.296 8 144632682.33308        50.250    35919403.230 6 151986764.55206        40.469
C10  39693643.365 5 206695298.09805        31.906    39693643.892 5 159829960.69305        35.906    39693638.103 4 167956827.00804        27.719
C13  37072322.336 7 193045398.04107        44.562    37072327.437 7 149275016.21907        45.969    37072321.585 6 156865211.91606        37.438
C16  36951796.829 7 192417721.68107        46.438    36951800.311 7 148789603.25207        47.969    36951793.715 6 156355137.75206        37.156
C23  25762081.292 6 134149933.75306        38.625                                                    25762071.453 5 109007758.18605        33.062
C25  25920238.315 4 134973480.04004        29.438                                                    25920234.213 4                        29.156
C27  22447404.266 8 116889535.83908        49.625                                                    22447402.106 6  94982308.75906        41.281
C28  21858568.061 8 113823303.56908        50.281                                                    21858566.309 7  92490756.13707        44.125
C32  23861264.361 7 124251874.99307        45.844                                                    23861264.455 6 100964823.15406        39.562
C33  25976097.154 5 135264366.27005        30.656
E07  26126547.325 6 137295956.27106        40.875    26126541.344 5 111441483.71205        30.531    26126545.243 5 102526185.07905        35.219    26126549.216 7 105200815.33207        45.688    26126545.404 7 103863490.78207        44.938
E13  25873410.041 6 135965725.20706        41.156    25873405.316 5 110361758.05205        30.250    25873406.989 5 101532853.93205        34.781    25873409.963 7 104181547.20807        44.344    25873407.209 7 102857199.64107        44.000
E18  19535819.250 7 102661432.23107        47.688    19535813.046 6  83329049.99406        36.062    19535815.664 6  76662743.29606        41.000    19535818.570 8  78662650.14208        50.219    19535815.770 8  77662695.79508        49.938
E19  24789911.387 6 130271877.79206        40.500                                                    24789907.343 5  97280919.96005        33.344    24789910.941 7  99818702.49907        43.562    24789907.680 7  98549802.30217        43.000
E26  23006770.291 8 120901417.18808        48.250    23006765.834 6  98134231.83406        38.406    23006768.470 6  90283531.42406        41.438    23006772.003 8  92638767.56808        51.719    23006768.709 8  91461144.07208        51.125
E33  25733046.995 6 135228098.50006        41.469                                                    25733043.000 5 100981998.11605        35.188    25733046.615 7 103616326.20607        45.188    25733043.204 7 102299152.23207        44.656
G10  22800290.680 7 119816333.83107        43.125    22800289.978 7        43.406    22800291.411 7  93363384.55407        43.406    22800291.324 7  93363393.56407        43.156    22800284.917 6  89473224.62506        38.312
G15  22765729.939 6 119634729.75206        40.562    22765729.501 5        35.844    22765728.657 5  93221864.95905        35.844    22765728.924 6  93221871.94506        36.625
G18  21119029.555 7 110981252.33607        46.094    21119029.166 6        38.531    21119028.281 6  86478894.72006        38.531    21119028.408 8  86478899.72008        48.031    21119027.785 7  82875614.20907        42.219
G20  21890187.102 7 115033726.13107        44.781    21890185.797 5        32.562    21890183.676 5  89636661.23705        32.562
G23  21997364.026 7 115596941.29007        43.500    21997363.646 5        33.344    21997361.863 5  90075536.80405        33.344    21997362.339 7  90075536.81407        44.625    21997362.081 6  86322389.69406        38.875
G24  22530982.069 6 118401115.81706        40.406    22530981.560 6        41.156    22530982.649 6  92260607.96306        41.156    22530983.125 7  92260598.95907        43.031    22530978.375 6  88416393.06906        37.875
G25  25135279.757 4                        24.281                                                                                    25135280.351 4                        24.688
G29  21510794.672 7 113039998.77807        45.750    21510794.029 8        49.375    21510792.679 8  88083106.66508        49.375    21510793.144 7  88083105.66607        44.688
G32  22350575.628 7 117453074.85707        45.406    22350575.213 7        46.438    22350575.462 7  91521876.09707        46.438    22350576.442 7  91521873.10407        43.594    22350569.784 6  87708445.12506        37.969
I01  41939962.083 7 164581481.67507        43.531
I02  37768561.870 6 148212048.71306        39.094
I03  35941763.858 7 141043278.06307        46.312
I04  38723203.062 6 151958192.18306        38.219
I05  36963740.645 7 145053693.31007        42.094
I06  38149513.047 6 149706993.08006        38.750
I07  43498266.434 6 170696546.26906        38.750
J01                                                  42846032.132 4 175447348.21104        26.094
J03  36983698.192 6 194350741.04006        38.406    36983699.220 7 151442179.39207        42.094    36983695.409 5 145132087.58505        34.781
J07  38436987.759 5 201987766.73805        34.500    38436987.392 7 157393053.51007        43.188    38436984.305 6 150835005.20306        37.656
R03  22141452.886 5 118524956.64705        34.344    22141452.654 5 118524935.64305        34.250    22141458.032 7  92186096.07407        42.375    22141458.316 7  92186094.07507        42.000
R04  20152550.836 6 107915986.27906        40.750    20152550.726 6 107916010.29506        40.906    20152556.490 7  83934696.27507        46.781    20152556.206 7  83934696.28407        46.281
R05  21933401.320 6 117246607.17006        37.469    21933401.067 6 117246612.18806        37.906    21933406.828 7  91191827.81907        42.656    21933406.591 7  91191832.84007        42.594
R17  21023135.531 6 112499052.13606        38.844    21023136.082 6 112499058.13806        38.750    21023142.174 7  87499296.75807        44.375    21023142.058 7  87499322.78207        44.344
R18  19334405.514 7 103208377.39007        45.719    19334405.434 7 103208383.39907        45.531    19334411.361 8  80273207.50908        49.750    19334411.300 8  80273217.51808        49.094
R19                                                                                                                                                  21482329.323 6  89379099.89806        41.219
> 2021 01 03 00 04 30.0000000  0 46
C01  40365182.543 5 210192092.86405        31.281    40365179.441 5                        30.156
C02  35828738.256 7 186569704.92707        45.281    35828734.694 8 144267540.14308        50.094    35828733.823 6 151603168.70206        40.125
C03  37045295.548 7 192904582.96207        42.750    37045293.895 7 149166058.11307        46.281    37045290.976 6 156750759.03906        36.688
C05  36461070.451 7 189862374.97907        44.562    36461068.262 8 146813627.49208        48.438    36461066.259 6 154278714.38906        39.719
C06  37203317.205 7 193727452.89907        43.688    37203315.387 7 149802348.79807        46.875    37203310.913 6 157419390.10106        38.688
C08  38101066.235 6 198402324.66606        41.125    38101062.961 7 153417279.15807        44.219    38101057.200 5 161218131.90905        34.531
C09  35918077.849 7 187034874.48107        46.688    35918077.642 8 144627320.21908        50.344    35918071.514 6 151981129.79006        40.438
C10  39697263.995 5 206714153.07505        31.500    39697264.249 6 159844540.56006        36.062    39697258.123 4 167972148.21204        27.875
C13  37067171.126 7 193018573.76207        44.688    37067176.130 7 149254273.99707        46.062    37067170.115 6 156843414.98706        37.531
C16  36953592.810 7 192427073.97707        46.344    36953596.264 8 148796835.03908        48.062    36953589.598 6 156362737.25506        37.188
C23  25754108.361 6 134108415.69906        39.312                                                    25754098.177 5 108974021.36505        33.375
C25  25914331.664 4 134942726.09804        29.844                                                    25914328.583 4 109652000.80614        29.344
C27  22436453.897 8 116832514.24908        49.469                                                    22436452.022 6  94935974.04606        41.375
C28  21864645.668 8 113854950.74608        50.375                                                    21864643.948 7  92516472.07007        44.219
C32  23858398.254 7 124236950.24407        46.125                                                    23858398.297 6 100952695.58406        39.688
C33  25988889.242 4 135330973.35604        29.188
E07  26140475.121 6 137369147.89606        40.688    26140469.222 5 111500892.51205        30.688    26140473.119 5 102580841.15105        35.594    26140476.787 7 105256897.21107        45.125    26140473.347 7 103918859.75307        44.719
E13  25881771.599 6 136009666.68106        41.719    25881767.871 5 110397424.83505        30.938    25881769.000 5 101565667.36305        34.406    25881771.664 7 104215216.64007        43.938    25881768.925 7 102890441.07207        43.625
E18  19533552.890 7 102649521.75707        47.719    19533546.919 6  83319382.39406        36.562    19533549.038 6  76653849.11906        41.062    19533552.518 8  78653523.93108        50.469    19533549.166 8  77653685.60008        50.125
E19  24782070.687 6 130230673.54306        40.750                                                    24782066.380 5  97250150.56005        33.500    24782070.179 7  99787130.41507        43.500    24782066.583 7  98518631.56807        43.000
E26  23002871.994 8 120880931.00908        48.438    23002867.472 6  98117603.42706        38.156    23002870.235 6  90268233.29706        41.562    23002873.597 8  92623070.36308        51.656    23002870.367 8  91445646.40508        51.156
E33  25719935.791 7 135159198.54307        42.125                                                    25719931.935 5 100930546.82305        35.312    25719935.175 7 103563532.71407        44.938    25719931.961 7 102247029.84507        44.562
G10  22798788.670 7 119808438.35307        42.562    22798787.968 7        43.500    22798788.952 7  93357232.22807        43.500    22798788.862 7  93357241.23007        43.000    22798782.170 6  89467328.64106        37.812
G15  22784490.259 6 119733317.53006        39.875    22784489.830 5        35.219    22784488.644 5  93298686.60505        35.219    22784489.254 6  93298693.61106        36.188
G18  21111618.262 7 110942305.61107        46.188    21111617.873 6        38.688    21111616.653 6  86448546.61906        38.688    21111617.219 7  86448551.62307        47.812    21111616.252 6  82846530.60106        41.844
G20  21890879.939 7 115037367.34407        44.281    21890878.629 5        32.750    21890876.927 5  89639498.54305        32.750
G23  22000372.325 7 115612751.33707        43.250    22000371.923 5        33.156    22000370.725 5  90087856.30705        33.156    22000370.891 7  90087856.31307        44.438    22000370.267 6  86334195.88306        38.500
G24  22528623.344 6 118388722.95706        41.438    22528622.826 7        42.125    22528624.749 7  92250951.19907        42.125    22528625.075 7  92250942.20307        42.750    22528619.806 6  88407138.65406        36.875
G25  25141000.301 3                        20.000                                                                                    25140997.394 3                        22.031
G29  21526112.660 7 113120493.45907        45.781    21526112.012 8        49.500    21526110.215 8  88145829.79808        49.500    21526110.937 7  88145828.79607        44.781
G32  22335706.254 7 117374935.97307        45.375    22335705.852 7        46.375    22335705.730 7  91460988.66307        46.375    22335706.985 7  91460985.66907        43.594    22335700.763 6  87650094.67806        37.594
I01  41955490.616 7 164642419.96407        43.844
I02  37770282.323 6 148218800.57306        39.344
I03  35941701.597 7 141043033.23907        46.656
I04  38721565.736 6 151951765.76406        38.938
I05  36963529.635 7 145052866.03307        42.375
I06  38149637.562 6 149707484.34206        39.188
I07  43494875.527 6 170683239.23006        38.938
J03  36983759.637 6 194351064.57306        38.500    36983760.646 7 151442431.49807        42.094    36983757.071 5 145132329.21905        34.656
J07  38436975.812 5 201987705.45805        34.875    38436975.535 7 157393005.76007        43.062    38436972.681 6 150834959.47106        37.625
R03  22159639.810 5 118622324.51905        34.688    22159641.825 5 118622303.48605        34.031    22159647.593 7  92261826.61907        42.688    22159648.080 7  92261824.61407        42.188
R04  20159600.996 6 107953741.46806        40.906    20159601.456 6 107953765.48106        40.656    20159606.983 7  83964061.45007        46.250    20159606.710 7  83964061.43907        46.125
R05  21924077.095 6 117196773.33606        37.062    21924077.846 6 117196778.29406        37.375    21924084.882 7  91153068.17207        42.969    21924084.634 7  91153073.16507        42.656
R17  21038521.348 6 112581381.63306        38.688    21038521.675 6 112581387.62306        38.719    21038527.745 7  87563330.82107        44.219    21038527.381 7  87563356.82307        44.406
R18  19329864.776 7 103184141.72107        45.438    19329865.020 7 103184147.72607        45.438    19329871.189 8  80254357.55708        49.688    19329871.329 8  80254367.55208        49.250
R19                                                                                                                                                  21461864.342 6  89293951.90306        41.406
> 2021 01 03 00 05  0.0000000  0 47
C01  40365209.099 5 210192233.41305        32.062    40365207.527 5                        30.219
C02  35828721.187 7 186569615.72907        45.406    35828717.706 8 144267471.17708        50.125    35828716.683 6 151603096.22606        39.812
C03  37045411.119 7 192905186.33107        42.812    37045410.008 7 149166524.68007        46.250    37045406.957 6 156751249.31506        36.719
C05  36461055.811 7 189862301.37107        44.562    36461054.234 8 146813570.57208        48.406    36461052.156 6 154278654.57906        39.719
C06  37205390.491 7 193738249.51207        43.812    37205388.623 7 149810697.43407        47.188    37205384.316 6 157428163.24506        38.625
C08  38096287.153 6 198377441.73406        41.094    38096284.140 7 153398038.10307        44.219    38096278.992 5 161197912.49205        34.469
C09  35916774.074 7 187028085.54407        46.562    35916773.871 8 144622070.57408        50.312    35916767.757 6 151975613.21506        40.344
C10  39700858.767 5 206732872.78805        31.062    39700859.648 6 159859015.84306        36.656    39700853.105 4 167987359.50004        28.125
C13  37062018.493 7 192991743.67407        44.750    37062023.772 7 149233527.27307        46.344    37062017.563 6 156821613.36006        37.125
C16  36955414.406 7 192436558.12607        46.688    36955417.354 7 148804168.79207        47.750    36955410.855 6 156370443.91806        37.094
C23  25746097.757 6 134066704.99806        39.094                                                    25746088.589 5 108940128.00405        34.031
C25  25908435.657 5 134912031.35705        33.188                                                    25908433.936 4 109627058.75404        28.781
C27  22425569.770 8 116775836.05408        49.844                                                    22425567.492 6  94889918.36506        41.438
C28  21870808.902 8 113887044.55408        50.594                                                    21870807.247 7  92542550.92707        44.188
C32  23855577.126 7 124222260.57107        45.625                                                    23855577.431 6 100940759.00906        39.531
C33  26001652.062 4 135397436.00004        28.188
E07  26154412.150 6 137442388.10506        40.062    26154407.300 5 111560340.69705        30.656    26154410.361 5 102635533.52305        35.156    26154413.934 7 105313016.33107        45.156    26154410.589 7 103974265.49707        44.469
E13  25890186.597 6 136053887.35506        41.344    25890183.264 5 110433318.24205        30.125    25890183.965 5 101598689.31405        35.000    25890186.853 7 104249100.02207        43.875    25890183.753 7 102923893.73807        43.719
E18  19531524.100 8 102638861.30608        48.062    19531518.527 6  83310729.45206        36.500    19531520.340 6  76645888.40606        40.906    19531524.015 8  78645355.54508        50.906    19531520.558 8  77645621.05208        50.281
E19  24774287.931 6 130189774.44406        40.406                                                    24774283.827 5  97219609.01105        33.562    24774287.559 7  99755792.12507        43.531    24774283.741 7  98487691.64707        43.000
E26  22999022.639 7 120860703.94807        47.781    22999018.699 6  98101185.35106        38.094    22999020.970 6  90253128.66906        41.281    22999024.502 8  92607571.70308        51.438    22999021.292 8  91430344.76008        50.969
E33  25706828.595 6 135090319.33006        41.781                                                    25706824.557 5 100879111.02905        35.531    25706828.124 7 103510755.13407        45.000    25706824.714 7 102194923.16107        44.594
G10  22797294.185 7 119800585.40207        43.906    22797293.479 7        44.219    22797294.594 7  93351113.06707        44.219    22797294.729 7  93351122.06507        43.250    22797287.761 6  89461464.45606        37.625
G15  22803283.584 6 119832075.51406        41.125    22803283.169 5        35.875    22803281.420 5  93375640.88805        35.875    22803282.613 5  93375647.88905        35.781
G18  21104243.452 7 110903550.82707        46.000    21104243.059 6        38.750    21104241.833 6  86418348.08806        38.750    21104242.372 8  86418353.09008        48.031    21104241.750 7  82817590.34507        42.156
G20  21891566.544 7 115040976.04307        44.594    21891565.230 5        33.125    21891563.871 5  89642310.52905        33.125
G23  22003378.101 7 115628546.91607        43.812    22003377.712 5        33.406    22003376.778 5  90100164.54205        33.406    22003376.758 7  90100164.54907        45.250    22003376.146 6  86345991.27106        38.844
G24  22526344.274 6 118376744.38506        41.156    22526343.742 6        41.156    22526344.909 6  92241617.24406        41.156    22526345.419 7  92241608.24407        42.250    22526340.627 6  88398193.63206        38.031
G25  25146660.240 3                        18.938
G29  21541498.401 7 113201347.56207        46.156    21541497.758 8        49.625    21541496.172 8  88208832.99808        49.625    21541496.897 7  88208831.99807        44.656
G32  22320902.518 7 117297142.44307        45.812    22320902.121 7        46.688    22320902.190 7  91400370.33407        46.688    22320903.600 7  91400367.34507        43.906    22320896.772 6  87592002.11306        37.625
I01  41971013.749 7 164703335.21307        43.625
I02  37771991.955 6 148225509.05706        39.125
I03  35941639.016 7 141042788.77307        46.438
I04  38719916.970 6 151945296.78406        38.500
I05  36963314.369 7 145052022.21807        42.125
I06  38149762.142 6 149707972.57006        38.844
I07  43491483.806 6 170669930.85606        38.844
J01                                                  42845267.436 4 175444205.39004        26.500
J03  36983845.309 6 194351513.77206        38.156    36983846.073 6 151442781.52106        41.781    36983842.225 5 145132664.65505        34.656
J07  38436964.257 5 201987641.83905        34.594    38436963.680 7 157392956.22007        43.031    38436960.750 6 150834911.96706        37.938
R03  22177822.219 5 118719657.36705        34.406    22177824.225 5 118719636.34405        33.781    22177830.350 7  92337529.94907        42.750    22177830.094 7  92337527.96107        42.625
R04  20166728.664 6 107991909.77706        41.438    20166729.176 6 107991933.76806        41.156    20166734.825 7  83993747.88407        46.500    20166734.538 7  83993747.88307        46.531
R05  21914848.111 6 117147435.17106        37.281    21914848.778 6 117147440.16206        37.531    21914854.915 7  91114694.03607        42.719    21914855.186 7  91114699.04707        42.625
R17  21054012.588 6 112664271.29406        38.062    21054011.017 6 112664277.33606        38.250    21054017.305 7  87627800.59607        43.938    21054017.180 7  87627826.60107        44.062
R18  19325454.995 7 103160602.43007        45.812    19325455.511 7 103160608.41207        45.656    19325461.590 8  80236049.19108        49.906    19325461.399 8  80236059.20208        49.469
R19                                                                                                                                                  21441442.661 6  89208983.49506        41.000
> 2021 01 03 00 05 30.0000000  0 48
C01  40365235.846 5                        30.062    40365233.871 4                        29.594
C02  35828704.072 7 186569525.98907        45.500    35828700.304 8 144267401.79108        50.188    35828699.549 6 151603023.30506        39.719
C03  37045527.141 7 192905788.87207        42.688    37045525.437 7 149166990.59807        46.469    37045522.582 6 156751738.93406        36.062
C05  36461041.709 7 189862227.99607        44.469    36461039.900 8 146813513.83608        48.594    36461038.103 6 154278594.96506        39.312
C06  37207486.134 7 193749163.59707        43.812    37207484.621 7 149819136.89207        47.281    37207480.304 6 157437031.80606        38.375
C08  38091517.065 6 198352607.42906        39.781    38091514.385 7 153378834.62307        43.656    38091510.028 5 161177732.55505        34.531
C09  35915498.294 7 187021443.69107        46.344    35915498.310 8 144616934.67308        50.219    35915492.449 6 151970216.16906        40.344
C10  39704428.630 5 206751458.46805        31.781    39704428.715 5 159873387.46405        35.875    39704423.085 4 168002461.91404        27.719
C13  37056865.389 7 192964910.34807        44.688    37056870.422 7 149212778.03007        46.312    37056864.588 6 156799809.08406        37.125
C16  36957261.174 7 192446175.44507        46.688    36957264.517 7 148811605.52607        47.719    36957257.752 6 156378258.79906        36.875
C23  25738051.096 6 134024804.82006        39.906                                                    25738041.739 5 108906080.71005        32.688
C25  25902553.964 6 134881399.67806        36.562                                                    25902551.051 4 109602168.03804        29.031
C27  22414751.753 8 116719504.95608        50.188                                                    22414749.907 6  94844144.73206        41.281
C28  21877057.993 8 113919586.13808        50.281                                                    21877056.377 7  92568993.62207        43.938
C32  23852800.894 7 124207806.41607        45.688                                                    23852801.715 6 100929013.81206        39.312
C33  26014385.636 4 135463755.33804        27.125
E07  26168358.412 6 137515676.99506        39.875    26168352.992 5 111619828.43305        30.906    26168356.554 5 102690262.22805        35.031    26168360.767 7 105369172.73807        45.312    26168356.907 7 104029708.05707        44.625
E13  25898655.386 6 136098388.79206        41.281    25898650.663 5 110469439.52205        30.125    25898651.923 5 101631920.89905        35.312    25898655.526 7 104283198.52807        43.938    25898652.081 7 102957558.78807        43.719
E18  19529733.470 7 102629451.87407        47.375    19529727.584 6  83303091.93806        36.531    19529729.796 6  76638861.86806        40.656    19529733.473 8  78638145.71608        50.812    19529729.985 8  77638502.87208        50.312
E19  24766563.351 6 130149182.44606        39.844                                                    24766559.433 5  97189296.84005        33.469    24766562.789 7  99724689.17407        43.531    24766559.318 7  98456984.08007        42.938
E26  22995223.444 7 120840739.22707        47.000    22995219.491 6  98084980.22706        38.125    22995221.975 6  90238219.94906        41.281    22995225.079 8  92592274.06008        51.469    22995222.181 8  91415241.57808        50.906
E33  25693725.873 6 135021464.27106        40.906                                                    25693721.989 5 100827693.29705        35.312    25693725.190 7 103457996.05007        44.875    25693722.079 7 102142834.74407        44.531
G10  22795807.898 7 119792775.23007        44.719    22795807.214 7        44.781    22795808.036 7  93345027.23307        44.781    22795808.281 7  93345036.22407        42.562    22795801.649 6  89455632.19206        37.781
G15  22822108.780 6 119931002.64006        40.688    22822108.374 5        35.906    22822106.555 5  93452726.97805        35.906    22822107.133 6  93452733.98506        36.062
G18  21096905.958 7 110864992.03607        46.188    21096905.556 6        39.031    21096904.488 6  86388302.27306        39.031    21096904.969 8  86388307.26908        48.500    21096903.923 6  82788796.44006        41.875
G20  21892247.194 7 115044553.28007        43.656    21892245.875 5        32.594    21892244.387 5  89645097.98405        32.594
G23  22006381.353 7 115644328.63007        44.125    22006380.973 5        33.875    22006379.984 5  90112461.97605        33.875    22006380.150 7  90112461.98507        45.062    22006379.945 6  86357776.29506        39.688
G24  22524143.994 6 118365183.63206        41.062    22524143.449 6        41.562    22524145.225 6  92232608.85606        41.562    22524145.332 7  92232599.86407        43.000    22524141.047 6  88389560.59706        38.500
G25                                                                                                                                  25152252.498 4                        26.281
G26                                                                                                                                  25294140.968 3                        20.094
G29  21556952.429 7 113282560.10507        46.312    21556951.790 8        49.562    21556950.244 8  88272115.50008        49.562    21556951.116 7  88272114.49807        44.406
G32  22306165.409 7 117219697.83807        45.250    22306165.016 7        47.000    22306165.530 7  91340023.90007        47.000    22306166.285 7  91340020.90207        44.594    22306159.749 6  87534170.10106        37.875
I01  41986531.190 7 164764228.78807        43.656
I02  37773690.661 6 148232175.59506        39.719
I03  35941577.099 7 141042545.91307        46.562
I04  38718258.121 6 151938786.54806        38.562
I05  36963095.865 7 145051163.28107        42.562
I06  38149886.474 6 149708459.17806        39.250
I07  43488093.325 6 170656622.41406        39.031
J01                                                  42844854.962 4 175442512.65904        25.750
J03  36983954.977 6 194352090.25206        38.312    36983955.932 7 151443230.73207        42.406    36983951.885 5 145133095.14005        34.531
J07  38436952.516 5 201987577.72305        34.938    38436951.434 7 157392906.23207        43.094    38436948.334 6 150834864.07606        37.531
R03  22196000.321 5 118816953.58605        33.500    22195999.083 5 118816932.61105        33.406    22196005.897 6  92413204.81706        41.719    22196005.047 6  92413202.80806        41.562
R04  20173932.972 6 108030489.12306        41.219    20173933.806 6 108030513.12506        41.500    20173939.057 7  84023754.07007        46.688    20173938.630 7  84023754.05907        46.375
R05  21905710.963 6 117098594.68406        37.500    21905711.626 6 117098599.68806        37.938    21905717.732 6  91076707.02306        41.531    21905718.645 6  91076712.00806        41.719
R17  21069606.335 6 112747720.58506        38.469    21069605.953 6 112747726.60006        38.688    21069611.320 7  87692705.59207        43.812    21069611.833 7  87692731.57407        43.875
R18  19321176.881 7 103137763.67007        45.594    19321176.973 7 103137769.68007        45.500    19321183.004 8  80218285.73608        49.688    19321182.795 8  80218295.73008        49.344
R19                                                                                                                                                  21421065.442 6  89124199.30006        41.531
> 2021 01 03 00 06  0.0000000  0 47
C01  40365262.400 5                        31.094    40365260.640 5                        30.219
C02  35828686.772 7 186569435.97407        45.562    35828683.013 8 144267332.18208        50.031    35828682.370 6 151602950.15906        39.688
C03  37045642.477 7 192906390.84007        43.125    37045641.242 7 149167456.08207        46.438    37045638.159 6 156752228.07706        36.406
C05  36461028.049 7 189862155.15407        44.844    36461026.138 8 146813457.50908        48.500    36461023.996 6 154278535.76306        39.469
C06  37209605.056 7 193760194.98007        44.250    37209603.100 7 149827667.06307        47.281    37209598.580 6 157445995.72906        38.250
C08  38086757.780 6 198327822.64106        40.406    38086755.372 7 153359669.45607        44.281    38086750.392 5 161157592.90405        35.125
C09  35914251.217 7 187014949.16307        46.625    35914251.203 8 144611912.68708        50.125    35914245.173 6 151964938.83006        40.250
C10  39707970.366 5 206769910.20505        31.812    39707972.363 6 159887655.51006        36.594    39707965.714 4 168017455.46304        27.000
C13  37051712.595 7 192938074.47807        45.625    37051717.086 7 149192026.85007        46.250    37051710.923 6 156778002.75106        37.000
C16  36959134.034 7 192455925.80207        46.938    36959136.488 7 148819145.10907        47.094    36959130.394 6 156386181.75106        37.031
C23  25729969.185 6 133982716.84806        40.125                                                    25729958.619 5 108871880.77105        32.250
C25  25896684.178 5 134850833.37505        35.875                                                    25896681.447 4 109577330.38704        28.812
C27  22404000.940 8 116663523.15208        50.125                                                    22403999.027 6  94798654.92206        41.375
C28  21883393.293 8 113952575.12108        50.156                                                    21883391.562 7  92595799.86607        43.844
C32  23850070.231 7 124193586.87607        45.656                                                    23850070.837 6 100917459.30106        38.688
C33  26027098.685 4 135529930.72904        29.312
E07  26182313.859 6 137589013.11606        40.500    26182308.267 4 111679354.47804        29.750    26182311.879 5 102745026.22105        34.875    26182315.978 7 105425365.34607        45.344    26182312.229 7 104085186.35907        44.562
E13  25907176.735 6 136143171.03906        41.781    25907172.795 4 110505788.77504        29.031    25907174.067 5 101665362.17305        34.938    25907177.617 7 104317512.19207        44.438    25907174.007 7 102991436.25807        44.062
E18  19528180.916 7 102621292.76207        47.688    19528174.871 6  83296469.28006        36.281    19528177.410 6  76632769.03906        40.875    19528180.920 8  78631893.94208        51.250    19528177.455 8  77632330.56608        50.562
E19  24758897.610 6 130108898.06706        40.219                                                    24758893.247 5  97159214.31105        33.344    24758896.777 7  99693821.92607        43.500    24758893.505 7  98426509.20107        42.875
E26  22991474.732 7 120821038.50207        47.562    22991470.594 6  98068989.38106        38.000    22991473.205 6  90223508.37206        41.438    22991476.249 8  92577178.70208        51.656    22991473.289 8  91400338.10908        51.062
E33  25680628.147 6 134952635.28006        41.375                                                    25680624.262 5 100776295.00305        35.500    25680627.744 7 103405256.94607        45.375    25680624.349 7 102090766.05307        44.781
G10  22794329.153 7 119785006.53507        44.906    22794328.483 7        44.750    22794329.580 7  93338973.71207        44.750    22794329.872 7  93338982.72207        42.875    22794323.414 6  89449830.91606        38.000
G15  22840965.905 6 120030096.13306        39.438    22840965.516 5        35.125    22840962.941 5  93529942.69305        35.125    22840964.541 6  93529949.68706        36.281
G18  21089606.231 7 110826631.76207        46.688    21089605.834 6        39.094    21089604.712 6  86358411.14706        39.094    21089605.213 8  86358416.14408        48.000    21089604.323 7  82760150.77407        42.250
G20  21892922.001 7 115048098.29207        43.844    21892920.687 5        32.406    21892919.026 5  89647860.32405        32.406
G23  22009381.723 7 115660095.57307        44.500    22009381.330 5        33.562    22009380.113 5  90124747.90505        33.562    22009380.012 7  90124747.91207        44.344    22009380.019 6  86369550.32106        39.438
G24  22522024.061 6 118354042.89206        40.438    22522023.503 6        41.031    22522025.314 6  92223927.74006        41.031    22522025.263 7  92223918.75507        42.844    22522020.872 6  88381241.20406        38.156
G25  25157789.514 4                        24.406                                                                                    25157790.417 4                        26.531
G29  21572474.356 7 113364128.43607        46.562    21572473.717 8        49.781    21572472.396 8  88335675.23908        49.781    21572473.177 7  88335674.23907        44.781
G32  22291495.172 7 117142604.26907        46.344    22291494.779 7        47.062    22291495.335 7  91279950.99407        47.062    22291495.621 7  91279948.00307        44.188    22291489.400 6  87476600.23706        37.906
I01  42002043.090 7 164825100.68707        43.531
I02  37775378.453 6 148238799.82406        38.938
I03  35941515.902 7 141042304.83807        46.438
I04  38716588.921 6 151932235.31706        38.344
I05  36962873.044 7 145050289.41307        42.250
I06  38150009.492 6 149708944.29206        39.156
I07  43484701.573 6 170643314.08806        38.500
J01                                                  42844420.069 4 175440739.43904        26.750
J03  36984088.899 6 194352794.01006        36.625    36984089.699 7 151443779.12307        42.250    36984085.630 5 145133620.70905        34.656
J07  38436939.684 5 201987513.20005        34.312    38436939.250 7 157392855.99907        43.219    38436936.177 6 150834815.92206        37.625
R03  22214168.345 5 118914210.43605        34.312    22214167.957 5 118914189.44205        34.000    22214173.837 6  92488848.99206        40.625    22214173.753 6  92488846.99906        40.281
R04  20181214.480 6 108069476.70406        41.188    20181214.279 6 108069500.70106        41.438    20181219.485 7  84054077.72607        46.094    20181219.745 7  84054077.72807        45.875
R05  21896667.513 6 117050251.72606        38.469    21896669.022 6 117050256.69306        38.875    21896674.900 7  91039106.90907        42.781    21896674.729 7  91039111.92307        42.438
R17  21085305.397 6 112831727.09706        38.188    21085304.555 6 112831733.13406        38.656    21085310.682 7  87758043.98807        44.750    21085310.171 7  87758070.00607        44.969
R18  19317030.563 7 103115627.84807        45.375    19317030.017 7 103115633.86107        45.281    19317036.213 8  80201068.96408        49.906    19317035.959 8  80201078.97708        49.375
R19                                                                                                                                                  21400731.323 6  89039602.70406        40.719
> 2021 01 03 00 06 30.0000000  0 48
C01  40365290.644 5 210192653.41505        32.031    40365287.923 5                        30.312
C02  35828669.200 7 186569345.56107        46.000    35828665.697 8 144267262.26908        50.156    35828664.861 6 151602876.68006        39.688
C03  37045757.927 7 192906991.99907        43.312    37045756.742 7 149167920.93207        46.344    37045753.536 6 156752716.56406        36.438
C05  36461014.203 7 189862082.58007        45.031    36461012.237 8 146813401.39208        48.500    36461010.203 6 154278476.80606        39.406
C06  37211745.676 7 193771343.03507        44.219    37211744.064 7 149836287.44907        47.375    37211739.627 6 157455054.42206        38.156
C08  38082008.094 6 198303087.65006        40.812    38082004.806 7 153340542.79007        44.219    38082000.079 5 161137493.67705        34.500
C09  35913032.260 7 187008601.68107        47.156    35913032.153 8 144607004.42008        50.375    35913026.109 6 151959780.99406        40.219
C10  39711488.731 5 206788227.47905        32.344    39711490.629 6 159901819.61006        37.062    39711483.862 4 168032339.75804        26.906
C13  37046558.527 7 192911236.53907        45.531    37046562.921 7 149171274.04407        45.969    37046557.028 6 156756194.71206        36.875
C16  36961031.760 7 192465808.57107        47.062    36961034.582 7 148826787.10507        47.156    36961028.318 6 156394212.32106        37.188
C23  25721850.578 6 133940442.26006        39.906                                                    25721840.827 5 108837529.22105        32.656
C25  25890827.801 5 134820334.47105        32.844                                                    25890823.057 4 109552547.51704        27.500
C27  22393317.992 8 116607892.37308        50.375                                                    22393315.546 6  94753450.35006        41.250
C28  21889814.319 8 113986010.66808        50.500                                                    21889812.532 7  92622968.98307        43.719
C32  23847384.886 7 124179600.53007        46.125                                                    23847384.794 6 100906094.24306        38.594
C33  26039776.211 5 135595961.20805        30.219
E07  26196277.952 6 137662394.62306        40.125    26196272.516 4 111738917.39904        29.750    26196276.090 5 102799824.09105        35.875    26196279.656 7 105481592.73007        44.625    26196276.156 7 104140698.98907        44.375
E13  25915751.838 6 136188233.65706        40.875    25915747.882 4 110542365.58804        29.281    25915749.292 5 101699012.84805        34.938    25915752.772 7 104352040.70907        44.438    25915749.225 7 103025525.85007        44.031
E18  19526866.034 7 102614382.79107        47.250    19526860.067 6  83290860.53606        36.594    19526862.551 6  76627608.99906        41.250    19526865.618 8  78626599.29808        50.938    19526862.564 8  77627103.22508        50.562
E19  24751290.021 6 130068921.35706        39.844                                                    24751286.124 5  97129361.58605        34.062    24751289.309 7  99663190.42107        43.062    24751286.203 7  98396267.08207        42.812
E26  22987776.189 7 120801603.06207        47.125    22987772.059 6  98053213.86906        38.031    22987774.664 6  90208994.89106        41.688    22987777.805 8  92562286.61108        51.688    22987774.811 8  91385635.32708        51.188
E33  25667535.710 6 134883833.80806        40.719                                                    25667531.679 5 100724917.29705        35.750    25667534.820 7 103352538.93307        44.688    25667531.878 7 102038718.18507        44.500
G10  22792858.788 7 119777277.71507        44.156    22792858.118 7        44.938    22792858.919 7  93332951.27107        44.938    22792859.316 7  93332960.27907        43.219    22792852.794 6  89444059.40406        38.438
G15  22859853.944 6 120129353.03906        38.156    22859853.555 5        34.719    22859850.924 5  93607285.72905        34.719    22859852.970 6  93607292.73306        36.531
G18  21082344.721 7 110788472.04607        46.625    21082344.328 6        39.469    21082343.112 6  86328676.29606        39.469    21082343.699 8  86328681.30508        48.062    21082342.794 7  82731654.88807        42.312
G20  21893590.294 7 115051610.66307        44.312    21893588.975 5        32.406    21893587.245 5  89650597.23705        32.406
G23  22012378.896 7 115675846.40707        44.219    22012378.499 5        33.438    22012377.287 5  90137021.29105        33.438    22012377.518 7  90137021.29307        44.250    22012377.307 6  86381312.28706        38.906
G24  22519983.916 6 118343323.83206        40.969    22519983.340 6        40.812    22519984.731 6  92215575.23406        40.812    22519985.426 7  92215566.24007        42.312    22519980.678 6  88373236.70406        37.594
G25  25163258.727 4                        24.125                                                                                    25163263.144 4                        26.688
G26                                                                                                                                  25302601.487 3                        19.375
G29  21588063.667 7 113446049.47707        45.844    21588063.024 8        50.000    21588061.756 8  88399509.81608        50.000    21588062.141 7  88399508.81407        45.094
G32  22276891.541 7 117065863.18107        46.344    22276891.148 7        47.312    22276891.817 7  91220152.74107        47.312    22276892.203 7  91220149.74407        44.000    22276886.178 6  87419293.57206        38.312
I01  42017549.184 7 164885950.66107        43.312
I02  37777055.922 6 148245382.01106        38.906
I03  35941454.759 7 141042065.41607        46.250
I04  38714908.660 6 151925643.00506        38.094
I05  36962646.854 7 145049400.58807        42.062
I06  38150133.029 6 149709427.78006        38.625
I07  43481310.577 6 170630005.72906        38.719
J01                                                  42843966.113 4 175438885.61104        26.250
J03  36984247.674 6 194353624.69406        36.500    36984247.465 6 151444426.41706        41.875    36984243.550 5 145134241.01305        34.688
J07  38436926.973 5 201987448.21005        34.500    38436926.977 7 157392805.30607        43.438    38436923.717 6 150834767.34606        37.625
R03  22232328.792 5 119011424.82405        34.344    22232328.900 5 119011403.81205        34.406    22232334.542 6  92564460.19206        40.031    22232334.042 6  92564458.18006        40.344
R04  20188571.051 6 108108868.73106        40.500    20188570.488 6 108108892.77606        41.062    20188576.463 7  84084716.02607        46.656    20188576.016 7  84084716.01607        46.781
R05  21887716.600 6 117002405.93306        38.500    21887717.801 6 117002410.90606        38.344    21887723.987 7  91001893.53307        42.250    21887723.541 7  91001898.54507        42.469
R17  21101107.508 6 112916288.47606        39.219    21101106.778 6 112916294.47206        38.719    21101113.174 7  87823813.95007        44.344    21101113.062 7  87823839.94707        44.688
R18  19313015.237 7 103094197.20007        45.281    19313015.297 7 103094203.19707        45.312    19313021.676 8  80184400.69608        49.812    19313022.017 8  80184410.69408        49.562
R19                                                                                                                                                  21380445.022 6  88955197.09806        40.406
> 2021 01 03 00 07  0.0000000  0 47
C01  40365317.285 5 210192795.89805        31.375    40365314.716 5                        30.438
C02  35828652.628 7 186569257.66707        45.625    35828649.003 8 144267194.31408        50.344    35828647.931 6 151602805.26306        39.719
C03  37045873.928 7 192907595.39007        43.094    37045872.557 7 149168387.51507        46.406    37045869.452 6 156753206.86606        36.469
C05  36461000.876 7 189862013.34607        45.000    36460998.924 8 146813347.85308        48.625    36460996.796 6 154278420.53906        39.625
C06  37213909.661 7 193782610.48807        44.094    37213907.917 7 149845000.15107        47.531    37213903.028 6 157464210.17406        38.219
C08  38077267.970 6 198278406.24206        41.000    38077265.511 7 153321457.57507        44.625    38077260.314 5 161117438.01605        34.656
C09  35911842.261 7 187002404.24407        47.031    35911842.235 8 144602212.17208        50.688    35911836.166 6 151954745.06806        40.406
C10  39714981.315 5 206806413.06605        32.406    39714982.317 6 159915881.82606        36.969    39714975.441 4 168047117.01004        27.938
C13  37041404.375 7 192884400.24707        45.094    37041409.141 7 149150522.52407        45.719    37041403.350 6 156734388.01006        37.219
C16  36962955.222 7 192475826.41807        46.906    36962958.193 7 148834533.54907        47.344    36962951.943 6 156402352.64806        37.344
C23  25713697.225 6 133897985.68306        40.250                                                    25713687.356 5 108803029.74105        32.406
C25  25884982.954 5 134789907.99205        34.062                                                    25884981.404 4 109527823.48504        29.156
C27  22382703.019 8 116552617.63008        50.188                                                    22382700.752 6  94708535.08706        41.469
C28  21896321.435 8 114019895.17208        50.594                                                    21896319.714 7  92650502.92607        43.844
C32  23844744.612 7 124165849.16607        46.281                                                    23844743.725 6 100894920.14606        38.625
C33  26052433.780 4 135661849.22604        28.125
E07  26210250.852 6 137735822.93806        40.438    26210244.268 4 111798518.31704        29.125    26210249.196 6 102854656.91206        36.344    26210252.254 7 105537855.98407        44.000    26210249.215 7 104196247.02507        44.156
E13  25924380.975 6 136233579.53206        40.906    25924376.800 4 110579172.31804        29.156    25924378.267 5 101732875.04605        34.750    25924381.628 7 104386786.26407        44.281    25924378.256 7 103059829.72907        43.812
E18  19525789.168 8 102608723.96808        48.594    19525783.274 6  83286267.34706        37.250    19525785.623 6  76623383.26406        41.938    19525789.046 8  78622263.31508        51.094    19525785.687 8  77622822.36208        50.875
E19  24743742.199 6 130029255.57606        40.500                                                    24743738.222 5  97099741.04505        33.688    24743741.076 7  99632797.16707        43.281    24743738.107 7  98366260.17907        42.906
E26  22984129.208 7 120782437.42607        47.906    22984124.783 6  98037657.33406        37.750    22984127.340 6  90194682.89406        41.750    22984130.633 8  92547601.25308        51.719    22984127.661 8  91371136.64908        51.250
E33  25654449.394 6 134815064.67106        41.375                                                    25654445.441 5 100673563.71705        35.906    25654448.219 7 103299845.69907        44.719    25654445.459 7 101986694.78007        44.594
G10  22791395.849 7 119769590.32507        44.375    22791395.179 7        45.219    22791395.852 7  93326961.10607        45.219    22791396.808 7  93326970.11807        43.312    22791389.582 6  89438318.84506        38.125
G15  22878772.618 6 120228773.58306        37.750    22878772.229 5        33.375    22878769.995 5  93684756.26205        33.375    22878772.159 6  93684763.25206        36.094
G18  21075122.456 7 110750518.27507        46.312    21075122.063 6        39.469    21075120.850 6  86299101.91806        39.469    21075121.463 8  86299106.92108        48.188    21075120.309 7  82703312.77007        42.156
G20  21894252.650 7 115055092.77907        43.938    21894251.318 5        32.219    21894249.907 5  89653310.57605        32.219
G23  22015373.522 7 115691583.05207        45.344    22015373.125 5        34.156    22015371.471 5  90149283.61105        34.156    22015372.537 7  90149283.61307        44.438    22015371.696 6  86393063.68706        38.625
G24  22518025.902 6 118333031.50606        41.312    22518025.330 6        40.781    22518026.359 6  92207555.25306        40.781    22518026.906 7  92207546.25807        42.031    22518022.489 6  88365550.87106        37.656
G25  25168672.672 3                        22.344                                                                                    25168672.967 4                        25.344
G29  21603719.990 7 113528323.58407        45.938    21603719.347 8        49.562    21603718.050 8  88463619.50708        49.562    21603718.543 7  88463618.51007        44.688
G32  22262356.154 7 116989479.50607        45.500    22262355.770 7        46.438    22262355.930 7  91160632.98907        46.438    22262357.120 7  91160629.99407        43.531    22262350.979 6  87362253.82106        38.562
I01  42033050.461 7 164946781.02807        43.438
I02  37778723.227 6 148251924.22706        39.062
I03  35941394.793 7 141041829.89607        46.375
I04  38713218.507 6 151919012.01806        38.344
I05  36962416.889 7 145048499.10707        42.031
I06  38150256.273 6 149709911.92106        38.625
I07  43477919.179 6 170616699.63906        38.781
J01                                                  42843496.181 4 175436953.29004        26.688
J03  36984430.239 6 194354585.13106        36.156    36984429.933 6 151445174.80806        41.812    36984426.278 5 145134958.19905        34.062
J07  38436915.118 5 201987385.69605        34.469    38436915.028 7 157392756.59707        43.062    38436912.125 6 150834720.67006        37.688
R03  22250480.968 5 119108596.92705        34.281    22250481.867 5 119108575.98605        34.031    22250486.937 6  92640038.50406        40.000    22250486.874 6  92640036.51406        40.312
R04  20196001.624 6 108148665.03306        41.312    20196002.283 6 108148689.02106        41.562    20196007.649 7  84115668.65707        46.594    20196007.866 7  84115668.64807        46.281
R05  21878861.254 6 116955060.20106        37.562    21878861.374 6 116955065.20506        38.188    21878866.733 7  90965069.10407        42.125    21878866.718 6  90965074.08606        41.750
R17  21117012.151 6 113001405.04506        38.719    21117012.990 6 113001411.04806        38.688    21117018.608 7  87890015.73707        43.812    21117019.673 7  87890041.72307        43.250
R18  19309133.797 7 103073476.98307        45.969    19309134.158 7 103073482.98907        45.562    19309140.072 8  80168284.96308        49.969    19309140.002 8  80168294.97108        49.781
R19                                                                                                                                                  21360205.019 6  88870988.28606        41.125
> 2021 01 03 00 07 30.0000000  0 48
C01  40365345.000 5 210192939.71705        30.938    40365342.730 5                        30.812
C02  35828636.046 7 186569170.96107        45.562    35828632.189 8 144267127.25708        50.094    35828631.367 6 151602734.80606        39.969
C03  37045989.994 7 192908199.64707        42.906    37045988.466 7 149168854.76207        46.312    37045985.504 6 156753697.88306        36.781
C05  36460988.087 7 189861946.12107        44.781    36460986.000 8 146813295.86708        48.500    36460983.971 6 154278365.90806        39.594
C06  37216096.357 7 193793995.52907        44.000    37216094.330 7 149853803.79107        47.250    37216089.628 6 157473461.43906        38.188
C08  38072538.867 6 198253777.92406        41.406    38072535.835 7 153302413.38407        44.656    38072530.641 5 161097425.51505        34.750
C09  35910680.392 7 186996355.43807        46.719    35910680.662 8 144597534.84808        50.531    35910674.453 6 151949829.91906        40.438
C10  39718447.159 5 206824465.45105        31.750    39718448.922 6 159929841.09706        37.062    39718442.593 4 168061786.04304        27.719
C13  37036250.368 7 192857564.94107        44.500    37036255.602 7 149129771.74507        45.406    37036249.898 6 156712582.12806        37.500
C16  36964904.841 7 192485977.60407        46.750    36964907.760 7 148842383.08707        47.062    36964901.461 6 156410601.32606        37.656
C23  25705509.235 6 133855347.16906        38.688                                                    25705498.661 5 108768382.46105        31.719
C25  25879154.793 6 134759554.76006        36.406                                                    25879152.800 5 109503159.03305        30.406
C27  22372156.544 8 116497699.49808        50.250                                                    22372154.289 6  94663909.60906        41.625
C28  21902914.487 8 114054226.66208        50.406                                                    21902912.792 7  92678400.08007        44.000
C32  23842148.233 7 124152330.28107        45.812                                                    23842147.754 6 100883934.94106        39.188
C33  26065055.735 4 135727592.58204        26.188
E07  26224231.993 6 137809295.00906        40.625    26224226.689 4 111858154.71704        29.438    26224230.607 6 102909522.41206        36.250    26224233.475 7 105594152.77407        43.875    26224230.614 7 104251828.17407        44.062
E13  25933063.604 6 136279207.07806        41.562    25933059.394 4 110616207.69904        29.375    25933060.537 5 101766947.56405        34.969    25933064.100 7 104421747.64107        43.812    25933060.827 7 103094346.68007        43.562
E18  19524949.866 8 102604313.78008        48.312    19524944.445 6  83282687.63206        37.750    19524946.166 7  76620089.93807        42.031    19524949.633 8  78618884.08308        50.938    19524946.418 8  77619486.08808        50.750
E19  24736252.943 6 129989899.64606        41.219                                                    24736248.912 5  97070351.88605        33.438    24736252.027 7  99602641.31407        43.156    24736248.947 7  98336487.66407        42.812
E26  22980533.422 7 120763541.68407        47.844    22980528.966 6  98022319.86806        37.906    22980531.575 6  90180572.43306        41.750    22980534.945 8  92533122.68908        51.375    22980531.894 8  91356842.13808        51.031
E33  25641369.303 6 134746328.18706        41.875                                                    25641365.177 5 100622234.51505        35.438    25641368.257 7 103247177.48307        44.594    25641365.318 7 101934696.07807        44.438
G10  22789940.123 7 119761941.59907        43.688    22789939.457 7        44.875    22789940.986 7  93321001.06807        44.875    22789940.889 7  93321010.07707        44.094    22789934.098 6  89432607.12106        38.250
G15  22897721.566 6 120328353.66506        37.125    22897721.164 5        32.625    22897719.465 5  93762351.11305        32.625    22897721.761 5  93762358.13605        35.875
G18  21067939.231 7 110712771.36107        46.125    21067938.829 6        39.312    21067938.023 6  86269688.74206        39.312    21067938.411 8  86269693.74508        48.625    21067937.524 7  82675125.13907        42.031
G20  21894909.302 7 115058542.67807        43.938    21894907.974 5        32.344    21894906.520 5  89655998.81005        32.344
G23  22018364.835 7 115707303.03707        44.375    22018364.455 5        34.031    22018362.865 5  90161532.94905        34.031    22018363.719 7  90161532.94107        44.250    22018362.765 6  86404802.64106        38.719
G24  22516148.367 6 118323165.79506        40.375    22516147.795 6        40.438    22516149.171 6  92199867.67906        40.438    22516149.397 7  92199858.67307        42.531    22516145.202 6  88358183.60806        37.656
G25  25174020.066 3                        22.344                                                                                    25174021.385 4                        25.219
G26                                                                                                                                  25311070.376 3                        21.688
G29  21619442.244 7 113610946.39307        46.000    21619441.601 8        49.188    21619440.162 8  88528000.92308        49.188    21619441.065 7  88527999.92407        44.281
G32  22247889.201 7 116913453.64707        45.688    22247888.821 7        46.875    22247888.986 7  91101392.07007        46.875    22247889.853 7  91101389.08507        43.781    22247883.840 6  87305481.28706        38.500
I01  42048546.517 7 165007590.71907        43.375
I02  37780379.690 6 148258425.18606        38.906
I03  35941335.347 7 141041597.30407        46.156
I04  38711519.214 6 151912341.42306        38.469
I05  36962184.071 6 145047583.92306        41.594
I06  38150379.677 6 149710395.61306        38.594
I07  43474529.109 6 170603394.79206        38.562
J01                                                  42843003.149 4 175434941.49304        26.906
J03  36984637.665 6 194355673.80706        36.281    36984637.074 6 151446023.10906        41.188    36984633.607 5 145135771.18805        33.688
J07  38436903.473 5 201987324.31805        34.656    38436903.137 7 157392708.77507        42.969    38436900.418 6 150834674.84306        37.500
R03  22268627.136 5 119205722.41205        33.938    22268625.815 5 119205701.47205        34.219    22268630.187 6  92715580.52606        39.344    22268630.041 6  92715578.55006        39.781
R04  20203508.461 6 108188860.51806        40.688    20203508.177 6 108188884.53106        40.531    20203514.170 7  84146931.83207        46.750    20203514.212 7  84146931.83007        46.688
R05  21870096.795 6 116908212.83806        38.312    21870097.051 6 116908217.84206        38.375    21870103.461 7  90928632.25807        42.531    21870102.792 7  90928637.26607        42.594
R17  21133021.115 6 113087073.13506        39.344    21133022.434 6 113087079.12006        38.719    21133028.584 7  87956646.46007        44.875    21133028.415 7  87956672.45507        44.469
R18  19305385.433 7 103053468.42307        45.625    19305385.649 7 103053474.42507        45.562    19305391.778 8  80152722.75908        50.000    19305391.770 8  80152732.75708        49.469
R19                                                                                                                                                  21340013.163 6  88786978.61406        40.969
> 2021 01 03 00 08  0.0000000  0 47
C01  40365371.524 5 210193080.34405        30.938
C02  35828618.574 7 186569080.93407        45.438    35828614.834 8 144267057.65108        50.375    35828613.962 6 151602661.66406        40.094
C03  37046105.395 7 192908800.25407        43.031    37046103.703 7 149169319.19307        46.594    37046101.034 6 156754185.92106        36.469
C05  36460974.384 7 189861876.31207        44.594    36460972.629 8 146813241.87608        48.688    36460970.492 6 154278309.17606        39.500
C06  37218304.258 7 193805493.24807        44.156    37218302.404 7 149862694.56107        47.406    37218297.629 6 157482804.29606        37.969
C08  38067819.086 6 198229198.72406        41.469    38067815.786 7 153283407.18007        44.844    38067811.007 5 161077452.87105        35.188
C09  35909546.462 7 186990450.66407        46.812    35909546.590 8 144592968.90608        50.781    35909540.406 6 151945031.80906        40.500
C10  39721888.428 5 206842379.77205        32.469    39721889.142 6 159943693.57806        36.750    39721882.603 4 168076342.88504        27.250
C13  37031096.577 7 192830726.76607        44.438    37031101.889 7 149109018.77307        45.594    37031096.102 6 156690773.90306        37.594
C16  36966878.815 7 192496257.17907        46.344    36966882.108 7 148850331.89707        47.719    36966875.678 6 156418954.31306        37.625
C23  25697284.201 6 133812523.66306        38.406                                                    25697275.031 5 108733584.83105        32.281
C25  25873339.505 6 134729272.35806        37.188                                                    25873336.967 5 109478552.04505        30.812
C27  22361678.027 8 116443135.37208        49.875                                                    22361676.039 6  94619571.77806        41.750
C28  21909592.173 8 114088999.89008        50.438                                                    21909590.554 7  92706656.16407        43.844
C32  23839595.450 7 124139038.04507        46.438                                                    23839595.257 6 100873133.92706        39.344
C33  26077647.005 3                        23.000
E07  26238220.611 6 137882804.65306        40.719    26238215.162 4 111917821.61004        29.219    26238218.899 5 102964415.96405        35.750    26238221.871 7 105650478.32907        43.719    26238219.091 7 104307437.72507        43.844
E13  25941798.763 6 136325111.49706        41.312    25941794.609 5 110653467.74105        30.000    25941795.795 5 101801226.86005        34.406    25941799.187 7 104456921.14607        43.344    25941796.118 7 103129073.07107        43.219
E18  19524347.146 8 102601146.35708        48.094    19524341.485 6  83280116.67806        37.281    19524343.468 6  76617724.66006        41.938    19524346.642 8  78616457.09908        50.625    19524343.707 8  77617089.95408        50.500
E19  24728821.794 6 129950849.15406        41.219                                                    24728818.049 5  97041190.77305        33.625    24728821.074 7  99572719.51507        43.375    24728817.900 7  98306946.22307        42.969
E26  22976988.474 7 120744912.67007        47.781    22976984.014 6  98007198.91306        37.906    22976986.607 6  90166661.14906        41.875    22976990.109 8  92518848.50608        51.438    22976986.928 8  91342749.40308        51.125
E33  25628294.852 7 134677621.51707        42.500                                                    25628290.543 5 100570927.58605        35.531    25628293.814 7 103194532.09407        44.719    25628290.878 7 101882719.91507        44.562
G10  22788491.187 7 119754325.57907        43.312    22788490.530 7        44.250    22788491.334 7  93315066.51607        44.250    22788491.474 7  93315075.52607        43.531    22788484.779 6  89426919.83806        38.125
G15  22916700.034 6 120428085.97006        36.750    22916699.672 5        31.750    22916697.929 5  93840064.58005        31.750    22916698.698 5  93840071.57405        35.906
G18  21060795.277 7 110675229.03107        46.094    21060794.871 6        39.031    21060794.041 6  86240434.97306        39.031    21060794.338 8  86240439.97408        48.250    21060793.356 7  82647090.27407        42.094
G20  21895558.460 7 115061955.08407        43.469    21895557.137 5        31.562    21895555.557 5  89658657.83605        31.562
G23  22021351.944 7 115723000.67407        44.219    22021351.578 5        33.594    22021349.868 5  90173764.86105        33.594    22021351.049 7  90173764.86407        44.188    22021349.980 6  86416524.89406        39.188
G24  22514351.923 6 118313724.17906        40.594    22514351.351 6        40.875    22514352.627 6  92192510.56706        40.875    22514352.773 7  92192501.57807        42.781    22514348.302 6  88351133.06406        37.625
G25                                                                                                                                  25179308.170 4                        26.375
G29  21635229.940 7 113693910.49707        46.125    21635229.292 8        49.312    21635227.827 8  88592648.27808        49.312    21635228.896 7  88592647.28107        44.625
G32  22233489.339 7 116837782.77907        45.875    22233488.973 7        46.812    22233489.515 7  91042427.75107        46.812    22233489.941 7  91042424.76207        44.188    22233483.487 6  87248973.82006        37.906
I01  42064036.335 7 165068376.35507        43.500
I02  37782024.935 6 148264881.26506        39.188
I03  35941276.003 7 141041364.20707        46.438
I04  38709808.350 6 151905627.86206        38.750
I05  36961946.446 7 145046651.65307        42.188
I06  38150502.191 6 149710875.51106        38.719
I07  43471137.760 6 170590087.75306        38.812
J01                                                  42842492.249 4 175432846.40104        27.781
J03  36984867.809 6 194356885.91606        37.000    36984867.596 6 151446967.61106        41.125    36984864.510 5 145136676.30205        33.688
J07  38436891.922 5 201987259.51705        35.062    38436890.902 7 157392658.28107        43.406    38436888.017 6 150834626.43606        37.781
R03  22286762.115 5 119302793.61205        33.406    22286759.146 5 119302772.65705        33.844    22286763.975 6  92791080.35006        38.312    22286762.902 6  92791078.36606        38.469
R04  20211087.577 6 108229447.20606        41.344    20211087.978 6 108229471.19806        41.000    20211093.286 7  84178499.23007        46.750    20211093.098 7  84178499.23507        46.875
R05  21861426.988 6 116861859.31206        38.812    21861426.009 6 116861864.32106        38.312    21861431.672 7  90892579.50007        42.219    21861431.330 7  90892584.51507        42.469
R17  21149132.187 6 113173285.51606        39.094    21149133.469 6 113173291.50006        38.844    21149139.123 7  88023700.52707        44.344    21149138.791 7  88023726.52707        44.625
R18  19301770.589 7 103034168.69907        45.875    19301770.205 7 103034174.70007        45.562    19301776.066 8  80137711.84308        49.844    19301775.929 8  80137721.85008        49.250
R19                                                                                                                                                  21319868.599 6  88703167.59806        41.250
> 2021 01 03 00 08 30.0000000  0 47
C01  40365399.340 5 210193222.43905        31.281
C02  35828601.473 7 186568992.11407        45.375    35828597.705 8 144266988.96608        50.250    35828597.053 6 151602589.50406        40.094
C03  37046220.739 7 192909401.80307        42.750    37046219.488 7 149169784.34107        46.500    37046216.511 6 156754674.71606        36.656
C05  36460961.213 7 189861808.53307        44.531    36460959.395 8 146813189.48008        48.625    36460957.473 6 154278254.10906        39.594
C06  37220534.634 7 193817107.93207        44.094    37220532.530 7 149871675.76807        47.250    37220527.898 6 157492242.17806        37.594
C08  38063108.652 6 198204673.89306        40.719    38063105.993 7 153264443.04007        44.625    38063101.195 5 161057524.47205        35.250
C09  35908441.300 7 186984694.43807        46.719    35908441.268 8 144588517.83308        50.969    35908434.855 6 151940354.40006        40.500
C10  39725302.291 5 206860160.34005        32.500    39725304.030 6 159957442.66506        36.125    39725297.154 4 168090791.09504        27.188
C13  37025943.466 7 192803890.80307        44.594    37025948.253 7 149088267.50207        45.688    37025942.511 6 156668967.50206        37.438
C16  36968878.381 7 192506669.37007        46.438    36968881.653 7 148858383.27107        47.844    36968875.173 6 156427415.07706        37.562
C23  25689026.153 6 133769521.26906        38.312                                                    25689017.464 5 108698641.88605        33.625
C25  25867538.306 6 134699067.53906        36.094                                                    25867536.551 5 109454008.16005        31.281
C27  22351268.726 8 116388931.77808        49.906                                                    22351266.598 6  94575526.92706        41.781
C28  21916355.805 8 114124218.79308        50.531                                                    21916353.982 7  92735274.41207        43.844
C32  23837086.598 7 124125975.88507        45.219                                                    23837086.736 6 100862519.84406        39.688
C33  26090219.828 4                        26.656
E07  26252216.948 6 137956354.87806        40.438    26252210.327 4 111977521.47704        28.656    26252215.067 5 103019339.83605        35.688    26252218.085 7 105706835.00907        43.844    26252215.209 7 104363078.00507        43.875
E13  25950587.799 6 136371297.18406        40.344    25950583.735 5 110690956.13505        30.281    25950584.423 5 101835716.15605        34.062    25950588.048 7 104492310.17307        43.562    25950584.785 7 103164012.24407        43.031
E18  19523981.866 8 102599225.05808        48.094    19523975.689 6  83278557.19006        36.906    19523977.738 6  76616289.92006        41.531    19523981.077 8  78614984.92408        50.719    19523978.044 8  77615636.49708        50.469
E19  24721449.895 6 129912108.95006        40.656                                                    24721446.265 5  97012261.43805        32.688    24721449.305 7  99543035.46807        43.781    24721445.918 7  98277639.52307        43.000
E26  22973495.378 7 120726556.51307        47.750    22973490.980 6  97992299.44906        37.906    22973493.546 6  90152953.63206        41.406    22973497.047 8  92504783.39708        51.844    22973493.855 8  91328863.09208        51.219
E33  25615227.434 6 134608950.96206        41.938                                                    25615222.788 5 100519647.61605        35.406    25615226.325 7 103141914.38607        45.094    25615223.368 7 101830771.06807        44.750
G10  22787048.535 7 119746745.20707        42.938    22787047.883 7        44.250    22787048.974 7  93309159.73307        44.250    22787049.297 7  93309168.74407        43.688    22787042.284 6  89421259.18206        38.000
G15  22935707.414 6 120527972.42406        36.719    22935707.057 5        31.656    22935705.792 5  93917898.18905        31.656    22935707.572 5  93917905.19605        35.594
G18  21053691.361 7 110637898.22207        46.375    21053690.950 6        39.438    21053689.994 6  86211346.02706        39.438    21053690.617 8  86211351.02708        48.312    21053689.560 7  82619213.37307        42.250
G20  21896201.627 7 115065334.05507        43.625    21896200.331 5        31.688    21896198.784 5  89661290.81505        31.688
G23  22024335.881 7 115738679.56107        44.438    22024335.506 5        33.938    22024333.569 5  90185982.17605        33.938    22024334.479 7  90185982.18507        44.500    22024333.753 6  86428233.15506        39.500
G24  22512636.917 6 118304713.24406        41.312    22512636.332 6        41.812    22512638.468 6  92185489.05606        41.812    22512638.386 7  92185480.06907        43.469    22512633.756 6  88344404.11306        37.875
G25  25184537.705 4                        24.000                                                                                    25184531.086 4                        24.344
G29  21651082.961 7 113777217.77907        46.344    21651082.313 8        49.812    21651080.737 8  88657563.04608        49.812    21651081.633 7  88657562.05507        44.656
G32  22219158.540 7 116762473.34407        45.562    22219158.165 7        47.031    22219158.614 7  90983745.07707        47.031    22219158.981 7  90983742.08307        44.281    22219152.705 6  87192736.25206        37.844
I01  42079520.888 7 165129141.19207        43.719
I02  37783659.562 6 148271296.75806        39.500
I03  35941217.355 7 141041134.05607        46.594
I04  38708087.452 6 151898874.88506        39.094
I05  36961705.248 7 145045705.86207        42.125
I06  38150624.201 6 149711355.09306        38.906
I07  43467747.217 6 170576781.96206        38.844
J01                                                  42841961.002 4 175430671.69404        27.844
J03  36985122.923 6 194358225.95506        36.594    36985122.838 6 151448011.79606        40.688    36985119.277 5 145137677.02005        33.656
J07  38436879.587 5 201987195.91805        34.281    38436878.607 7 157392608.72607        43.094    38436875.941 6 150834578.96406        37.812
R03  22304884.901 5 119399812.42505        33.156    22304883.440 5 119399791.48305        33.969    22304888.125 6  92866539.46206        37.688    22304888.577 6  92866537.45306        37.188
R04  20218741.083 6 108270426.22606        40.719    20218740.343 6 108270450.25106        40.938    20218745.821 7  84210371.81807        46.531    20218745.740 7  84210371.81907        46.562
R05  21852848.256 6 116816003.61806        38.062    21852847.542 6 116816008.63806        38.375    21852853.899 7  90856913.96207        43.531    21852852.965 7  90856918.98207        43.594
R17  21165345.662 6 113260044.42206        38.562    21165346.232 6 113260050.41706        38.594    21165351.805 7  88091179.68107        43.875    21165352.114 7  88091205.68507        44.156
R18  19298288.946 7 103015584.79507        46.188    19298288.905 7 103015590.80207        45.781    19298294.805 8  80123257.70408        49.625    19298294.760 8  80123267.70508        49.438
R19                                                                                                                                                  21299774.740 6  88619562.67306        41.344
> 2021 01 03 00 09  0.0000000  0 47
C01  40365426.275 5 210193364.12605        31.000
C02  35828584.376 7 186568902.87807        45.250    35828580.769 8 144266919.96108        50.219    35828579.893 6 151602516.98106        39.438
C03  37046336.351 7 192910002.51907        42.844    37046334.741 7 149170248.84607        46.344    37046331.895 6 156755162.83206        36.188
C05  36460948.713 7 189861741.03107        44.562    36460946.515 8 146813137.27108        48.562    36460944.392 6 154278199.25006        39.312
C06  37222786.773 7 193828837.34707        43.875    37222785.079 7 149880745.70307        47.000    37222780.272 6 157501773.28906        37.375
C08  38058409.492 6 198180202.36006        40.625    38058406.572 7 153245520.08407        44.594    38058401.335 5 161037639.32805        34.656
C09  35907363.925 7 186979084.88807        46.875    35907364.044 8 144584180.16408        50.906    35907357.749 6 151935796.17506        40.156
C10  39728691.026 5 206877805.23905        32.594    39728691.698 5 159971086.81105        35.406    39728685.100 4 168105128.99304        26.500
C13  37020790.100 7 192777056.11107        44.969    37020795.159 7 149067517.22707        45.875    37020789.093 6 156647162.11806        37.125
C16  36970902.911 7 192517211.97807        46.219    36970906.021 7 148866535.49407        47.469    36970899.876 6 156435981.81906        37.000
C23  25680733.843 6 133726339.71606        38.438                                                    25680724.936 5 108663553.29505        34.125
C25  25861754.139 5 134668940.60005        34.031                                                    25861751.235 5 109429527.55505        30.000
C27  22340928.724 8 116335088.84408        49.969                                                    22340926.455 6  94531775.12306        40.781
C28  21923204.289 8 114159880.88208        50.438                                                    21923202.500 7  92764252.78107        43.469
C32  23834621.898 7 124113140.76107        46.281                                                    23834622.114 6 100852090.25706        39.500
C33  26102758.882 4                        28.969
E07  26266220.043 6 138029942.23006        40.688    26266214.260 4 112037251.49804        28.688    26266218.075 5 103074291.43305        35.562    26266221.450 7 105763220.13007        43.781    26266218.429 7 104418746.36707        43.750
E13  25959429.696 6 136417762.03906        40.406    25959425.302 4 110728671.08904        29.688    25959426.100 5 101870413.95205        33.625    25959429.882 7 104527913.11107        43.312    25959426.607 7 103199162.61007        42.844
E18  19523852.290 8 102598546.61408        48.156    19523846.486 6  83278006.50106        36.594    19523848.556 6  76615783.28306        41.406    19523852.118 8  78614465.06908        50.875    19523848.891 8  77615123.25108        50.500
E19  24714136.637 6 129873677.46506        41.156                                                    24714132.240 5  96983562.58405        33.219    24714135.910 7  99513587.95207        43.750    24714132.612 7  98248566.33707        43.062
E26  22970054.262 8 120708472.82708        48.156    22970050.018 6  97977621.11906        37.844    22970052.201 6  90139449.57006        41.438    22970055.945 8  92490927.06408        51.875    22970052.594 8  91315182.89608        51.219
E33  25602166.729 7 134540316.45907        42.094    25602162.219 5 109204762.07515        31.656    25602162.018 5 100468394.56505        35.438    25602165.804 7 103089324.31707        45.531    25602162.678 7 101778849.51607        45.000
G10  22785612.199 7 119739197.38107        42.688    22785611.551 7        44.031    22785612.758 7  93303278.29807        44.031    22785612.771 7  93303287.30807        43.781    22785606.173 6  89415622.81706        37.406
G15  22954743.626 5 120628008.09105        35.688    22954743.264 5        30.500    22954742.180 5  93995848.05005        30.500    22954744.010 6  93995855.07306        36.062
G18  21046628.055 7 110600779.40307        46.188    21046627.644 6        39.344    21046626.666 6  86182422.26606        39.344    21046626.849 8  86182427.26908        48.469    21046626.045 7  82591494.77007        42.625
G20  21896837.893 7 115068677.56607        43.281    21896836.606 5        31.719    21896835.438 5  89663896.14105        31.719
G23  22027315.170 7 115754336.77207        44.812    22027314.799 5        34.438    22027313.251 5  90198182.60205        34.438    22027314.024 7  90198182.60607        44.562    22027313.193 6  86439925.22006        39.531
G24  22511003.615 6 118296133.39506        40.031    22511003.039 6        40.469    22511005.075 6  92178803.46106        40.469    22511005.226 7  92178794.46507        42.188    22511001.191 6  88337997.07506        38.156
G25                                                                                                                                  25189694.893 3                        22.094
G29  21667000.064 7 113860863.38307        46.156    21666999.416 8        49.469    21666997.953 8  88722741.43708        49.469    21666998.814 7  88722740.44307        44.594
G32  22204896.280 7 116687525.21907        45.906    22204895.909 7        47.375    22204896.269 7  90925343.94407        47.375    22204897.327 7  90925340.95507        44.250    22204890.797 6  87136768.50306        38.062
I01  42094999.805 7 165189883.85307        43.688
I02  37785283.542 6 148277669.56706        38.906
I03  35941159.280 7 141040905.54807        46.344
I04  38706355.906 6 151892081.21506        38.844
I05  36961460.389 7 145044745.38407        42.062
I06  38150745.646 6 149711832.96806        38.688
I07  43464356.852 6 170563476.11006        38.562
J01                                                  42841409.132 4 175428415.67304        26.719
J03  36985402.343 6 194359691.87906        37.125    36985401.739 6 151449154.09306        41.188    36985398.446 5 145138771.71605        33.406
J07  38436866.966 5 201987131.72305        34.562    38436866.505 7 157392558.71607        43.094    38436863.575 6 150834531.03006        37.938
R03  22322994.966 5 119496774.12805        33.969    22322996.572 5 119496753.10005        33.969    22323002.313 6  92941954.07206        39.031    22323002.316 6  92941952.04906        39.219
R04  20226464.613 6 108311792.55206        41.125    20226465.055 6 108311816.56506        40.938    20226470.533 7  84242545.62707        46.688    20226470.313 7  84242545.63207        46.719
R05  21844361.889 6 116770643.95506        38.406    21844361.848 6 116770648.94506        38.469    21844367.834 7  90821634.22807        42.438    21844367.170 7  90821639.24607        42.594
R17  21181661.301 6 113347345.62906        38.062    21181660.255 6 113347351.65906        38.281    21181665.869 7  88159080.62207        44.000    21181665.595 7  88159106.64907        43.844
R18  19294941.676 7 102997717.10907        46.062    19294941.642 7 102997723.11307        45.812    19294947.887 8  80109360.60908        50.000    19294947.710 8  80109370.61108        50.031
R19                                                                                                                                                  21279730.178 6  88536165.54806        41.594
> 2021 01 03 00 09 30.0000000  0 47
C01  40365453.455 5 210193506.62105        31.906
C02  35828567.408 7 186568814.16507        45.469    35828563.591 8 144266851.36308        50.250    35828562.648 6 151602444.88906        39.812
C03  37046451.490 7 192910603.44507        42.906    37046450.104 7 149170713.53207        46.344    37046447.152 6 156755651.16206        36.406
C05  36460935.832 7 189861674.81707        44.781    36460934.037 8 146813086.07608        48.656    36460931.989 6 154278145.44406        39.500
C06  37225061.719 7 193840682.15307        44.031    37225059.937 7 149889904.86107        47.062    37225055.338 6 157511398.16106        37.562
C08  38053720.252 6 198155785.95806        40.781    38053717.622 7 153226639.77607        45.031    38053712.528 5 161017798.96605        34.875
C09  35906314.918 7 186973623.00007        46.906    35906315.064 8 144579956.68708        50.938    35906308.800 6 151931357.95506        40.375
C10  39732053.935 5 206895315.21705        32.625    39732053.999 5 159984626.65005        34.344    39732048.361 4 168119357.29704        27.094
C13  37015636.899 7 192750224.21807        45.062    37015642.049 7 149046769.09607        45.750    37015636.325 6 156625359.01206        37.344
C16  36972952.496 7 192527885.70507        46.375    36972955.807 7 148874789.11207        47.312    36972949.287 6 156444655.10206        37.156
C23  25672407.247 6 133682981.57406        38.594                                                    25672397.681 5 108628321.23205        32.844
C25  25855982.766 5 134638894.79305        35.969                                                    25855979.919 4 109405112.87904        28.906
C27  22330658.273 8 116281609.55608        50.250                                                    22330656.305 6  94488318.82406        41.156
C28  21930137.860 8 114195986.51008        50.375                                                    21930136.267 7  92793591.55907        43.781
C32  23832200.654 7 124100532.50407        46.438                                                    23832200.776 6 100841845.00606        39.688
C33  26115273.874 4                        28.906
E07  26280230.400 6 138103566.18406        40.562    26280224.403 4 112097011.19404        28.906    26280228.677 5 103129270.35405        35.312    26280231.583 7 105819633.28507        43.438    26280228.610 7 104474442.40107        43.438
E13  25968324.610 6 136464506.93606        39.125    25968320.352 4 110766613.42204        28.625    25968321.303 5 101905320.82605        34.250    25968325.398 7 104563730.64107        43.469    25968321.909 7 103234524.82107        43.000
E18  19523959.857 8 102599110.59408        48.031    19523954.264 6  83278464.28106        37.562    19523955.863 6  76616204.44606        41.125    19523959.414 8  78614897.21808        50.812    19523956.218 8  77615549.90808        50.438
E19  24706882.228 6 129835555.92306        40.500                                                    24706878.518 5  96955095.19605        33.156    24706881.437 7  99484377.93907        43.562    24706878.336 7  98219727.63407        42.875
E26  22966665.406 7 120690664.09707        47.969    22966661.154 6  97963165.98706        38.250    22966663.500 6  90126150.84106        41.312    22966666.919 8  92477281.41308        51.781    22966663.750 8  91301710.70408        51.094
E33  25589113.229 7 134471720.84007        42.125    25589108.720 5 109149083.80905        32.156    25589108.914 5 100417170.55705        35.125    25589112.471 7 103036764.03407        45.594    25589109.459 7 101726957.36807        44.969
G10  22784181.767 7 119731681.73207        43.344    22784181.119 7        43.781    22784182.463 7  93297421.93407        43.781    22784182.486 7  93297430.93807        44.062    22784175.853 6  89410010.47206        37.406
G15  22973808.554 6 120728191.31406        36.750    22973808.161 5        30.219    22973806.507 5  94073912.88605        30.219    22973807.153 6  94073919.90006        36.250
G18  21039605.629 7 110563875.98407        46.375    21039605.218 6        39.125    21039604.083 6  86153666.35006        39.125    21039604.387 8  86153671.35308        48.438    21039603.740 7  82563937.01907        42.375
G20  21897467.386 7 115071985.81207        44.031    21897466.108 5        31.906    21897464.777 5  89666473.98705        31.906
G23  22030290.515 7 115769972.35107        44.906    22030290.144 5        34.219    22030288.733 5  90210366.16405        34.219    22030289.475 7  90210366.16307        44.969    22030288.762 6  86451601.13806        39.219
G24  22509453.907 6 118287986.94106        40.344    22509453.331 6        39.875    22509454.040 6  92172455.56906        39.875    22509455.166 7  92172446.57807        42.312    22509450.928 6  88331913.69006        37.719
G25                                                                                                                                  25194796.654 4                        24.156
G29  21682981.261 7 113944845.64907        46.719    21682980.609 8        49.375    21682978.961 8  88788182.16608        49.375    21682979.961 7  88788181.16707        44.594
G32  22190703.182 7 116612941.25507        46.188    22190702.816 7        47.781    22190703.635 7  90867226.58207        47.781    22190704.076 7  90867223.58007        44.812    22190697.784 6  87081072.71506        38.031
I01  42110473.058 7 165250605.05907        43.875
I02  37786896.591 6 148283999.92506        39.219
I03  35941101.862 7 141040679.49707        46.250
I04  38704614.580 6 151885247.72506        38.688
I05  36961212.315 6 145043770.93606        41.938
I06  38150867.694 6 149712309.96406        38.719
I07  43460966.762 6 170550171.01906        38.750
J01                                                  42840840.727 4 175426079.26904        27.750
J03  36985704.644 6 194361284.63306        36.812    36985704.732 6 151450395.19706        40.938    36985701.779 5 145139961.08005        33.344
J07  38436854.765 5 201987068.08805        34.531    38436854.447 7 157392509.10407        43.000    38436851.580 6 150834483.49306        37.656
R03  22341096.978 5 119593676.88005        32.156    22341098.221 5 119593655.86205        32.562    22341104.297 6  93017322.87506        39.312    22341104.995 6  93017320.86806        38.875
R04  20234261.209 6 108353543.45306        40.750    20234261.339 6 108353567.44606        40.562    20234267.367 7  84275018.54807        46.531    20234267.096 7  84275018.54407        46.656
R05  21835969.715 6 116725780.97606        38.719    21835969.441 6 116725785.96306        38.781    21835975.118 7  90786740.81807        42.000    21835974.953 6  90786745.82006        41.688
R17  21198075.555 6 113435187.40306        38.438    21198075.654 6 113435193.40106        38.531    21198081.259 7  88227401.99707        43.344    21198080.679 7  88227428.00207        43.312
R18  19291729.123 7 102980568.80407        45.500    19291729.050 7 102980574.81007        45.875    19291735.348 8  80096023.04108        50.000    19291735.419 8  80096033.04808        49.781
R19                                                                                                                                                  21259735.968 6  88452980.56506        41.281
> 2021 01 03 00 10  0.0000000  0 46
C01  40365481.679 5 210193649.96305        32.031
C02  35828550.423 7 186568726.20807        45.656    35828546.709 8 144266783.34808        50.250    35828545.937 6 151602373.42606        39.719
C03  37046566.751 7 192911204.78407        42.875    37046565.651 7 149171178.52107        46.469    37046562.740 6 156756139.79706        36.500
C05  36460923.320 7 189861610.07807        44.781    36460921.493 8 146813036.01408        48.562    36460919.334 6 154278092.83406        39.469
C06  37227358.837 7 193852642.12107        44.250    37227356.829 7 149899153.07307        47.219    37227352.015 6 157521116.62506        37.906
C08  38049041.606 6 198131425.43306        40.656    38049039.296 7 153207802.67607        45.062    38049034.449 5 160998004.05805        34.469
C09  35905294.355 7 186968308.95407        46.844    35905294.685 8 144575847.53008        50.812    35905288.262 6 151927039.85106        40.312
C10  39735391.718 5 206912690.14105        33.688    39735389.514 5 159998062.02805        34.094    39735384.852 4 168133475.82304        26.562
C13  37010485.336 7 192723396.26307        45.594    37010490.130 7 149026024.01307        45.812    37010484.509 6 156603559.08606        37.344
C16  36975027.147 7 192538690.32807        46.031    36975030.859 7 148883143.92407        47.438    36975024.380 6 156453434.72406        37.188
C23  25664047.772 6 133639448.55506        38.562                                                    25664038.105 5 108592947.09405        33.344
C25  25850229.025 6 134608932.37006        36.219                                                    25850226.528 4 109380765.94804        28.188
C27  22320458.745 8 116228495.94708        50.188                                                    22320456.658 6  94445159.66006        41.375
C28  21937156.769 8 114232535.07308        50.469                                                    21937154.883 7  92823290.27007        43.531
C32  23829822.906 7 124088150.00007        45.938                                                    23829822.858 6 100831783.20706        39.656
C33  26127756.528 4                        28.719
E07  26294247.094 6 138177225.26706        40.062    26294242.088 4 112156799.40504        28.531    26294245.501 5 103184275.51505        35.375    26294248.410 7 105876073.37107        43.469    26294245.531 7 104530165.02307        43.531
E13  25977273.392 6 136511531.75606        38.844    25977269.618 4 110804782.90704        27.562    25977270.194 5 101940436.76405        34.031    25977273.993 7 104599762.64107        43.531    25977270.612 7 103270098.78307        43.156
E18  19524303.346 8 102600915.54808        48.375    19524297.601 6  83279929.35106        37.500    19524299.756 6  76617552.31106        41.656    19524302.890 8  78616280.24508        51.125    19524299.756 8  77616915.35108        50.719
E19  24699686.961 6 129797744.64906        40.906                                                    24699682.958 5  96926859.51105        33.594    24699686.297 7  99455405.66107        43.719    24699683.078 7  98191123.65507        43.156
E26  22963329.085 8 120673131.93108        48.406    22963324.646 6  97948935.32806        38.094    22963327.125 6  90113058.63306        41.906    22963330.674 8  92463847.66808        51.844    22963327.547 8  91288447.72608        51.344
E33  25576067.885 7 134403165.93707        43.062    25576062.458 5 109093438.57305        31.719    25576063.438 6 100365976.94606        36.094    25576066.993 7 102984234.94607        45.906    25576063.906 7 101675096.02207        45.406
G10  22782757.724 7 119724196.99307        42.938    22782757.085 7        43.375    22782758.272 7  93291589.66807        43.375    22782758.041 7  93291598.67807        43.406    22782751.429 6  89404421.23406        37.531
G15  22992900.153 6 120828519.69406        36.500    22992899.693 5        30.438    22992898.138 5  94152090.85105        30.438    22992899.136 5  94152097.86005        35.594
G18  21032624.291 7 110527190.41507        46.469    21032623.880 6        39.219    21032623.069 6  86125080.19306        39.219    21032623.451 8  86125085.18808        48.500    21032622.677 7  82536541.94307        42.375
G20  21898090.349 7 115075258.70407        44.531    21898089.066 5        31.906    21898087.140 5  89669024.29505        31.906
G23  22033262.197 7 115785585.37907        44.688    22033261.808 5        34.219    22033259.946 5  90222532.15505        34.219    22033260.166 7  90222532.16507        45.188    22033259.868 6  86463260.21606        39.125
G24  22507986.862 6 118280275.65206        41.688    22507986.286 6        41.469    22507987.333 6  92166446.76406        41.469    22507988.362 7  92166437.76907        43.031    22507983.294 6  88326155.24806        37.969
G25                                                                                                                                  25199835.667 3                        23.031
G29  21699026.078 7 114029161.67807        46.656    21699025.435 8        49.125    21699023.839 8  88853882.96808        49.125    21699024.718 7  88853881.98207        44.188
G32  22176580.321 7 116538723.27907        46.344    22176579.955 7        47.562    22176580.487 7  90809394.40207        47.562    22176580.851 7  90809391.40407        44.500    22176574.519 6  87025650.19406        37.938
I01  42125941.596 7 165311305.01907        43.625
I02  37788499.292 6 148290288.90106        39.000
I03  35941044.732 7 141040455.94307        46.156
I04  38702863.296 6 151878374.65306        38.531
I05  36960960.560 6 145042782.87206        41.750
I06  38150988.747 6 149712786.19106        38.562
I07  43457575.796 6 170536866.81206        38.531
J03  36986031.854 6 194363004.11706        36.375    36986032.310 6 151451735.06506        40.844    36986029.041 5 145141245.12805        33.469
J07  38436842.842 5 201987005.08905        34.344    38436842.390 7 157392459.99207        43.188    38436839.541 6 150834436.42306        38.125
R03  22359190.682 4 119690518.02704        29.094    22359187.968 4 119690497.06904        29.281    22359194.970 6  93092643.80206        38.969    22359194.930 6  93092641.79706        39.219
R04  20242129.409 6 108395675.73506        40.500    20242129.560 6 108395699.74706        40.469    20242135.561 7  84307788.11507        46.906    20242135.099 7  84307788.11407        47.031
R05  21827670.157 6 116681414.56706        37.844    21827669.057 6 116681419.57206        37.969    21827675.820 7  90752233.62407        42.094    21827675.721 7  90752238.62307        42.062
R17  21214591.448 6 113523567.24006        38.406    21214591.398 6 113523573.26406        38.188    21214597.436 7  88296141.90307        43.594    21214597.262 7  88296167.90107        43.812
R18  19288651.368 7 102964141.99407        46.062    19288651.936 7 102964147.99607        45.719    19288658.020 8  80083246.62708        50.031    19288657.719 8  80083256.63108        49.844
R19                                                                                                                                                  21239795.010 7  88370011.39907        42.344
> 2021 01 03 00 10 30.0000000  0 47
C01  40365509.420 5 210193793.91305        31.344
C02  35828533.511 7 186568638.65207        45.500    35828530.003 8 144266715.64608        50.188    35828529.011 6 151602302.27806        39.812
C03  37046682.580 7 192911806.22207        42.750    37046681.228 7 149171643.58407        46.375    37046678.190 6 156756628.51606        36.438
C05  36460911.290 7 189861546.62807        44.719    36460909.132 8 146812986.94708        48.625    36460907.067 6 154278041.28406        39.594
C06  37229677.558 7 193864716.56007        44.500    37229675.586 7 149908489.79807        47.250    37229670.948 6 157530928.10306        37.719
C08  38044374.070 6 198107121.31106        40.500    38044372.025 7 153189009.20507        44.969    38044366.905 5 160978254.99305        34.719
C09  35904302.394 7 186963142.34507        46.656    35904302.288 8 144571852.38908        50.594    35904296.183 6 151922841.56606        40.219
C10  39738702.542 5 206929929.65205        33.344    39738700.827 5 160011392.72605        33.875    39738695.751 4 168147484.36104        26.906
C13  37005334.505 7 192696572.48507        45.438    37005338.858 7 149005282.17507        45.719    37005333.373 6 156581762.57806        37.375
C16  36977127.285 7 192549625.13807        46.094    36977130.671 7 148891599.40007        47.031    36977124.348 6 156462320.16106        37.188
C23  25655654.797 6 133595741.91006        38.938                                                    25655644.711 5 108557431.87005        33.656
C25  25844491.964 5 134579055.13205        34.875                                                    25844488.991 4 109356488.19204        29.031
C27  22310329.346 8 116175749.64208        49.812                                                    22310327.121 6  94402298.95506        41.438
C28  21944260.418 8 114269525.58708        50.219                                                    21944258.440 7  92853348.08407        43.469
C32  23827487.907 7 124075991.75107        45.656                                                    23827487.824 6 100821903.63606        39.531
C33  26140210.305 4                        26.656
E07  26308270.263 6 138250917.59706        39.281    26308264.904 4 112216614.62104        28.562    26308268.649 5 103239305.50205        34.812    26308271.589 7 105932538.91207        43.531    26308268.601 7 104585912.79007        43.344
E13  25986275.286 6 136558835.95106        38.781    25986271.479 4 110843179.11004        29.094    25986272.771 5 101975761.32005        34.125    25986275.155 7 104636008.72207        43.406    25986272.497 7 103305884.09907        43.094
E18  19524882.443 8 102603959.51908        48.438    19524876.697 6  83282400.10806        37.000    19524878.927 6  76619825.40606        41.719    19524882.096 8  78618612.63508        51.406    19524878.993 8  77619218.09308        50.906
E19  24692550.582 6 129760243.53406        40.125                                                    24692546.468 5  96898855.40405        34.125    24692550.274 7  99426671.04407        44.094    24692546.787 7  98162754.30107        43.500
E26  22960045.762 8 120655877.46008        48.062    22960041.386 6  97934930.07506        38.000    22960043.783 6  90100173.79606        41.750    22960047.397 8  92450626.70608        52.156    22960044.095 8  91275394.82808        51.500
E33  25563030.345 7 134334653.25907        43.312    25563025.470 5 109037827.65205        31.469    25563025.983 6 100314814.89206        36.000    25563029.430 7 102931738.21607        46.156    25563026.411 7 101623266.62407        45.625
G10  22781339.001 7 119716741.47507        42.750    22781338.358 7        42.875    22781339.162 7  93285780.17507        42.875    22781339.021 7  93285789.18307        42.750    22781332.702 6  89398853.77606        37.500
G15  23012019.786 6 120928990.18406        36.656    23012019.348 5        30.625    23012017.480 5  94230379.53405        30.625    23012017.628 5  94230386.57005        35.438
G18  21025685.348 7 110490724.73607        46.250    21025684.946 6        38.938    21025683.816 6  86096665.37306        38.938    21025684.007 8  86096670.37108        48.188    21025683.750 7  82509311.06807        42.656
G20  21898705.989 7 115078495.15307        44.562    21898704.706 5        32.156    21898703.030 5  89671546.20305        32.156
G23  22036228.481 7 115801174.53107        44.031    22036228.079 5        34.250    22036226.366 5  90234679.54905        34.250    22036227.223 7  90234679.56207        44.844    22036226.224 6  86474901.45706        39.406
G24  22506602.676 6 118273001.43706        41.688    22506602.118 6        41.969    22506603.109 6  92160778.54806        41.969    22506603.610 7  92160769.56507        42.844    22506598.904 6  88320723.21306        38.031
G25                                                                                                                                  25204810.222 3                        22.562
G29  21715133.812 7 114113808.16107        46.188    21715133.160 8        48.656    21715131.552 8  88919841.27108        48.656    21715132.434 7  88919840.27207        44.281
G32  22162527.115 7 116464872.73707        46.125    22162526.753 7        47.938    22162527.214 7  90751848.52707        47.938    22162527.779 7  90751845.52907        44.844    22162520.958 6  86970502.05306        37.969
I01  42141403.793 7 165371983.31507        43.906
I02  37790091.270 6 148296535.45306        39.344
I03  35940988.080 7 141040234.75107        46.562
I04  38701101.748 6 151871461.90406        39.031
I05  36960705.487 7 145041781.02007        42.125
I06  38151109.603 6 149713261.44806        38.750
I07  43454185.722 6 170523563.28706        38.875
J01                                                  42839640.020 4 175421164.75304        28.281
J03  36986383.053 5 194364849.94705        35.625    36986383.566 6 151453173.33506        40.531    36986380.428 5 145142623.50505        33.438
J07  38436830.907 5 201986942.41905        34.531    38436830.544 7 157392411.19807        43.219    38436827.619 6 150834389.66406        37.719
R03  22377269.563 4 119787294.67004        28.594    22377265.986 4 119787273.77604        29.469    22377273.699 6  93167914.57406        38.750    22377272.719 6  93167912.59506        39.125
R04  20250068.477 6 108438185.73506        40.688    20250067.815 6 108438209.74806        40.531    20250073.736 7  84340851.46307        46.594    20250073.554 7  84340851.45007        46.531
R05  21819462.314 6 116637543.87106        38.594    21819462.836 6 116637548.86306        38.562    21819468.616 7  90718111.96707        42.312    21819469.011 7  90718116.96207        42.250
R17  21231206.888 6 113612482.32706        37.781    21231207.382 6 113612488.36406        37.812    21231213.425 7  88365298.09807        43.938    21231212.923 7  88365324.10707        44.281
R18  19285709.994 7 102948438.72807        45.594    19285710.080 7 102948444.74007        45.312    19285715.976 8  80071032.98108        49.781    19285715.873 8  80071042.98308        49.625
R19                                                                                                                                                  21219905.630 7  88287261.02107        42.688
> 2021 01 03 00 11  0.0000000  0 47
C01  40365536.940 5 210193937.32005        31.594
C02  35828516.547 7 186568550.49107        45.406    35828512.891 8 144266647.47508        50.344    35828512.172 6 151602230.63706        40.000
C03  37046797.621 7 192912406.65307        42.812    37046796.434 7 149172107.88407        46.438    37046793.479 6 156757116.41406        36.688
C05  36460899.182 7 189861483.29507        44.562    36460896.944 8 146812937.96808        48.688    36460894.986 6 154277989.81106        39.750
C06  37232017.863 7 193876903.98407        43.844    37232016.046 7 149917913.89007        47.281    37232011.429 6 157540831.37606        38.094
C08  38039717.443 6 198082873.11106        39.625    38039715.499 7 153170258.92307        44.688    38039710.186 5 160958551.33805        34.969
C09  35903338.306 7 186958121.97007        46.531    35903338.172 8 144567970.31008        50.531    35903331.986 6 151918762.09406        40.375
C10  39741986.442 5 206947032.32005        33.875    39741985.371 5 160024617.60905        34.531    39741979.710 4 168161381.68904        27.281
C13  37000183.625 7 192669752.21507        45.125    37000188.260 7 148984543.04107        45.594    37000182.583 6 156559968.91006        37.594
C16  36979252.244 7 192560688.59107        46.156    36979255.292 7 148900154.38307        47.281    36979249.146 6 156471310.13306        37.188
C23  25647228.085 6 133551862.06806        39.281                                                    25647217.321 5 108521775.89305        33.281
C25  25838770.159 5 134549264.11905        35.000                                                    25838768.506 4 109332280.56304        29.406
C27  22300270.630 8 116123371.40308        49.562                                                    22300268.422 6  94359737.34106        41.469
C28  21951448.321 8 114306956.09708        49.938                                                    21951446.690 7  92883763.44807        43.688
C32  23825195.884 7 124064055.35207        45.469                                                    23825195.651 6 100812204.33706        39.375
C33  26152636.373 4                        27.625
E07  26322299.164 6 138324640.40706        38.625    26322293.678 4 112276454.56304        29.062    26322297.462 5 103294358.27305        34.594    26322300.655 7 105989027.82007        42.812    26322297.549 7 104641683.62107        42.875
E13  25995329.731 6 136606418.06106        39.219    25995326.920 5 110881801.01805        30.188    25995327.260 5 102011293.39605        34.344    25995329.558 7 104672467.73907        42.688    25995327.206 7 103341879.64307        42.719
E18  19525696.783 8 102608239.53808        48.438    19525691.240 6  83285874.14606        37.156    19525693.327 6  76623021.53506        41.938    19525696.645 8  78621892.14008        50.969    19525693.417 8  77622455.91108        50.750
E19  24685473.572 6 129723051.61806        40.469                                                    24685469.210 5  96871082.22405        34.188    24685472.719 7  99398173.33507        43.594    24685469.403 7  98134618.85607        43.250
E26  22956815.062 8 120638900.92908        48.094    22956810.938 6  97921150.42306        38.000    22956813.154 6  90087496.52406        41.844    22956816.893 8  92437618.71608        51.781    22956813.537 8  91262552.19408        51.312
E33  25550000.818 7 134266183.38507        43.469    25549995.533 5 108982251.44205        31.688    25549997.081 5 100263684.77705        35.750    25550000.155 7 102879274.27907        45.906    25549997.097 7 101571469.60207        45.469
G10  22779925.300 7 119709312.61507        43.531    22779924.657 7        42.969    22779924.923 7  93279991.44907        42.969    22779925.914 7  93280000.45607        42.094    22779919.267 6  89393306.25306        37.594
G15  23031164.510 5 121029598.77105        35.875    23031164.104 5        30.031    23031162.630 5  94308775.83905        30.031    23031162.909 5  94308782.84005        35.469
G18  21018788.113 7 110454480.09507        46.344    21018787.707 6        38.938    21018786.567 6  86068422.78906        38.938    21018787.115 8  86068427.79808        48.531    21018786.355 7  82482245.26607        42.312
G20  21899314.659 7 115081693.63307        44.094    21899313.376 5        31.562    21899311.891 5  89674038.52505        31.562
G23  22039189.558 7 115816737.67907        43.250    22039189.161 5        33.531    22039187.852 5  90246806.68005        33.531    22039188.587 7  90246806.68707        45.188    22039187.763 6  86486523.29206        39.344
G24  22505301.608 6 118266164.27106        40.750    22505301.063 6        40.531    22505301.031 6  92155450.89606        40.531    22505302.430 7  92155441.90507        42.031    22505297.872 6  88315617.52806        38.250
G25                                                                                                                                  25209731.294 4                        25.344
G29  21731303.773 7 114198781.37307        45.906    21731303.121 8        48.344    21731301.293 8  88986054.16608        48.344    21731302.199 7  88986053.17007        44.156
G32  22148543.832 7 116391390.16807        46.125    22148543.470 7        47.719    22148544.115 7  90694589.38707        47.719    22148544.288 7  90694586.38607        44.844    22148538.161 6  86915628.70106        38.031
I01  42156860.508 7 165432639.11307        43.531
I02  37791671.867 6 148302739.61706        39.531
I03  35940932.414 7 141040015.02107        46.500
I04  38699329.766 6 151864508.65706        38.438
I05  36960445.942 7 145040764.67807        42.000
I06  38151230.612 6 149713734.91606        38.688
I07  43450795.794 6 170510259.58706        38.594
J01                                                  42839010.151 4 175418585.46704        27.969
J03  36986758.084 5 194366820.68005        35.469    36986758.788 6 151454708.98406        40.406    36986755.214 5 145144095.13105        33.625
J07  38436819.286 5 201986879.10305        34.781    38436818.320 7 157392361.82807        43.156    38436815.475 6 150834342.33206        37.625
R03  22395336.360 4 119884002.62304        28.844    22395333.145 4 119883981.73804        29.375    22395339.167 6  93243131.82006        37.844    22395338.168 6  93243129.82906        38.031
R04  20258075.572 6 108481068.60606        41.000    20258076.107 6 108481092.59206        40.906    20258081.496 7  84374204.77307        46.094    20258081.250 7  84374204.77007        46.469
R05  21811346.779 6 116594167.37506        38.906    21811349.243 6 116594172.37606        39.344    21811355.384 7  90684374.71607        43.281    21811354.833 7  90684379.70607        43.656
R17  21247922.421 6 113701928.94806        36.562    21247922.388 6 113701934.97706        37.062    21247928.685 7  88434867.66807        43.812    21247928.772 7  88434893.66907        44.281
R18  19282903.602 7 102933459.86507        46.062    19282904.141 7 102933465.85607        45.594    19282909.930 8  80059382.74208        49.656    19282910.159 8  80059392.74208        49.531
R19                                                                                                                                                  21200069.647 6  88204732.01406        41.969
> 2021 01 03 00 11 30.0000000  0 47
C01  40365563.678 5 210194079.81805        31.969
C02  35828499.445 7 186568461.29307        45.562    35828495.798 8 144266578.50408        50.312    35828494.950 6 151602158.14706        39.875
C03  37046913.180 7 192913005.65507        43.094    37046911.336 7 149172571.06407        46.500    37046908.653 6 156757603.12906        36.562
C05  36460886.834 7 189861419.59607        44.875    36460884.815 8 146812888.71808        48.656    36460882.991 6 154277938.05506        39.594
C06  37234379.471 7 193889203.57307        44.250    37234377.730 7 149927424.71207        47.031    37234373.581 6 157550825.78306        38.031
C08  38035072.207 6 198058681.04106        39.781    38035069.485 7 153151552.07907        44.219    38035064.634 5 160938893.29705        34.406
C09  35902401.825 7 186953247.31707        46.875    35902402.120 8 144564200.93808        50.781    35902395.808 6 151914801.04906        40.469
C10  39745245.606 5 206963997.49005        33.812    39745243.730 5 160037736.14705        35.344    39745237.961 4 168175167.26004        26.031
C13  36995033.654 7 192642936.13707        45.312    36995038.688 7 148963807.13907        45.750    36995032.945 6 156538178.64206        37.531
C16  36981401.454 7 192571879.91107        46.594    36981404.676 7 148908808.23307        47.594    36981398.155 6 156480404.01106        37.250
C23  25638767.704 6 133507810.21306        39.031                                                    25638757.898 5 108485980.13905        33.156
C25  25833067.032 5 134519561.11105        35.625                                                    25833063.872 4 109308144.38204        27.844
C27  22290283.194 8 116071362.68008        49.875                                                    22290280.761 6  94317475.98806        41.625
C28  21958720.672 8 114344825.41308        50.344                                                    21958719.204 7  92914535.36507        43.656
C32  23822945.735 7 124052339.10707        46.469                                                    23822945.513 6 100802683.93306        38.906
C33  26165032.724 4                        28.312
E07  26336333.545 6 138398391.69706        38.188    26336328.915 4 112336317.66704        28.312    26336331.853 5 103349432.28905        34.344    26336334.813 7 106045538.55307        42.000    26336331.931 7 104697475.99707        42.156
E13  26004437.108 6 136654277.36406        40.156    26004434.558 4 110920647.83404        28.719    26004434.489 5 102047032.50605        34.406    26004437.486 7 104709139.15407        42.812    26004434.446 7 103378084.90307        42.750
E18  19526746.304 8 102613753.36008        48.531    19526740.486 6  83290349.68006        37.750    19526742.461 6  76627138.99806        41.938    19526745.984 8  78626117.01908        51.000    19526742.608 8  77626627.08508        50.781
E19  24678454.736 6 129686168.60306        41.562                                                    24678450.710 5  96843539.72205        34.281    24678454.274 7  99369912.33007        43.500    24678450.867 7  98106717.09707        43.188
E26  22953637.627 8 120622203.36108        48.250    22953633.470 6  97907597.20006        38.062    22953635.826 6  90075027.55806        41.969    22953639.256 8  92424824.47308        51.500    22953636.129 8  91249920.59108        51.125
E33  25536979.835 7 134197757.66607        42.812    25536974.510 5 108926711.08205        31.469    25536975.951 6 100212587.63906        36.031    25536979.132 7 102826844.18107        45.688    25536976.114 7 101519705.98607        45.344
G10  22778516.337 7 119701908.60607        43.656    22778515.694 7        43.250    22778516.614 7  93274222.08907        43.250    22778516.438 7  93274231.10407        42.500    22778510.403 6  89387777.28706        37.562
G15  23050335.092 5 121130342.18505        34.531    23050334.757 4        29.719    23050333.516 4  94387277.20404        29.719    23050333.746 5  94387284.21905        35.625
G18  21011933.548 7 110418458.39807        46.188    21011933.137 6        38.969    21011931.907 6  86040353.92606        38.969    21011932.395 8  86040358.92808        48.125    21011931.748 7  82455345.94007        42.375
G20  21899916.139 7 115084853.43107        43.469    21899914.852 5        31.531    21899913.403 5  89676500.70905        31.531
G23  22042145.959 7 115832273.32007        43.844    22042145.548 5        33.469    22042144.272 5  90258912.37805        33.469    22042144.798 7  90258912.37507        45.188    22042143.876 6  86498124.60006        39.062
G24  22504084.091 6 118259765.83606        39.875    22504083.568 6        40.156    22504083.410 6  92150465.11106        40.156    22504084.864 7  92150456.10807        42.781    22504080.315 6  88310839.48106        39.188
G25                                                                                                                                  25214579.483 4                        27.438
G29  21747534.944 7 114284077.80007        45.688    21747534.292 8        48.219    21747532.448 8  89052518.91908        48.219    21747533.783 7  89052517.91707        43.906
G32  22134630.422 7 116318276.87107        46.344    22134630.056 8        48.031    22134630.940 8  90637617.98108        48.031    22134631.147 7  90637614.99307        45.219    22134625.033 6  86861031.11706        38.281
I01  42172311.548 7 165493272.03607        43.812
I02  37793241.940 6 148308899.95806        39.625
I03  35940876.633 7 141039796.50907        46.625
I04  38697548.415 6 151857514.69806        38.844
I05  36960183.499 7 145039733.66607        42.250
I06  38151350.271 6 149714206.24206        38.812
I07  43447405.581 6 170496955.42606        38.594
J01                                                  42838358.822 4 175415923.95004        28.906
J03  36987156.580 5 194368915.82605        35.000    36987157.490 6 151456341.54506        40.812    36987154.034 5 145145659.67005        34.062
J07  38436806.978 5 201986814.59705        34.469    38436806.294 7 157392311.57107        43.156    38436803.301 6 150834294.17906        37.625
R03  22413387.324 5 119980638.61305        32.031    22413386.796 5 119980617.63505        31.312    22413392.147 6  93318293.10406        37.875    22413392.390 6  93318291.08906        37.688
R04  20266151.715 6 108524320.74206        41.094    20266153.281 6 108524344.73206        40.812    20266158.504 7  84407845.34507        46.156    20266158.473 7  84407845.33707        45.938
R05  21803325.367 6 116551284.35706        39.344    21803326.760 6 116551289.36206        39.312    21803332.691 7  90651021.24107        43.250    21803332.551 7  90651026.25207        43.625
R17  21264736.978 6 113791904.04006        37.531    21264736.088 6 113791910.01206        37.594    21264742.524 7  88504848.25607        43.719    21264742.641 7  88504874.25107        43.969
R18  19280233.696 7 102919206.55507        45.812    19280234.002 7 102919212.54707        45.500    19280239.961 8  80048296.83008        49.906    19280239.945 8  80048306.83408        49.750
R19                                                                                                                                                  21180287.777 6  88122427.58506        41.781
> 2021 01 03 00 12  0.0000000  0 47
C01  40365591.534 5 210194222.33805        32.094
C02  35828482.419 7 186568371.90707        45.812    35828478.853 8 144266509.37808        50.312    35828477.883 6 151602085.51306        39.812
C03  37047027.630 7 192913604.19407        43.062    37047026.378 7 149173033.89007        46.500    37047023.473 6 156758089.48906        36.531
C05  36460874.387 7 189861356.57707        44.938    36460872.752 8 146812839.98508        48.719    36460870.763 6 154277886.86106        39.562
C06  37236763.441 7 193901615.87107        44.344    37236761.414 7 149937022.70207        47.000    37236756.908 6 157560911.80806        38.031
C08  38030437.305 6 198034546.72206        39.750    38030434.701 7 153132889.91307        44.469    38030429.651 5 160919282.21405        35.156
C09  35901493.990 7 186948519.29107        47.000    35901493.800 8 144560544.90408        50.812    35901488.138 6 151910959.12406        40.594
C10  39748477.409 5 206980825.84205        33.344    39748475.014 6 160050748.88706        36.406    39748469.309 4 168188841.69904        26.938
C13  36989884.955 7 192616125.54207        45.312    36989889.985 7 148943075.47807        45.875    36989884.199 6 156516392.83706        37.625
C16  36983574.621 7 192583199.66907        46.469    36983578.327 7 148917561.38407        47.719    36983572.367 6 156489602.21706        37.438
C23  25630276.554 6 133463588.76106        39.406                                                    25630265.734 5 108450046.60205        33.094
C25  25827379.271 5 134489949.12405        35.094
C27  22280367.121 8 116019726.29308        50.250                                                    22280364.553 6  94275517.19706        41.719
C28  21966077.694 8 114383133.71808        50.812                                                    21966075.969 7  92945664.00407        43.844
C32  23820737.560 7 124040842.75307        46.312                                                    23820737.734 6 100793342.20506        38.969
C33  26177401.896 4                        26.969
E07  26350373.503 6 138472170.84806        38.031    26350367.882 4 112396203.33504        28.812    26350371.805 5 103404527.08705        34.062    26350374.269 6 106102070.62506        41.781    26350371.634 6 104753289.43806        41.938
E13  26013597.331 6 136702414.56706        40.000    26013594.423 4 110959720.25204        28.531    26013594.389 5 102082979.13005        34.812    26013597.787 7 104746023.49607        43.000    26013594.503 7 103414500.38807        42.938
E18  19528030.025 8 102620499.97508        48.625    19528024.271 6  83295825.79806        37.375    19528026.424 6  76632177.06506        41.875    19528029.936 8  78631286.50808        51.250    19528026.490 8  77631730.85908        50.844
E19  24671495.262 6 129649595.59706        40.938                                                    24671491.189 5  96816228.70805        34.188    24671494.474 7  99341888.85907        43.625    24671491.288 7  98079049.85407        43.281
E26  22950513.884 8 120605787.10308        48.094    22950509.555 6  97894272.31506        38.031    22950511.864 6  90062768.65906        41.750    22950515.406 8  92412245.77608        51.688    22950512.196 8  91237501.79408        51.219
E33  25523967.847 7 134129378.82407        42.375    25523963.015 5 108871208.75105        31.281    25523963.815 6 100161525.50706        36.094    25523967.063 7 102774449.99207        45.812    25523964.016 7 101467977.82407        45.438
G10  22777112.159 7 119694529.01407        43.000    22777111.484 7        42.969    22777112.155 7  93268471.77007        42.969    22777112.360 7  93268480.78807        42.469    22777106.220 6  89382266.58706        37.469
G15  23069532.235 5 121231218.85405        34.719    23069531.931 4        29.219    23069529.831 4  94465882.39204        29.219    23069530.986 5  94465889.39605        35.625
G18  21005121.696 7 110382662.90007        46.688    21005121.290 6        39.469    21005119.856 6  86012461.32106        39.469    21005120.802 8  86012466.32708        48.000    21005120.054 7  82428615.52607        42.562
G20  21900510.106 7 115087974.65607        43.719    21900508.814 5        32.156    21900507.684 5  89678932.82905        32.156
G23  22045097.148 7 115847781.44107        44.031    22045096.746 5        34.750    22045095.267 5  90270996.63005        34.750    22045095.971 7  90270996.63407        45.031    22045095.080 6  86509705.33406        38.969
G24  22502950.147 6 118253808.77906        40.156    22502949.647 6        41.594    22502950.910 6  92145823.24706        41.594    22502951.359 7  92145814.24807        43.469    22502947.047 6  88306391.02306        39.469
G25                                                                                                                                  25219367.310 4                        25.938
G29  21763827.631 7 114369695.52407        45.062    21763826.983 8        48.125    21763824.954 8  89119234.02908        48.125    21763826.093 7  89119233.03607        43.719
G32  22120788.436 7 116245535.43707        46.125    22120788.074 8        48.250    22120788.519 8  90580936.34008        48.250    22120788.862 7  90580933.34807        45.062    22120782.874 6  86806711.22506        38.188
I01  42187756.724 7 165553882.85707        43.781
I02  37794801.011 6 148315017.84706        39.969
I03  35940821.321 7 141039579.92007        46.531
I04  38695755.079 6 151850480.84006        38.625
I05  36959917.151 7 145038688.60907        42.250
I06  38151470.640 6 149714676.19706        38.625
I07  43444014.636 6 170483651.51906        38.812
J01                                                  42837689.832 4 175413181.05804        28.719
J03  36987579.451 5 194371136.04105        34.781    36987579.494 6 151458071.60006        40.875    36987576.554 5 145147317.63205        34.438
J07  38436794.191 5 201986749.88805        34.188    38436793.815 7 157392261.16907        43.125    38436791.073 6 150834245.87706        37.719
R03  22431423.638 5 120077200.92305        32.438    22431425.184 5 120077179.92005        32.750    22431430.836 6  93393397.11206        38.406    22431431.010 6  93393395.08106        37.781
R04  20274298.399 6 108567939.47006        40.156    20274298.293 6 108567963.48806        40.281    20274304.254 7  84441771.04507        46.406    20274304.390 7  84441771.02507        46.094
R05  21795396.072 6 116508895.25306        38.906    21795396.615 6 116508900.23506        39.125    21795401.836 7  90618051.92007        42.562    21795402.296 7  90618056.93007        42.719
R17  21281649.463 6 113882405.64306        36.969    21281648.910 6 113882411.67606        37.562    21281654.867 7  88575238.43907        43.500    21281655.112 7  88575264.44507        43.719
R18  19277700.294 7 102905682.12507        45.594    19277700.269 7 102905688.13207        45.406    19277706.402 8  80037777.83408        49.750    19277706.204 8  80037787.84008        49.656
R19                                                                                                                                                  21160561.206 6  88040351.90106        41.531
> 2021 01 03 00 12 30.0000000  0 48
C01  40365619.878 5 210194366.90405        31.719
C02  35828465.568 7 186568284.34907        45.531    35828461.971 8 144266441.67508        50.281    35828461.073 6 151602014.37106        39.656
C03  37047143.247 7 192914204.28107        42.844    37047141.596 7 149173497.91907        46.500    37047138.925 6 156758577.09606        36.625
C05  36460863.099 7 189861296.17707        44.812    36460861.151 8 146812793.28008        48.500    36460859.296 6 154277837.76606        39.719
C06  37239168.549 7 193914142.44907        44.094    37239166.864 7 149946709.04207        46.906    37239162.507 6 157571090.68006        37.938
C08  38025813.895 6 198010472.93306        39.438    38025811.299 7 153114274.52107        44.219    38025806.987 5 160899720.27505        35.750
C09  35900614.566 7 186943939.74607        46.781    35900614.616 8 144557003.71608        50.812    35900608.603 6 151907237.87006        40.719
C10  39751682.421 5 206997519.09605        32.719    39751680.965 6 160063657.20906        36.469    39751675.356 4 168202406.38504        26.688
C13  36984737.821 7 192589323.16707        45.094    36984743.107 7 148922350.18007        46.000    36984737.088 6 156494613.69606        37.844
C16  36985773.742 7 192594649.37307        46.500    36985777.326 7 148926415.02407        47.781    36985770.602 6 156498906.06206        37.344
C23  25621752.234 6 133419201.36406        39.031                                                    25621741.909 5 108413978.18705        33.312
C25  25821711.918 5 134460432.28805        33.562                                                    25821708.570 4 109260097.33004        24.594
C27  22270522.903 8 115968466.03208        50.250                                                    22270520.523 6  94233864.03406        41.812
C28  21973519.012 8 114421882.11508        50.469                                                    21973517.216 7  92977150.24607        43.906
C32  23818573.039 7 124029566.93107        45.750                                                    23818572.221 6 100784179.68106        39.062
C33  26189742.714 4                        29.656
E07  26364418.515 6 138545978.19806        37.125    26364413.244 4 112456111.88504        28.125    26364416.652 5 103459642.96905        33.844    26364419.476 6 106158624.31606        41.438    26364416.690 6 104809124.22206        41.562
E13  26022810.521 6 136750831.28406        38.844    26022806.636 4 110999019.50804        27.938    26022807.919 5 102119134.45705        34.562    26022811.448 7 104783121.99407        43.906    26022807.796 7 103451127.30307        43.500
E18  19529548.444 8 102628479.28208        48.812    19529542.103 6  83302302.51206        37.500    19529544.980 6  76638135.63606        41.781    19529548.381 8  78637400.52108        51.562    19529544.911 8  77637767.15208        51.000
E19  24664594.943 6 129613334.69206        41.031                                                    24664591.037 5  96789150.75605        34.344    24664594.173 7  99314104.52007        43.719    24664591.085 7  98051618.71207        43.375
E26  22947444.081 7 120589655.52307        47.938    22947439.736 6  97881178.49306        38.000    22947442.207 6  90050722.34906        41.719    22947445.680 8  92399885.20608        51.844    22947442.421 8  91225298.35208        51.281
E33  25510965.349 7 134061050.56007        42.469    25510960.776 5 108815747.51805        31.312    25510961.208 6 100110501.13706        36.031    25510964.718 7 102722094.56707        45.844    25510961.462 7 101416287.93407        45.312
G10  22775712.494 7 119687174.37207        42.469    22775711.824 7        42.406    22775712.724 7  93262740.90007        42.406    22775712.781 6  93262749.90806        41.938    22775706.788 6  89376774.49806        36.750
G15  23088753.220 5 121332227.93805        35.188    23088752.881 4        29.000    23088751.022 4  94544590.75804        29.000    23088751.701 5  94544597.75605        35.094
G18  20998353.982 7 110347097.91707        46.625    20998353.576 6        39.406    20998352.398 6  85984748.34506        39.406    20998352.871 8  85984753.34908        48.438    20998352.279 7  82402057.25307        42.500
G20  21901097.223 7 115091058.84907        43.781    21901095.940 5        31.250    21901094.082 5  89681336.09705        31.250
G23  22048043.249 7 115863263.01107        43.531    22048042.865 5        34.188    22048041.976 5  90283060.18705        34.188    22048042.037 7  90283060.19107        45.688    22048041.141 6  86521266.25406        38.812
G24  22501901.702 6 118248297.01506        40.844    22501901.206 6        41.875    22501902.222 6  92141528.36106        41.875    22501902.713 7  92141519.35907        43.469    22501897.791 6  88302275.08806        39.000
G25                                                                                                                                  25224092.088 4                        24.781
G26                                                                                                                                  25353431.840 3                        19.812
G29  21780181.268 7 114455633.63407        45.031    21780180.598 7        47.906    21780178.480 7  89186198.78507        47.906    21780179.937 7  89186197.78007        44.156
G32  22107017.545 7 116173169.48407        46.750    22107017.179 8        48.188    22107017.628 8  90524547.28608        48.188    22107018.057 7  90524544.29507        44.844    22107011.676 6  86752671.70106        37.656
I01  42203197.102 7 165614472.88107        43.375
I02  37796349.426 6 148321093.94206        39.719
I03  35940767.177 7 141039366.69207        46.375
I04  38693953.615 6 151843408.66206        38.656
I05  36959647.786 7 145037631.06707        42.094
I06  38151590.020 6 149715146.21506        38.719
I07  43440625.049 6 170470349.30706        38.438
J01                                                  42837000.225 4 175410358.15104        29.188
J03  36988025.674 5 194373483.13705        34.906    36988026.226 6 151459900.51006        40.219    36988023.208 5 145149070.32005        34.312
J07  38436782.402 5 201986687.03205        34.500    38436781.932 7 157392212.18707        42.938    38436779.034 6 150834198.93006        37.562
R03  22449447.215 5 120173688.93605        33.344    22449449.766 5 120173667.92105        32.875    22449455.431 6  93468443.31906        37.438    22449456.148 6  93468441.29406        38.125
R04  20282513.578 6 108611923.16706        39.938    20282511.893 6 108611947.20406        40.500    20282518.444 7  84475980.58807        46.594    20282518.015 7  84475980.59507        47.000
R05  21787557.787 6 116467001.67806        39.375    21787559.808 6 116467006.66106        39.250    21787565.592 7  90585468.02407        43.125    21787565.955 7  90585473.03007        43.438
R17  21298660.660 6 113973433.27206        37.562    21298659.308 6 113973439.28006        37.438    21298666.111 7  88646037.68907        43.719    21298665.893 7  88646063.68907        44.250
R18  19275303.760 7 102892890.19107        45.656    19275303.834 7 102892896.19407        45.500    19275309.878 8  80027828.53608        49.906    19275309.834 8  80027838.56008        49.688
R19                                                                                                                                                  21140890.082 7  87958509.96407        42.031
> 2021 01 03 00 13  0.0000000  0 48
C01  40365647.151 5 210194512.88505        30.375
C02  35828448.944 7 186568198.17207        45.469    35828445.235 8 144266375.04208        50.500    35828444.524 6 151601944.36406        39.938
C03  37047258.438 7 192914805.29607        42.969    37047257.133 7 149173962.66507        46.656    37047254.133 6 156759065.48406        36.719
C05  36460852.113 7 189861237.88507        44.594    36460850.027 8 146812748.19808        48.875    36460847.935 6 154277790.39106        39.781
C06  37241596.141 7 193926782.29707        43.781    37241594.324 7 149956482.98307        47.156    37241589.906 6 157581361.58806        38.125
C08  38021202.577 6 197986459.67006        39.969    38021200.047 7 153095705.95107        44.406    38021195.235 5 160880207.52405        35.500
C09  35899763.595 7 186939508.05107        46.625    35899763.308 8 144553576.84608        50.844    35899757.471 6 151903636.75406        40.594
C10  39754861.919 5 207014076.56905        33.062    39754861.102 6 160076460.51306        36.375    39754855.011 4 168215860.69304        27.844
C13  36979592.119 7 192562529.09707        45.250    36979597.592 7 148901631.30307        46.219    36979591.541 6 156472841.32706        37.812
C16  36987997.704 7 192606228.08807        46.656    36988000.832 7 148935368.41607        47.969    36987994.374 6 156508314.70806        37.250
C23  25613195.845 6 133374648.96806        39.500                                                    25613186.480 5 108377775.71305        34.688
C25  25816062.319 5 134431012.10705        33.469
C27  22260751.252 8 115917583.19708        49.719                                                    22260748.966 6  94192517.55406        41.781
C28  21981044.351 8 114461069.21008        50.281                                                    21981042.856 7  93008992.97907        44.031
C32  23816448.758 7 124018509.80807        45.781                                                    23816448.832 6 100775194.86806        39.000
C33  26202046.372 4                        25.844
E07  26378468.412 6 138619811.63006        36.938    26378463.311 4 112516041.61204        28.438    26378466.514 5 103514778.33805        33.250    26378469.590 6 106215197.98006        41.594    26378466.704 6 104864978.73906        41.531
E13  26032076.756 6 136799526.62106        37.531    26032072.535 4 111038544.91004        27.938    26032074.325 5 102155497.87805        34.906    26032078.022 7 104820434.01907        44.406    26032074.246 7 103487965.02107        43.844
E18  19531300.834 8 102637688.60508        48.562    19531295.183 6  83309777.61906        38.094    19531296.955 6  76645012.72106        41.688    19531300.739 8  78644457.01608        51.625    19531297.374 8  77644733.94708        51.031
E19  24657753.947 6 129577385.43406        41.188                                                    24657749.642 5  96762305.52405        33.781    24657753.215 7  99286558.97307        43.750    24657750.098 7  98024423.31707        43.250
E26  22944428.771 8 120573809.42608        48.125    22944424.536 6  97868316.39106        38.062    22944426.882 6  90038889.20706        41.594    22944430.478 8  92387743.38408        51.938    22944427.014 8  91213310.87108        51.344
E33  25497972.531 7 133992774.11607        42.594    25497968.369 5 108760328.31205        31.875    25497968.487 5 100059515.48905        35.719    25497972.114 7 102669778.84007        46.094    25497968.873 7 101364637.24207        45.406
G10  22774317.421 7 119679842.74107        43.094    22774316.751 7        42.375    22774316.725 7  93257027.95307        42.375    22774317.678 6  93257036.95806        41.250    22774311.420 6  89371299.59106        36.938
G15  23107998.925 5 121433366.23105        35.125    23107998.559 4        28.562    23107996.422 4  94623399.82904        28.562    23107997.496 5  94623406.83205        34.469
G18  20991630.573 7 110311765.16907        46.531    20991630.162 6        39.656    20991628.786 6  85957216.33406        39.656    20991629.464 8  85957221.33508        48.312    20991628.644 7  82375672.41307        42.250
G20  21901676.652 7 115094105.36407        43.250    21901675.369 5        30.625    21901672.930 5  89683710.01505        30.625
G23  22050983.847 7 115878716.50607        43.125    22050983.445 5        32.938    22050982.180 5  90295101.87005        32.938    22050982.400 7  90295101.88107        44.594    22050981.857 6  86532806.19506        38.594
G24  22500937.699 6 118243231.30906        40.875    22500937.212 7        42.250    22500938.082 7  92137581.06007        42.250    22500938.900 7  92137572.06107        43.344    22500934.025 6  88298492.25806        38.438
G25                                                                                                                                  25228756.024 3                        23.125
G26                                                                                                                                  25357663.650 3                        22.938
G29  21796594.824 7 114541888.48307        45.219    21796594.145 8        48.375    21796592.676 8  89253410.35608        48.375    21796593.226 7  89253409.37107        44.344
G32  22093318.757 7 116101180.10307        46.469    22093318.400 8        48.469    22093318.289 8  90468451.66808        48.469    22093319.225 7  90468448.68107        44.781    22093312.755 6  86698913.40706        37.719
I01  42218631.536 7 165675041.80107        43.719
I02  37797887.048 6 148327128.14606        39.875
I03  35940713.608 7 141039156.47007        46.625
I04  38692141.209 6 151836297.85006        39.344
I05  36959374.825 7 145036560.63907        42.375
I06  38151709.579 6 149715615.93306        38.844
I07  43437235.542 6 170457048.46206        38.281
J01                                                  42836290.515 4 175407454.65404        28.781
J03  36988496.328 5 194375956.42905        35.031    36988497.155 6 151461827.72806        40.625    36988493.941 5 145150917.21505        34.688
J07  38436771.072 5 201986625.41805        35.000    38436770.088 7 157392164.15707        43.281    38436767.172 6 150834152.90906        37.625
R03  22467457.103 5 120270099.11905        32.344    22467459.415 5 120270078.07305        32.062    22467466.153 6  93543429.02006        38.469    22467465.542 6  93543427.02606        39.031
R04  20290793.497 6 108656267.84106        40.656    20290793.441 6 108656291.84106        40.719    20290799.075 7  84510470.87307        46.469    20290799.042 7  84510470.87107        46.594
R05  21779814.740 6 116425602.54306        39.188    21779815.553 6 116425607.55606        39.312    21779821.229 7  90553268.71007        42.969    21779820.537 7  90553273.72507        43.125
R17  21315766.944 6 114064983.68306        38.812    21315768.443 6 114064989.68506        38.656    21315774.463 7  88717243.56607        44.156    21315774.490 7  88717269.56307        44.094
R18  19273044.996 7 102880832.12107        45.531    19273045.043 7 102880838.11907        45.531    19273051.136 8  80018450.03708        49.688    19273050.834 8  80018460.04708        49.750
R19                                                                                                                                                  21121275.902 7  87876904.78607        42.219
> 2021 01 03 00 13 30.0000000  0 48
C01  40365675.327 5                        30.781
C02  35828431.572 7 186568107.99207        45.156    35828428.140 8 144266305.31008        50.281    35828427.188 6 151601871.06306        39.906
C03  37047373.133 7 192915401.97807        42.844    37047371.736 7 149174424.05607        46.438    37047368.761 6 156759550.34406        36.688
C05  36460840.492 7 189861176.36007        44.656    36460838.124 8 146812700.62508        48.594    36460836.170 6 154277740.40506        39.500
C06  37244044.230 7 193939529.79707        43.688    37244042.351 7 149966340.16307        47.188    37244037.862 6 157591720.00006        37.938
C08  38016602.392 6 197962502.37706        40.531    38016599.493 7 153077180.64907        44.562    38016594.661 5 160860740.25205        35.406
C09  35898940.100 7 186935218.85507        46.625    35898939.647 8 144550260.16808        50.500    35898933.756 6 151900151.42506        40.531
C10  39758013.700 5 207030492.63105        32.000    39758013.307 6 160089154.43506        36.500    39758008.256 4 168229200.08704        27.156
C13  36974447.421 7 192535738.86107        44.812    36974452.593 7 148880915.38907        46.031    36974447.065 6 156451072.06906        37.875
C16  36990244.868 7 192617930.08207        46.594    36990248.230 7 148944417.15007        47.781    36990241.689 6 156517823.55606        37.219
C23  25604607.485 6 133329927.88006        40.719                                                    25604598.115 5 108341436.16405        34.406
C25  25810429.330 5 134401685.44005        34.312
C27  22251051.761 8 115867074.32508        50.000                                                    22251049.340 6  94151474.95606        41.625
C28  21988652.829 8 114500688.83908        49.844                                                    21988651.183 7  93041187.16607        43.812
C32  23814366.039 7 124007664.83007        44.750                                                    23814366.250 6 100766382.42606        39.469
C33  26214325.202 4                        27.062
E07  26392522.179 6 138693664.20106        37.531    26392517.239 4 112575986.88704        28.156    26392520.337 5 103569927.98505        33.562    26392523.231 6 106271786.31306        41.562    26392520.329 6 104920847.73306        41.562
E13  26041395.637 6 136848494.90206        40.469    26041391.331 4 111078291.90604        28.906    26041392.166 5 102192065.06105        34.812    26041396.025 7 104857955.17007        44.688    26041392.835 7 103525009.19407        44.188
E18  19533285.924 8 102648120.34708        48.469    19533280.206 6  83318244.97006        38.125    19533282.354 6  76652802.67206        41.656    19533285.832 8  78652450.17408        51.562    19533282.490 8  77652625.49508        51.031
E19  24650971.212 6 129541742.55906        41.156                                                    24650966.909 5  96735689.08005        34.031    24650970.760 7  99259248.20407        43.656    24650967.478 7  97997459.72007        43.156
E26  22941466.810 8 120558244.83208        48.281    22941462.439 6  97855682.78806        38.062    22941465.018 6  90027266.29306        41.812    22941468.666 8  92375817.26308        52.062    22941465.190 8  91201536.35408        51.406
E33  25484989.145 7 133924545.86407        42.531    25484984.987 5 108704948.23005        31.812    25484985.200 6 100008565.79706        36.031    25484988.548 7 102617500.03907        45.969    25484985.490 7 101313023.00107        45.406
G10  22772925.470 7 119672527.33107        43.812    22772924.795 7        43.156    22772924.856 7  93251327.64607        43.156    22772925.570 6  93251336.64706        41.812    22772919.416 6  89365836.80606        37.438
G15  23127268.132 5 121534625.53705        34.812    23127267.748 4        29.344    23127265.676 4  94702303.18604        29.344    23127267.584 5  94702310.19005        34.906
G18  20984950.352 7 110276661.59907        46.625    20984949.946 6        39.719    20984948.884 6  85929862.90506        39.719    20984949.451 8  85929867.91008        48.375    20984948.562 7  82349458.71207        42.250
G20  21902248.156 7 115097108.17507        43.469    21902246.851 5        31.156    21902245.392 5  89686049.86305        31.156
G23  22053918.147 7 115894135.58007        43.781    22053917.767 5        33.062    22053915.467 5  90307116.73605        33.062    22053916.708 7  90307116.74607        44.125    22053916.205 6  86544320.43806        39.312
G24  22500057.680 6 118238607.89606        40.406    22500057.215 7        42.000    22500058.402 7  92133978.38407        42.000    22500058.752 7  92133969.39007        43.062    22500054.500 6  88295039.68506        38.781
G25                                                                                                                                  25233357.432 3                        20.625
G26                                                                                                                                  25361889.289 3                        22.219
G29  21813067.380 7 114628451.87507        45.656    21813066.701 8        48.656    21813065.359 8  89320862.34608        48.656    21813065.663 7  89320861.35207        44.312
G32  22079690.436 7 116029563.57807        46.938    22079690.079 8        48.688    22079690.339 8  90412646.58808        48.688    22079690.988 7  90412643.59207        45.000    22079684.927 6  86645433.52806        38.688
I01  42234059.923 7 165735585.43207        43.656
I02  37799413.422 6 148333117.12406        40.000
I03  35940659.716 7 141038945.25207        46.438
I04  38690318.420 6 151829144.46306        39.250
I05  36959097.458 7 145035473.46007        42.406
I06  38151828.342 6 149716081.30906        38.594
I07  43433845.377 6 170443744.94506        38.344
J01                                                  42835561.325 4 175404466.36004        29.969
J03  36988990.475 5 194378550.20905        34.750    36988990.343 6 151463848.84606        40.094    36988987.758 5 145152854.17905        33.875
J07  38436758.060 5 201986559.74605        34.812    38436757.894 7 157392112.96707        43.250    38436754.768 6 150834103.85406        37.469
R03  22485453.861 5 120366423.47005        32.156    22485453.645 5 120366402.47205        32.500    22485459.989 6  93618347.97606        38.156    22485460.278 6  93618345.97306        38.406
R04  20299139.533 6 108700964.64806        41.000    20299139.974 6 108700988.63606        40.938    20299145.900 7  84545235.03607        46.312    20299145.527 7  84545235.04707        46.844
R05  21772162.916 6 116384691.66106        38.188    21772161.923 6 116384696.67606        38.188    21772167.555 7  90521449.16307        42.031    21772167.451 7  90521454.15807        42.062
R17  21332972.815 6 114157048.27406        38.031    21332972.536 6 114157054.28306        38.062    21332978.793 7  88788849.37307        43.750    21332978.850 7  88788875.36207        43.688
R18  19270922.893 7 102869504.26007        45.312    19270922.872 7 102869510.25907        45.375    19270929.055 8  80009639.47808        49.812    19270928.875 8  80009649.49108        49.781
R19                                                                                                                                                  21101718.809 7  87795535.50507        42.438
> 2021 01 03 00 14  0.0000000  0 47
C01  40365703.598 4 210194801.27504        29.938
C02  35828415.426 7 186568021.69007        45.219    35828411.475 8 144266238.56708        50.438    35828410.461 6 151601800.93306        39.719
C03  37047488.359 7 192916002.26107        42.594    37047486.901 7 149174888.22707        46.531    37047484.028 6 156760038.13006        36.719
C05  36460829.180 7 189861119.54707        44.469    36460827.142 8 146812656.69508        48.719    36460825.122 6 154277694.23506        39.531
C06  37246514.628 7 193952392.38407        44.125    37246512.433 7 149976286.32907        47.312    37246508.213 6 157602171.89406        37.969
C08  38012014.038 6 197938609.61806        40.656    38012011.214 7 153058705.24207        45.031    38012006.373 5 160841325.44305        35.688
C09  35898145.019 7 186931079.89007        46.562    35898144.867 8 144547059.65608        50.719    35898138.746 6 151896788.18806        40.500
C10  39761141.207 5 207046774.95105        32.094    39761140.234 6 160101744.96206        36.250    39761134.325 4 168242430.79104        27.469
C13  36969305.010 7 192508960.77207        45.094    36969310.453 7 148860208.86807        46.000    36969304.545 6 156429312.68206        37.938
C16  36992516.844 7 192629762.86907        46.375    36992520.407 7 148953567.00907        47.688    36992514.239 6 156527438.66206        37.250
C23  25595988.138 6 133285047.64906        40.719                                                    25595979.214 5 108304967.29005        34.469
C25  25804818.261 6 134372462.33906        36.125
C27  22241425.795 8 115816949.10708        50.250                                                    22241423.228 6  94110744.11706        41.656
C28  21996345.725 8 114540748.03908        49.875                                                    21996344.104 7  93073738.55307        43.562
C32  23812325.383 7 123997038.53807        45.656                                                    23812325.920 6 100757747.72606        39.719
C33  26226575.562 4                        27.875
E07  26406580.815 6 138767542.29306        38.375    26406576.497 4 112635952.86504        27.156    26406578.852 5 103625096.68005        34.062    26406581.944 7 106328394.19807        42.000    26406578.776 7 104976736.02107        42.062
E13  26050767.188 6 136897743.74606        39.938    26050762.665 4 111118266.64704        28.531    26050764.609 5 102228841.81005        35.125    26050767.778 7 104895691.30007        44.469    26050764.618 7 103562265.62907        44.125
E18  19535504.731 8 102659780.21608        48.844    19535499.131 6  83327709.14006        38.219    19535501.313 7  76661509.71107        42.094    19535504.720 8  78661384.36108        51.750    19535501.308 8  77661446.11208        51.344
E19  24644248.696 6 129506414.12006        41.438                                                    24644244.357 5  96709307.45305        34.344    24644247.777 7  99232178.35907        43.656    24644244.693 7  97970733.98307        43.438
E26  22938560.415 8 120542971.10408        48.438    22938555.855 6  97843285.27206        38.062    22938558.492 7  90015860.58107        42.031    22938562.026 8  92364114.01308        51.781    22938558.756 8  91189981.87208        51.375
E33  25472016.569 7 133856375.60107        42.312    25472012.482 5 108649615.19905        31.688    25472012.502 6  99957659.45806        36.156    25472016.027 7 102565265.68607        45.969    25472013.207 7 101261452.64207        45.562
G10  22771537.872 7 119665234.82907        43.125    22771537.206 7        43.219    22771537.398 7  93245645.18707        43.219    22771537.986 6  93245654.19206        41.781    22771531.831 6  89360391.11406        37.625
G15  23146561.773 6 121636010.99906        36.281    23146561.402 5        30.031    23146558.824 5  94781304.86405        30.031    23146559.164 5  94781311.85105        34.844
G18  20978315.951 7 110241797.52707        46.281    20978315.545 6        39.375    20978314.414 6  85902696.09506        39.375    20978315.099 8  85902701.09508        48.562    20978314.353 7  82323423.85007        42.500
G20  21902812.498 7 115100074.94707        43.750    21902811.193 5        31.219    21902810.311 5  89688361.62705        31.219
G23  22056846.999 7 115909527.24907        43.781    22056846.619 5        33.562    22056844.792 5  90319110.24305        33.562    22056845.855 7  90319110.24707        44.719    22056845.285 6  86555814.22006        39.250
G24  22499263.854 6 118234436.58606        39.844    22499263.394 6        40.781    22499264.144 6  92130728.00506        40.781    22499264.929 7  92130718.99607        42.812    22499260.480 6  88291924.74806        38.875
G25                                                                                                                                  25237894.423 3                        19.031
G29  21829599.576 7 114715329.02707        45.500    21829598.897 8        48.312    21829597.548 8  89388558.82308        48.312    21829597.871 7  89388557.83607        44.281
G32  22066135.004 7 115958329.45807        46.219    22066134.647 8        48.406    22066134.956 8  90357139.49308        48.406    22066135.750 7  90357136.48807        45.125    22066129.390 6  86592239.22206        39.281
I01  42249483.060 7 165796109.79507        43.500
I02  37800929.727 6 148339066.12406        39.844
I03  35940607.167 7 141038738.99207        46.312
I04  38688486.226 6 151821954.60806        38.438
I05  36958817.633 7 145034375.50607        42.281
I06  38151947.577 6 149716548.35206        38.781
I07  43430456.269 6 170430444.73406        38.562
J01                                                  42834813.503 4 175401399.49504        28.500
J03  36989508.628 5 194381272.34005        34.500    36989508.765 6 151465969.99706        40.750    36989505.395 5 145154886.93105        35.031
J07  38436746.010 5 201986497.94105        34.875    38436746.229 7 157392064.82407        42.812    38436743.053 6 150834057.70206        37.969
R03  22503433.705 5 120462667.34705        33.250    22503433.365 5 120462646.31905        32.531    22503439.222 6  93693204.28606        38.875    22503438.655 6  93693202.30906        38.500
R04  20307553.665 6 108746017.97806        41.062    20307553.865 6 108746041.99006        41.094    20307558.981 7  84580276.55407        46.156    20307559.246 7  84580276.54807        46.219
R05  21764601.008 6 116344276.79506        38.812    21764601.402 6 116344281.80306        38.969    21764606.859 6  90490015.38606        41.719    21764606.775 7  90490020.37807        42.000
R17  21350272.747 6 114249632.63606        38.500    21350274.433 6 114249638.61806        38.250    21350280.172 7  88860859.41107        43.562    21350280.504 7  88860885.40807        43.656
R18  19268939.280 7 102858916.49707        45.656    19268939.542 7 102858922.49607        45.406    19268945.845 8  80001404.55908        49.688    19268945.649 8  80001414.56108        49.812
R19                                                                                                                                                  21082221.087 6  87714412.08506        41.906
> 2021 01 03 00 14 30.0000000  0 46
C01  40365730.333 5 210194945.82205        31.875
C02  35828398.179 7 186567933.58207        45.531    35828394.501 8 144266170.43908        50.281    35828393.714 6 151601729.34306        39.750
C03  37047602.868 7 192916600.28107        42.875    37047601.677 7 149175350.65307        46.531    37047598.869 6 156760524.06306        36.656
C05  36460817.973 7 189861061.64307        44.750    36460816.066 8 146812611.92008        48.688    36460813.969 6 154277647.19006        39.531
C06  37249005.867 7 193965363.83107        44.469    37249003.820 7 149986316.67907        47.219    37248999.019 6 157612712.25606        37.906
C08  38007436.962 6 197914776.38306        40.875    38007433.995 7 153040275.89107        44.875    38007429.429 5 160821959.00105        35.656
C09  35897377.876 7 186927085.28007        46.844    35897377.855 8 144543970.77708        50.688    35897371.721 6 151893542.23406        40.500
C10  39764241.039 5 207062917.76805        31.781    39764240.384 6 160114227.59006        37.188    39764234.177 4 168255548.15104        27.531
C13  36964164.091 7 192482189.88807        45.406    36964169.036 7 148839507.92207        46.031    36964163.144 6 156407559.15206        37.625
C16  36994812.981 7 192641720.19507        46.375    36994816.907 7 148962813.17407        47.969    36994810.569 6 156537154.95906        37.250
C23  25587338.785 6 133240004.03506        40.625                                                    25587329.150 5 108268365.66105        34.688
C25  25799225.030 5 134343339.12705        34.656
C27  22231872.485 8 115767203.55908        50.469                                                    22231870.175 6  94070321.77506        41.594
C28  22004122.065 8 114581240.10308        50.000                                                    22004120.158 7  93106641.67007        43.562
C32  23810325.130 7 123986623.87007        46.188                                                    23810325.815 6 100749284.94806        39.781
C33  26238790.381 4                        26.656
E07  26420642.495 6 138841438.49606        37.938    26420636.342 4 112695933.54204        27.375    26420640.631 5 103680278.92105        34.000    26420643.949 6 106385015.96706        41.406    26420640.893 6 105032638.02106        41.594
E13  26060191.202 6 136947266.93606        39.562    26060187.057 4 111158464.03404        29.375    26060188.684 5 102265823.38505        35.031    26060191.591 7 104933637.62607        44.719    26060188.602 7 103599729.58107        44.375
E18  19537955.836 8 102672659.91108        48.781    19537949.927 6  83338163.45206        37.250    19537952.126 7  76671127.67907        42.125    19537955.399 8  78671253.22608        51.531    19537952.251 8  77671189.52508        51.219
E19  24637584.905 6 129471394.36606        41.312                                                    24637580.449 5  96683156.33305        34.500    24637583.814 7  99205345.03907        43.688    24637580.682 7  97944241.76407        43.375
E26  22935708.378 8 120527983.72308        48.156    22935704.000 6  97831120.18606        37.750    22935706.562 7  90004668.70407        42.188    22935709.951 8  92352630.17008        51.812    22935706.719 8  91178644.01208        51.406
E33  25459054.651 7 133788259.23507        42.281    25459050.628 5 108594325.94205        31.375    25459050.547 6  99906793.29806        36.438    25459053.839 7 102513072.60207        45.906    25459051.130 7 101209923.02507        45.656
G10  22770153.205 7 119657957.93407        44.312    22770152.548 7        43.812    22770153.229 7  93239974.89107        43.812    22770153.330 7  93239983.90607        42.469    22770146.935 6  89354957.07006        37.094
G15  23165876.575 6 121737514.01406        36.875    23165876.186 5        30.250    23165874.108 5  94860398.11405        30.250    23165875.265 5  94860405.11305        34.531
G18  20971726.235 7 110207169.37507        46.875    20971725.838 6        39.688    20971724.986 6  85875713.11706        39.688    20971725.471 8  85875718.12108        48.406    20971724.608 7  82297565.15807        42.812
G20  21903369.146 7 115102999.06507        43.625    21903367.832 5        30.781    21903366.518 5  89690640.16005        30.781
G23  22059769.492 7 115924884.65707        44.219    22059769.112 5        33.688    22059767.592 5  90331077.06405        33.688    22059767.930 7  90331077.06207        44.562    22059767.488 6  86567282.41406        38.938
G24  22498555.319 6 118230712.72806        40.781    22498554.868 6        41.000    22498555.484 6  92127826.28506        41.000    22498556.285 7  92127817.28007        42.188    22498551.681 6  88289143.94506        38.375
G29  21846189.789 7 114802510.67507        45.438    21846189.110 8        48.156    21846187.740 8  89456492.57808        48.156    21846187.961 7  89456491.57607        44.281
G32  22052651.800 7 115887473.46707        47.156    22052651.447 8        48.625    22052651.407 8  90301927.02808        48.625    22052652.239 7  90301924.03707        45.344    22052646.080 6  86539327.29506        39.344
I01  42264900.320 7 165856610.41907        43.500
I02  37802434.076 6 148344970.30606        39.719
I03  35940554.732 7 141038533.35307        46.250
I04  38686643.849 6 151814723.93006        38.938
I05  36958534.315 7 145033262.52307        42.250
I06  38152065.616 6 149717012.63806        38.625
I07  43427066.995 6 170417143.45806        38.094
J01                                                  42834043.444 4 175398249.28504        28.688
J03  36990050.349 5 194384116.71105        35.219    36990049.839 6 151468186.40806        40.188    36990047.018 5 145157010.97605        34.656
J07  38436734.330 5 201986434.21305        34.719    38436734.120 7 157392015.13607        43.562    38436730.948 6 150834010.09606        37.594
R03  22521395.060 5 120558822.00405        31.938    22521395.144 5 120558800.98405        31.844    22521401.931 6  93767991.26406        39.719    22521400.930 6  93767989.27506        39.844
R04  20316031.401 6 108791418.38106        41.406    20316032.015 6 108791442.39906        41.250    20316037.489 7  84615587.98307        46.031    20316037.255 7  84615587.98607        46.438
R05  21757131.958 6 116304351.25006        38.656    21757132.561 6 116304356.26006        38.562    21757138.873 7  90458962.19007        42.656    21757139.127 7  90458967.18707        42.750
R17  21367669.448 6 114342727.98906        38.438    21367671.449 6 114342733.97406        38.219    21367677.461 7  88933266.90507        43.875    21367677.426 7  88933292.91307        44.219
R18  19267093.080 7 102849064.40607        45.531    19267093.699 7 102849070.39107        45.469    19267100.029 8  79993741.80308        49.625    19267099.937 8  79993751.81608        49.906
R19                                                                                                                                                  21062781.305 7  87633532.95507        42.375
> 2021 01 03 00 15  0.0000000  0 46
C01  40365758.692 5 210195092.48805        31.875
C02  35828381.602 7 186567847.41007        45.312    35828378.156 8 144266103.81008        50.219    35828377.111 6 151601659.31406        39.875
C03  37047718.088 7 192917199.93607        42.656    37047716.956 7 149175814.34007        46.344    37047714.025 6 156761011.32806        36.438
C05  36460807.201 7 189861006.47707        44.562    36460805.557 8 146812569.26108        48.594    36460803.425 6 154277602.35106        39.500
C06  37251518.342 7 193978447.60007        44.031    37251516.248 7 149996433.88207        47.031    37251511.691 6 157623343.89106        38.062
C08  38002872.565 6 197891007.08406        40.656    38002869.750 7 153021895.94807        44.812    38002864.787 5 160802644.49005        35.281
C09  35896639.266 7 186923238.79507        46.656    35896639.140 8 144540996.42808        50.656    35896633.303 6 151890416.65006        40.469
C10  39767315.016 5 207078924.29205        32.312    39767314.255 6 160126604.88106        36.344    39767308.014 4 168268554.76104        27.312
C13  36959025.244 7 192455430.62307        45.031    36959030.298 7 148818815.96407        45.781    36959024.250 6 156385815.04706        37.500
C16  36997134.231 7 192653805.53707        46.125    36997137.520 7 148972158.33007        47.656    36997131.290 6 156546975.28606        37.281
C23  25578658.711 6 133194802.52406        39.781                                                    25578648.819 5 108231635.71205        35.094
C25  25793652.118 5 134314321.77705        34.875
C27  22222393.369 8 115717843.29208        50.000                                                    22222391.176 7  94030212.51807        42.062
C28  22011981.688 8 114622167.95408        50.062                                                    22011979.935 7  93139898.90407        43.500
C32  23808366.787 7 123976423.32307        45.531                                                    23808366.920 6 100740996.15306        39.906
C33  26250981.875 4                        26.406
E07  26434708.746 6 138915355.09906        38.250    26434702.286 4 112755930.79204        27.406    26434706.474 5 103735476.38505        33.312    26434709.866 6 106441653.35006        41.531    26434706.766 6 105088555.44006        41.438
E13  26069667.901 6 136997067.94406        39.031    26069663.556 4 111198886.89104        29.188    26069665.409 5 102303012.42505        35.156    26069668.434 7 104971796.82207        44.500    26069665.329 7 103637403.70307        44.250
E18  19540639.170 8 102686760.85208        48.500    19540633.169 6  83349608.99606        37.375    19540635.328 7  76681657.59207        42.219    19540638.655 8  78682057.83508        51.562    19540635.517 8  77681856.78908        51.219
E19  24630980.245 6 129436687.18006        41.281                                                    24630976.407 5  96657238.62805        34.500    24630979.093 7  99178751.21507        43.406    24630976.148 7  97917985.99507        43.219
E26  22932911.714 7 120513287.88907        47.969    22932907.620 6  97819191.75406        38.312    22932910.033 6  89993694.54306        41.938    22932913.462 8  92341369.72808        51.750    22932910.151 8  91167526.71108        51.250
E33  25446103.980 7 133720202.38407        42.938    25446099.906 5 108539084.99105        31.906    25446099.926 6  99855971.61406        36.750    25446103.273 7 102460925.14307        46.125    25446100.408 7 101158438.45807        45.781
G10  22768771.304 7 119650699.15707        44.906    22768770.652 7        43.625    22768771.475 7  93234318.72807        43.625    22768771.141 6  93234327.74006        41.312    22768765.618 6  89349536.58406        37.125
G15  23185214.193 5 121839136.00005        35.719    23185213.804 4        28.812    23185212.409 4  94939584.08604        28.812    23185213.417 5  94939591.08205        34.469
G18  20965183.164 7 110172783.33307        46.781    20965182.780 6        39.594    20965181.472 6  85848918.79206        39.594    20965181.891 8  85848923.79608        48.344    20965180.904 7  82271887.27607        42.844
G20  21903918.180 7 115105883.99007        44.250    21903916.857 5        30.625    21903915.105 5  89692888.16205        30.625
G23  22062685.806 7 115940210.75807        44.500    22062685.435 5        33.875    22062683.979 5  90343019.48905        33.875    22062684.711 7  90343019.49207        44.594    22062683.569 6  86578727.24206        39.125
G24  22497932.751 6 118227442.04206        41.125    22497932.313 6        41.562    22497932.836 6  92125277.68406        41.562    22497934.057 7  92125268.68807        42.719    22497929.120 6  88286701.56306        38.375
G29  21862838.199 7 114889997.94907        45.125    21862837.520 7        47.656    21862835.827 7  89524664.48107        47.656    21862836.122 7  89524663.48407        43.469
G32  22039241.142 7 115817001.10607        47.438    22039240.780 8        48.875    22039241.122 8  90247013.50208        48.875    22039241.717 7  90247010.50107        44.812    22039235.619 6  86486701.82806        39.281
I01  42280312.101 7 165917090.08107        43.562
I02  37803928.119 6 148350833.28206        39.812
I03  35940503.285 7 141038331.22607        46.281
I04  38684791.268 6 151807455.45706        38.906
I05  36958247.546 7 145032137.48407        42.250
I06  38152184.281 6 149717477.12506        38.719
I07  43423677.717 6 170403843.98306        38.281
J01                                                  42833254.347 4 175395018.69004        29.188
J03  36990614.661 5 194387087.06605        35.312    36990615.361 6 151470500.95606        40.094    36990612.049 5 145159229.08305        34.875
J07  38436722.802 5 201986372.37605        33.656    38436722.202 7 157391966.96607        43.250    38436719.009 6 150833963.92606        37.969
R03  22539343.576 5 120654888.95605        32.000    22539341.656 5 120654867.98905        32.844    22539348.654 6  93842710.02306        40.000    22539347.932 6  93842708.03406        40.531
R04  20324574.363 6 108837166.38306        41.031    20324574.749 6 108837190.38206        40.781    20324580.384 7  84651169.75307        46.281    20324579.933 7  84651169.76107        46.531
R05  21749755.282 6 116264918.53206        37.250    21749754.977 6 116264923.52406        37.500    21749761.633 7  90428292.29107        42.844    21749761.704 7  90428297.28707        42.688
R17  21385165.283 6 114436335.31506        37.969    21385164.015 6 114436341.32806        37.750    21385170.080 7  89006072.62207        42.906    21385170.037 7  89006098.62207        43.500
R18  19265386.851 7 102839953.76007        45.750    19265387.093 7 102839959.75507        45.469    19265393.303 8  79986655.75508        49.719    19265393.377 8  79986665.76108        49.625
R19                                                                                                                                                  21043402.516 7  87552904.76907        42.219
> 2021 01 03 00 15 30.0000000  0 47
C01  40365787.418 5 210195238.55705        32.000    40365784.303 5 162536287.99715        30.531
C02  35828365.245 7 186567760.65807        45.688    35828361.280 8 144266036.70808        50.188    35828360.557 6 151601588.80706        40.094
C03  37047832.963 7 192917798.51507        43.031    37047831.762 7 149176277.20007        46.375    37047829.118 6 156761497.72906        36.750
C05  36460796.969 7 189860951.39107        44.844    36460795.022 8 146812526.66408        48.625    36460792.961 6 154277557.58506        39.750
C06  37254051.336 7 193991640.59807        44.062    37254049.732 7 150006635.54607        47.094    37254045.560 6 157634064.28206        38.406
C08  37998318.652 6 197867299.75806        40.062    37998317.142 7 153003563.95007        44.969    37998311.815 5 160783380.34205        35.156
C09  35895928.318 7 186919537.61907        47.000    35895928.439 8 144538134.43308        50.531    35895922.425 6 151887409.14106        40.750
C10  39770361.827 5 207094791.95905        32.688    39770361.494 6 160138874.75306        36.281    39770356.050 4 168281448.55504        27.688
C13  36953887.719 7 192428681.01707        44.812    36953893.193 7 148798131.45807        45.719    36953887.102 6 156364078.77506        37.438
C16  36999479.270 7 192666015.76107        46.562    36999482.498 7 148981600.05407        47.406    36999475.826 6 156556897.09306        37.094
C23  25569947.067 6 133149442.08706        39.781                                                    25569937.740 5 108194776.62305        34.344
C25  25788100.957 5 134285409.72305        34.094
C27  22212988.150 8 115668867.45508        50.438                                                    22212985.789 7  93990415.61907        42.250
C28  22019924.339 8 114663527.98708        50.500                                                    22019922.557 7  93173507.31207        43.438
C32  23806448.545 7 123966432.93207        46.125                                                    23806448.248 6 100732878.14106        40.000
C33  26263144.089 4                        28.438
E07  26448777.370 6 138989287.81106        38.531    26448772.160 4 112815941.12604        26.844    26448775.383 5 103790685.85605        33.344    26448778.773 6 106498303.08706        41.250    26448775.684 6 105144485.04206        41.250
E13  26079197.145 6 137047143.71006        38.938    26079192.753 5 111239532.79305        30.250    26079193.990 5 102340406.68405        34.750    26079197.439 7 105010166.55907        44.312    26079194.267 7 103675285.69607        43.969
E18  19543553.923 8 102702077.76208        48.656    19543547.819 6  83362041.55906        37.719    19543550.009 7  76693095.54407        42.250    19543553.637 8  78693794.17508        51.875    19543550.252 8  77693443.93408        51.438
E19  24624434.633 6 129402289.95406        41.281                                                    24624430.297 5  96631552.38805        34.594    24624433.519 7  99152394.90307        43.438    24624430.528 7  97891964.72807        43.312
E26  22930170.433 7 120498882.30107        47.750    22930165.914 6  97807498.91106        38.062    22930168.696 6  89982937.12506        41.969    22930172.156 8  92330331.67608        51.656    22930168.881 8  91156628.97508        51.312
E33  25433164.404 7 133652204.13407        42.781    25433160.168 5 108483891.62605        31.000    25433160.048 6  99805193.72106        36.906    25433163.600 7 102408822.59507        46.125    25433160.766 7 101106998.23607        45.906
G10  22767392.848 7 119643454.43807        44.094    22767392.209 7        43.438    22767392.323 7  93228673.52507        43.438    22767393.445 7  93228682.53807        42.188    22767387.239 6  89344126.58906        37.469
G15  23204573.826 5 121940871.47905        34.594    23204573.433 4        27.406    23204572.057 4  95018858.48504        27.406    23204573.059 5  95018865.46305        35.188
G18  20958685.790 7 110138638.97207        46.812    20958685.401 6        39.656    20958683.984 6  85822312.79606        39.656    20958684.661 8  85822317.79608        48.688    20958683.665 7  82246389.85107        42.719
G20  21904459.060 7 115108726.98707        44.438    21904457.750 5        31.125    21904455.702 5  89695103.49205        31.125
G23  22065595.460 7 115955501.94207        44.250    22065595.098 5        33.688    22065593.870 5  90354934.69405        33.688    22065594.452 7  90354934.69907        44.812    22065593.663 6  86590145.98806        39.594
G24  22497396.448 7 118224623.04007        42.125    22497396.015 7        42.438    22497397.166 7  92123081.06007        42.438    22497397.822 7  92123072.06107        42.938    22497392.510 6  88284596.46006        38.500
G26                                                                                                                                  25378753.276 3                        19.344
G29  21879543.290 7 114977785.26007        45.719    21879542.620 7        47.812    21879540.950 7  89593070.18007        47.812    21879541.654 7  89593069.18507        43.594
G32  22025903.419 7 115746911.18007        46.625    22025903.062 8        48.688    22025903.407 8  90192397.97708        48.688    22025904.129 7  90192394.97907        45.219    22025897.699 6  86434361.94106        38.938
I01  42295718.098 7 165977546.82507        43.500
I02  37805410.986 6 148356652.44506        39.438
I03  35940452.058 7 141038130.55707        46.094
I04  38682928.605 6 151800147.26506        38.906
I05  36957956.980 7 145030998.19007        42.125
I06  38152301.759 6 149717939.74806        38.281
I07  43420288.424 6 170390544.35906        38.156
J01                                                  42832446.391 4 175391705.56504        28.938
J03  36991203.857 6 194390180.40906        36.594    36991203.325 6 151472911.34106        40.656    36991200.476 5 145161539.05005        34.906
J07  38436710.760 5 201986309.82805        34.406    38436710.299 7 157391918.23407        43.281    38436707.275 6 150833917.23306        38.000
R03  22557269.589 5 120750862.63705        32.781    22557270.980 5 120750841.63205        32.688    22557276.900 6  93917356.17406        39.688    22557277.542 6  93917354.15606        39.812
R04  20333181.509 6 108883255.55506        40.594    20333181.911 6 108883279.57306        40.750    20333187.175 7  84687016.91607        46.281    20333186.467 7  84687016.91307        46.281
R05  21742469.087 6 116225975.07006        38.219    21742469.988 6 116225980.06806        38.219    21742477.256 7  90398002.93407        43.250    21742476.587 7  90398007.94707        43.594
R17  21402752.615 6 114530449.06906        37.344    21402751.272 6 114530455.06406        37.094    21402756.586 7  89079272.18707        42.594    21402756.483 7  89079298.19207        42.625
R18  19263819.082 7 102831583.67507        45.281    19263819.220 7 102831589.67107        45.531    19263825.340 8  79980145.68408        50.000    19263825.231 8  79980155.69108        49.719
R19                                                                                                                                                  21024084.065 7  87472529.09607        42.312
> 2021 01 03 00 16  0.0000000  0 46
C01  40365816.345 5                        31.781    40365811.692 5 162536401.17105        30.625
C02  35828348.388 7 186567674.00907        45.375    35828344.513 8 144265969.71508        50.281    35828343.865 6 151601518.40706        40.000
C03  37047947.910 7 192918396.85407        42.812    37047946.742 7 149176739.87507        46.469    37047943.828 6 156761983.94506        36.719
C05  36460786.404 7 189860897.18407        44.719    36460784.555 8 146812484.74908        48.656    36460782.557 6 154277513.55106        39.688
C06  37256606.493 7 194004943.14207        44.062    37256604.332 7 150016921.92407        47.062    37256600.062 6 157644873.69506        38.250
C08  37993778.468 6 197843655.96306        40.094    37993775.942 7 152985281.05307        44.719    37993771.265 5 160764167.80605        34.812
C09  35895245.629 7 186915982.46707        46.656    35895245.488 8 144535385.36508        50.281    35895239.623 6 151884520.28206        40.594
C10  39773383.548 5 207110521.26405        32.656    39773382.257 6 160151037.68106        36.312    39773376.471 4 168294229.90904        27.469
C13  36948753.225 7 192401942.52207        44.625    36948758.374 7 148777455.56607        45.562    36948752.261 6 156342351.58706        37.281
C16  37001848.018 7 192678351.26607        46.406    37001851.338 7 148991138.64907        47.406    37001844.844 6 156566920.71406        36.969
C23  25561206.605 6 133103925.12306        39.750                                                    25561196.489 5 108157790.35905        33.719
C25  25782569.943 5 134256605.89405        30.281
C27  22203657.025 8 115620278.58608        50.219                                                    22203655.032 7  93950933.19407        42.281
C28  22027949.976 8 114705320.07508        50.188                                                    22027948.156 7  93207466.80507        43.188
C32  23804569.630 7 123956652.19507        45.406                                                    23804569.798 6 100724930.49206        39.812
C33  26275272.280 4                        29.219
E07  26462848.939 6 139063235.92706        37.875    26462843.320 4 112875963.95904        27.250    26462847.884 5 103845906.85005        33.000    26462850.775 6 106554964.64206        41.594    26462847.551 6 105200426.31806        41.438
E13  26088778.680 6 137097494.65606        39.656    26088775.189 5 111280402.10105        31.094    26088775.794 5 102378006.40305        35.344    26088778.888 7 105048747.14607        43.969    26088775.742 7 103713375.85007        43.812
E18  19546699.512 8 102718608.81608        48.812    19546693.704 6  83375459.61706        37.406    19546695.908 7  76705440.16107        42.438    19546699.194 8  78706460.82808        52.000    19546696.073 8  77705949.56908        51.625
E19  24617948.226 6 129368203.52106        41.562                                                    24617943.747 5  96606098.23705        34.688    24617947.488 7  99126276.71607        43.906    24617944.074 7  97866178.54807        43.531
E26  22927484.857 7 120484769.04307        47.594    22927480.525 6  97796043.34206        38.031    22927483.012 7  89972397.98807        42.031    22927486.556 8  92319517.61908        52.000    22927483.247 8  91145952.38008        51.500
E33  25420236.698 7 133584267.12107        42.969    25420231.969 5 108428747.94605        31.844    25420232.531 6  99754461.51106        37.000    25420235.678 7 102356766.95807        46.312    25420232.783 7 101055604.31707        46.031
G10  22766016.565 7 119636223.23707        43.688    22766015.926 7        43.750    22766017.533 7  93223038.83007        43.750    22766017.560 7  93223047.82907        43.594    22766011.083 6  89338726.68706        36.969
G15  23223954.078 5 122042718.66205        32.812    23223953.685 4        26.094    23223953.241 4  95098219.89604        26.094    23223953.039 5  95098226.89605        34.656
G18  20952234.832 7 110104739.43807        47.281    20952234.439 6        39.594    20952232.914 6  85795897.57106        39.594    20952233.727 7  85795902.57107        47.969    20952232.998 7  82221075.25407        42.844
G20  21904992.155 7 115111528.31007        44.875    21904990.845 5        32.000    21904989.351 5  89697286.34005        32.000
G23  22068498.848 7 115970758.07007        44.719    22068498.482 5        33.469    22068496.839 5  90366822.58305        33.469    22068497.440 7  90366822.58507        44.469    22068497.020 6  86601538.53306        39.625
G24  22496946.326 6 118222257.92406        41.844    22496945.875 6        41.594    22496946.637 6  92121238.11106        41.594    22496947.193 7  92121229.11207        42.062    22496942.329 6  88282830.27506        38.688
G29  21896305.300 7 115065870.46607        46.031    21896304.634 7        47.781    21896302.872 7  89661708.00307        47.781    21896303.616 7  89661707.00607        43.438
G32  22012639.074 7 115677206.05507        46.875    22012638.712 8        48.406    22012638.803 8  90138082.29608        48.406    22012639.640 7  90138079.30407        44.812    22012633.376 6  86382309.42506        38.625
I01  42311118.422 7 166037981.12107        43.688
I02  37806882.872 6 148362428.89206        39.688
I03  35940401.459 7 141037932.01607        46.344
I04  38681057.311 6 151792800.06906        39.062
I05  36957663.220 7 145029845.62207        42.375
I06  38152419.261 6 149718401.16706        38.562
I07  43416899.100 6 170377245.20906        38.344
J01                                                  42831616.539 4 175388310.45404        29.250
J03  36991815.770 6 194393397.41406        38.250    36991815.637 6 151475418.07706        40.219    36991812.700 5 145163941.31805        34.594
J07  38436698.750 5 201986247.33605        34.156    38436698.414 7 157391869.52007        43.312    38436695.167 6 150833870.54606        38.062
R03  22575180.885 5 120846741.33105        31.406    22575181.905 5 120846720.33105        31.688    22575187.431 6  93991928.46306        38.688    22575187.993 6  93991926.46706        38.594
R04  20341851.162 6 108929683.11706        40.875    20341851.520 6 108929707.12106        40.938    20341856.945 7  84723127.21907        46.094    20341857.079 7  84723127.23007        46.031
R05  21735275.190 6 116187521.40606        38.969    21735277.284 6 116187526.40406        39.188    21735283.390 7  90368094.50207        42.781    21735282.512 7  90368099.54507        43.188
R17  21420433.308 6 114625067.26906        38.156    21420433.092 6 114625073.26906        38.031    21420438.777 7  89152864.12607        42.875    21420438.687 7  89152890.15307        42.969
R18  19262389.801 7 102823956.28607        45.750    19262390.438 7 102823962.28507        45.656    19262396.196 8  79974213.26108        49.656    19262396.168 8  79974223.27208        49.344
R19                                                                                                                                                  21004827.643 6  87392410.05706        41.844
> 2021 01 03 00 16 30.0000000  0 47
C01  40365842.785 5 210195532.73305        31.062    40365840.726 5                        30.344
C02  35828331.842 7 186567588.58907        45.375    35828328.289 8 144265903.65408        50.500    35828327.225 6 151601448.98806        40.062
C03  37048063.278 7 192918996.09807        42.594    37048061.938 7 149177203.26107        46.656    37048059.100 6 156762470.88606        36.875
C05  36460776.333 7 189860845.02807        44.500    36460774.479 8 146812444.41708        48.844    36460772.481 6 154277471.15806        39.656
C06  37259182.095 7 194018355.99507        43.938    37259180.076 7 150027293.59307        47.344    37259175.792 6 157655772.73606        38.406
C08  37989251.275 6 197820077.48106        40.562    37989247.903 7 152967048.67507        44.844    37989243.595 5 160745008.36505        35.281
C09  35894591.086 7 186912574.36107        46.719    35894590.803 8 144532750.00908        50.375    35894585.216 6 151881750.92106        40.625
C10  39776376.011 5 207126113.24505        32.688    39776376.513 6 160163094.35606        36.375    39776369.604 4 168306899.59504        27.688
C13  36943620.980 7 192375216.97907        44.844    36943625.692 7 148756789.68407        45.781    36943620.132 6 156320634.87906        37.656
C16  37004240.746 7 192690812.74607        46.344    37004244.515 7 149000774.65407        47.906    37004237.994 6 156577046.67606        37.062
C23  25552435.890 6 133058254.38806        39.719                                                    25552425.373 5 108120679.12505        33.812
C25  25777060.019 4 134227913.49604        28.062
C27  22194401.007 8 115572079.60208        50.062                                                    22194398.728 7  93911767.56807        42.312
C28  22036058.811 8 114747544.35808        50.062                                                    22036057.018 7  93241777.49607        43.594
C32  23802731.823 7 123947080.88807        45.500                                                    23802731.882 6 100717153.02706        39.938
C33  26287373.626 4                        29.562
E07  26476923.717 6 139137198.99906        38.312    26476918.875 4 112935998.92304        28.406    26476922.244 5 103901138.99705        32.844    26476925.331 6 106611637.62706        41.844    26476922.259 6 105256378.89306        41.719
E13  26098412.538 6 137148121.48306        40.031    26098408.941 5 111321495.28705        30.312    26098409.502 5 102415812.14905        34.844    26098412.392 7 105087539.11907        43.250    26098409.628 7 103751674.71207        43.156
E18  19550076.261 8 102736352.38908        49.219    19550070.382 6  83389861.86706        37.375    19550072.482 7  76718690.23307        42.625    19550075.710 8  78720056.55108        51.938    19550072.534 8  77719372.46708        51.656
E19  24611521.208 6 129334429.02206        41.594                                                    24611516.620 5  96580877.00405        33.875    24611520.164 7  99100397.56707        43.906    24611516.982 7  97840628.36807        43.375
E26  22924855.279 7 120470950.58807        47.812    22924850.942 6  97784827.05606        38.250    22924853.324 6  89962079.01506        41.781    22924857.059 8  92308929.44508        52.156    22924853.690 8  91135498.80608        51.562
E33  25407320.826 7 133516394.23507        43.281    25407316.323 5 108373656.27305        31.469    25407316.780 6  99703777.22306        36.844    25407320.088 7 102304760.45307        46.625    25407316.947 7 101004258.91507        46.250
G10  22764643.389 7 119629005.29807        43.375    22764642.723 7        44.000    22764644.028 7  93217414.47207        44.000    22764643.632 7  93217423.48507        42.625    22764637.109 6  89333336.68606        37.219
G15  23243356.014 5 122144675.79305        34.094    23243355.617 4        26.219    23243354.685 4  95177666.97204        26.219    23243354.765 5  95177674.01405        33.375
G18  20945831.100 7 110071088.14707        46.406    20945830.716 6        39.562    20945829.312 6  85769675.77706        39.562    20945829.948 8  85769680.78108        48.156    20945828.985 7  82195946.04507        42.812
G20  21905517.772 7 115114288.73407        43.594    21905516.462 5        31.312    21905514.390 5  89699437.31905        31.312
G23  22071395.041 7 115985979.35707        43.812    22071394.684 5        33.281    22071393.238 5  90378683.32605        33.281    22071393.980 7  90378683.33807        44.219    22071393.576 6  86612905.08106        39.188
G24  22496583.280 6 118220349.78406        41.219    22496582.829 6        41.625    22496583.620 6  92119751.24506        41.625    22496584.480 7  92119742.24407        42.500    22496579.982 6  88281405.36506        39.594
G25                                                                                                                                  25259639.630 3                        22.125
G29  21913123.299 7 115154251.56107        45.281    21913122.638 7        47.750    21913121.045 7  89730576.38407        47.750    21913122.126 7  89730575.39107        43.156
G32  21999448.432 7 115607888.42507        46.281    21999448.061 8        48.281    21999447.868 8  90084068.55908        48.281    21999448.969 7  90084065.55907        43.938    21999442.583 6  86330546.26306        38.438
I01  42326513.395 7 166098393.86107        43.750
I02  37808344.296 6 148368162.05606        39.625
I03  35940351.487 7 141037736.35307        46.250
I04  38679175.240 6 151785414.75606        38.688
I05  36957366.504 6 145028680.76406        41.906
I06  38152537.048 6 149718862.19206        38.406
I07  43413511.336 6 170363947.34106        38.312
J01                                                  42830767.416 4 175384834.11104        28.281
J03  36992451.110 6 194396738.95906        38.500    36992451.987 6 151478021.88606        40.125    36992448.618 5 145166436.64605        34.344
J07  38436686.890 5 201986186.02105        34.625    38436686.751 7 157391821.73707        43.344    38436683.803 6 150833824.76406        37.688
R03  22593075.502 5 120942523.50605        31.000    22593074.739 5 120942502.46405        31.562    22593079.783 6  94066425.68406        37.781    22593080.606 6  94066423.68906        37.781
R04  20350583.178 6 108976446.79706        40.781    20350584.535 6 108976470.79406        40.781    20350589.941 7  84759498.98807        46.094    20350589.979 7  84759498.98107        46.188
R05  21728174.376 6 116149557.42106        38.562    21728174.879 6 116149562.43806        38.969    21728180.927 7  90338566.99007        42.188    21728180.291 7  90338572.00807        42.719
R17  21438207.850 6 114720188.02906        37.438    21438208.549 6 114720194.03506        37.625    21438215.227 7  89226846.97607        43.250    21438214.685 7  89226872.95407        43.844
R18  19261101.574 7 102817074.32807        45.469    19261101.312 7 102817080.33607        45.656    19261106.895 8  79968860.63708        49.938    19261106.937 8  79968870.63308        49.375
R19                                                                                                                                                  20985632.852 6  87312551.72106        41.750
> 2021 01 03 00 17  0.0000000  0 47
C01  40365870.635 5 210195676.63005        31.656    40365867.663 5                        30.000
C02  35828314.716 7 186567499.11007        45.469    35828311.176 8 144265834.46308        50.344    35828310.345 6 151601376.28506        39.938
C03  37048177.308 7 192919590.91807        42.875    37048176.107 7 149177663.20407        46.469    37048173.184 6 156762954.20906        36.562
C05  36460765.852 7 189860789.62007        44.656    36460763.958 8 146812401.56408        48.688    36460761.758 6 154277426.12906        39.688
C06  37261778.056 7 194031873.43007        44.062    37261776.003 7 150037746.13907        47.031    37261771.858 6 157666756.77606        38.250
C08  37984734.569 6 197796559.63606        40.031    37984731.597 7 152948863.17807        44.469    37984726.875 5 160725898.17205        35.312
C09  35893964.138 7 186909307.92907        47.062    35893963.559 8 144530224.19208        50.312    35893957.986 6 151879096.67506        40.562
C10  39779343.214 5 207141562.16105        32.312    39779344.737 6 160175040.44606        36.719    39779337.116 4 168319453.16304        27.750
C13  36938490.147 7 192348499.82907        44.938    36938495.156 7 148736130.28507        45.594    36938489.242 6 156298925.03106        37.469
C16  37006657.061 7 192703394.44007        46.406    37006660.507 7 149010503.62407        47.375    37006654.034 6 156587270.35606        37.125
C23  25543634.236 6 133012426.28006        38.812                                                    25543625.081 5 108083440.06005        34.500
C25  25771564.356 3                        23.094
C27  22185219.077 8 115524266.93308        50.375                                                    22185216.760 7  93872915.86407        42.000
C28  22044249.113 8 114790194.54608        50.406                                                    22044247.817 7  93276434.26407        43.500
C32  23800932.691 7 123937712.39407        45.750                                                    23800932.732 6 100709540.35506        39.344
C33  26299444.230 4                        28.875
E07  26491000.116 6 139211170.11106        38.750    26490994.831 4 112996040.36904        28.250    26490998.483 5 103956377.14805        32.250    26491002.154 7 106668316.77407        42.531    26490998.453 6 105312337.54106        41.938
E13  26108098.003 6 137199018.41506        40.188    26108094.792 4 111362807.70504        28.656    26108094.784 5 102453819.62305        34.875    26108097.931 7 105126538.06907        43.000    26108094.894 7 103790177.92007        42.938
E18  19553681.740 8 102755300.32908        49.094    19553675.975 6  83405241.68606        37.219    19553677.903 7  76732839.66807        42.500    19553681.813 8  78734575.09808        52.344    19553678.153 8  77733706.45908        51.812
E19  24605152.367 6 129300961.14206        41.219                                                    24605148.122 5  96555884.75405        33.906    24605151.421 7  99074753.33207        43.875    24605148.300 7  97815310.12207        43.312
E26  22922281.133 8 120457422.91108        48.250    22922276.743 6  97773846.78706        38.219    22922279.254 6  89951977.17306        41.625    22922282.781 8  92298564.07508        52.031    22922279.470 8  91125265.19708        51.344
E33  25394416.518 7 133448581.93707        43.219    25394411.401 5 108318613.82605        31.250    25394412.331 6  99653138.15906        36.719    25394415.745 7 102252800.38107        46.656    25394412.694 7 100952959.34907        46.156
G10  22763271.092 7 119621793.91607        43.719    22763270.422 7        43.906    22763271.124 7  93211795.23407        43.906    22763271.336 7  93211804.24207        42.875    22763264.633 6  89327951.58306        37.625
G15  23262777.720 5 122246735.04205        35.625    23262777.336 4        26.562    23262775.424 4  95257193.67904        26.562    23262775.937 5  95257200.72205        32.562
G18  20939474.246 7 110037682.06307        46.719    20939473.857 6        39.875    20939472.609 6  85743645.06006        39.875    20939473.054 8  85743650.05408        48.688    20939472.065 7  82170999.93607        42.469
G20  21906033.520 7 115117002.19707        44.469    21906032.197 5        31.812    21906030.760 5  89701551.69605        31.812
G23  22074283.821 7 116001159.57107        43.719    22074283.468 5        32.594    22074282.403 5  90390512.06505        32.594    22074282.724 7  90390512.07307        44.844    22074282.334 6  86624240.95706        39.156
G24  22496306.368 6 118218894.46006        41.000    22496305.895 6        41.594    22496307.129 6  92118617.24906        41.594    22496307.813 7  92118608.25207        43.531    22496303.141 6  88280318.59406        40.000
G25                                                                                                                                  25263797.207 3                        22.844
G29  21929997.094 7 115242920.39107        45.781    21929996.442 7        47.875    21929994.328 7  89799668.97707        47.875    21929995.500 7  89799667.98307        43.156
G32  21986330.681 7 115538954.41107        46.250    21986330.301 8        48.125    21986329.925 8  90030353.73808        48.125    21986331.465 7  90030350.74407        44.500    21986324.647 6  86279069.58406        38.500
I01  42341901.653 7 166158780.97907        43.531
I02  37809793.197 6 148373849.14606        39.344
I03  35940301.629 7 141037539.65207        46.219
I04  38677282.477 6 151777987.48706        38.750
I05  36957065.681 7 145027499.67007        42.000
I06  38152653.236 6 149719318.85006        38.344
I07  43410121.400 6 170350646.80006        38.094
J01                                                  42829897.356 4 175381272.39904        28.000
J03  36993109.841 6 194400199.47206        38.781    36993110.429 6 151480718.35606        40.750    36993106.910 5 145169020.75805        34.094
J07  38436674.848 5 201986120.60305        34.406    38436674.088 7 157391770.76007        43.281    38436671.332 6 150833775.91406        37.750
R03  22610948.428 5 121038201.23505        30.656    22610946.778 5 121038180.27905        31.094    22610953.484 6  94140841.74106        36.906    22610952.623 6  94140839.73506        36.969
R04  20359377.131 6 109023537.65306        40.938    20359378.213 6 109023561.63806        40.906    20359384.075 7  84796125.19907        46.125    20359383.517 7  84796125.20607        46.438
R05  21721161.647 6 116112077.20406        39.469    21721163.397 6 116112082.18806        39.625    21721169.243 7  90309415.70807        42.375    21721169.547 7  90309420.71107        42.062
R17  21456076.527 6 114815803.16106        37.531    21456076.594 6 114815809.15206        37.562    21456082.726 7  89301214.27607        42.656    21456082.712 7  89301240.28007        43.281
R18  19259950.500 7 102810934.17407        45.562    19259950.851 7 102810940.18007        45.562    19259956.837 8  79964084.95808        49.875    19259956.764 8  79964094.96508        49.531
R19                                                                                                                                                  20966501.448 6  87232953.34006        41.312
> 2021 01 03 00 17 30.0000000  0 47
C01  40365898.658 5 210195823.14105        31.844    40365896.666 5                        30.094
C02  35828298.180 7 186567412.14907        45.531    35828294.260 8 144265767.22208        50.062    35828293.532 6 151601305.63006        40.094
C03  37048292.257 7 192920187.81207        42.750    37048290.839 7 149178124.75607        46.250    37048288.020 6 156763439.23406        36.812
C05  36460755.558 7 189860737.37907        44.719    36460753.865 8 146812361.18308        48.469    36460751.814 6 154277383.69806        39.875
C06  37264394.694 7 194045501.55907        43.906    37264393.306 7 150048284.27207        46.938    37264388.660 6 157677830.74006        38.156
C08  37980231.073 6 197773109.55306        39.750    37980228.556 7 152930730.07507        44.688    37980223.394 5 160706843.05305        35.406
C09  35893365.025 7 186906189.47107        47.031    35893365.053 8 144527812.79508        50.344    35893359.032 6 151876562.66806        40.656
C10  39782282.305 5 207156874.43305        32.000    39782284.603 6 160186880.85306        36.750    39782277.697 4 168331895.61204        27.531
C13  36933362.868 7 192321798.13007        45.094    36933367.173 7 148715482.83507        45.406    36933361.358 6 156277227.69606        37.469
C16  37009097.876 7 192716102.43207        46.406    37009101.129 7 149020330.25407        47.062    37009094.585 6 156597596.63906        37.219
C23  25534804.923 6 132966448.90506        39.031                                                    25534795.316 5 108046079.65605        34.938
C25  25766103.862 5                        31.562
C27  22176112.736 8 115476848.76308        50.312                                                    22176110.661 7  93834384.71307        42.031
C28  22052522.822 8 114833276.12108        50.188                                                    22052520.998 7  93311441.57007        43.438
C32  23799172.885 7 123928551.82907        45.125                                                    23799173.241 6 100702096.65806        39.219
C33  26311482.402 4                        28.438
E07  26505078.917 6 139285154.25006        38.469    26505073.519 4 113056092.43004        28.031    26505076.532 5 104011625.04705        32.156    26505080.908 7 106725005.91807        42.781    26505077.106 7 105368306.06307        42.000
E13  26117835.874 6 137250191.58106        40.406    26117831.962 4 111404344.42304        29.562    26117833.139 5 102492033.33905        34.344    26117836.206 7 105165748.67307        43.406    26117832.795 7 103828890.08107        42.938
E18  19557517.255 8 102775456.24708        48.312    19557511.235 6  83421601.99806        37.625    19557513.358 7  76747891.16807        42.312    19557517.286 8  78750019.24908        52.312    19557513.725 8  77748954.28508        51.656
E19  24598843.062 6 129267806.37906        41.031                                                    24598839.222 5  96531126.33305        33.219    24598842.377 7  99049349.03707        44.062    24598839.198 7  97790228.76107        43.219
E26  22919763.647 8 120444193.86308        48.375    22919759.312 6  97763108.92306        38.094    22919761.911 6  89942098.31406        41.375    22919765.272 8  92288427.52608        51.938    22919762.081 8  91115257.49808        51.188
E33  25381525.470 7 133380838.53807        43.438    25381520.362 5 108263627.33205        31.625    25381521.062 6  99602550.54006        36.500    25381524.954 7 102200893.09207        46.844    25381521.538 7 100901711.89707        46.156
G10  22761901.031 7 119614594.29407        43.406    22761900.365 7        44.375    22761901.328 7  93206185.13907        44.375    22761901.558 7  93206194.14707        43.844    22761894.771 6  89322575.24406        38.000
G15  23282219.041 6 122348899.87906        36.812    23282218.621 4        27.562    23282216.729 4  95336802.65104        27.562    23282218.159 5  95336809.63805        33.281
G18  20933165.680 7 110004529.99607        47.375    20933165.296 6        40.219    20933163.986 6  85717812.27606        40.219    20933164.753 8  85717817.27908        48.594    20933163.588 7  82146243.51307        42.500
G20  21906542.724 7 115119675.43107        44.625    21906541.414 5        32.344    21906539.774 5  89703634.72205        32.344
G23  22077165.891 7 116016304.33607        44.031    22077165.520 5        33.062    22077164.596 5  90402313.16905        33.062    22077164.784 7  90402313.16907        44.812    22077164.077 6  86635550.35506        39.031
G24  22496116.971 6 118217900.40606        40.812    22496116.475 6        41.969    22496118.100 6  92117842.65706        41.969    22496118.266 7  92117833.65107        43.469    22496113.804 6  88279576.28306        39.500
G25                                                                                                                                  25267892.869 3                        22.312
G29  21946925.318 7 115331880.27307        45.781    21946924.643 7        47.781    21946922.777 7  89868988.37107        47.781    21946923.822 7  89868987.37307        43.312
G32  21973287.399 7 115470412.06907        47.531    21973287.019 8        49.000    21973287.140 8  89976944.12208        49.000    21973288.211 7  89976941.13107        45.438    21973281.474 6  86227885.35206        38.562
I01  42357284.832 7 166219147.36107        43.875
I02  37811231.940 6 148379495.15306        39.656
I03  35940252.437 7 141037346.77507        46.344
I04  38675379.969 6 151770523.20806        38.688
I05  36956761.647 6 145026307.27706        41.906
I06  38152769.446 6 149719775.94406        38.781
I07  43406732.296 6 170337348.43406        38.375
J01                                                  42829008.436 4 175377630.19204        27.594
J03  36993792.107 6 194403785.22506        39.125    36993792.543 6 151483512.45006        40.594    36993789.057 5 145171698.42505        34.219
J07  38436662.502 5 201986057.57705        35.094    38436662.430 7 157391721.62107        43.344    38436659.214 6 150833728.80606        37.656
R03  22628802.611 5 121133778.41405        30.188    22628801.506 5 121133757.46005        31.281    22628808.209 6  94215179.57306        36.750    22628809.905 6  94215177.53506        36.781
R04  20368232.977 6 109070958.59906        40.406    20368233.599 6 109070982.60606        40.562    20368239.417 7  84833008.16507        45.969    20368238.907 7  84833008.18107        46.531
R05  21714243.767 6 116075087.02706        37.938    21714243.716 6 116075092.03406        38.906    21714249.415 7  90280645.57707        42.469    21714249.948 6  90280650.58206        41.531
R17  21474037.050 6 114911916.16506        37.500    21474037.638 6 114911922.16906        37.688    21474043.453 7  89375968.82407        42.125    21474043.436 6  89375994.83006        41.969
R18  19258940.799 7 102805543.65407        45.812    19258941.140 7 102805549.66007        45.438    19258947.067 8  79959892.32208        49.781    19258946.767 8  79959902.33508        49.500
R19                                                                                                                                                  20947434.259 6  87153623.56106        41.250
> 2021 01 03 00 18  0.0000000  0 47
C01  40365927.264 5 210195970.70705        31.156    40365924.471 4                        29.969
C02  35828281.671 7 186567326.15807        45.344    35828278.020 8 144265700.72308        50.156    35828276.939 6 151601235.75306        40.062
C03  37048406.857 7 192920785.30107        42.719    37048405.461 7 149178586.76807        46.406    37048402.669 6 156763924.76206        36.562
C05  36460746.133 7 189860686.94707        44.625    36460744.172 8 146812322.18008        48.500    36460742.147 6 154277342.71706        39.625
C06  37267033.044 7 194059238.42007        43.781    37267031.228 7 150058906.48607        47.062    37267026.670 6 157688993.07306        38.094
C08  37975740.299 6 197749726.52906        39.625    37975738.003 7 152912648.85307        44.844    37975733.275 5 160687842.43705        35.438
C09  35892794.314 7 186903217.47407        46.781    35892794.261 8 144525514.67308        50.656    35892788.103 6 151874147.69706        40.625
C10  39785196.935 5 207172048.25505        31.969    39785198.163 6 160198614.23806        36.062    39785191.255 4 168344225.60804        27.625
C13  36928237.792 7 192295111.01007        45.062    36928242.229 7 148694846.66607        45.531    36928236.369 6 156255542.22606        37.406
C16  37011562.522 7 192728934.86007        46.188    37011565.379 7 149030253.09207        47.312    37011559.072 6 156608024.04606        37.094
C23  25525948.208 6 132920322.50106        39.750                                                    25525937.328 5 108008598.15305        34.531
C25  25760659.925 5                        33.344
C27  22167082.368 8 115429825.39008        50.250                                                    22167080.436 7  93796174.36007        42.125
C28  22060878.665 8 114876786.60908        49.938                                                    22060876.682 7  93346797.40007        43.375
C32  23797453.537 7 123919596.41407        45.219                                                    23797453.756 6 100694819.63106        39.625
C33  26323491.876 4                        27.688
E07  26519159.642 6 139359148.41406        38.188    26519154.846 4 113116152.62604        27.250    26519157.265 5 104066880.44805        32.500    26519161.576 7 106781702.73007        42.969    26519157.643 7 105424282.15707        42.312
E13  26127626.008 6 137301639.05606        39.250    26127622.158 4 111446103.70904        28.438    26127622.983 5 102530451.90205        34.531    26127627.019 7 105205169.46507        44.500    26127623.037 7 103867809.75807        43.906
E18  19561581.857 8 102796815.70208        48.906    19561575.950 6  83438939.22406        37.500    19561578.137 7  76763841.40507        42.719    19561581.669 8  78766385.58808        52.062    19561578.343 8  77765112.57508        51.750
E19  24592593.205 6 129234963.31806        41.406                                                    24592589.081 5  96506600.66105        34.094    24592592.810 7  99024183.56007        44.312    24592589.314 7  97765383.18607        43.750
E26  22917303.118 8 120431263.25808        48.375    22917298.768 6  97752613.29306        38.188    22917301.142 6  89932442.34006        41.844    22917304.667 8  92278519.65508        51.875    22917301.517 8  91105475.57408        51.375
E33  25368647.371 7 133313164.38007        43.531    25368642.598 5 108208696.96305        31.781    25368642.935 6  99552014.64906        37.438    25368646.766 7 102149038.86707        46.688    25368643.548 7 100850516.83907        46.375
G10  22760532.956 7 119607403.62507        43.188    22760532.295 7        44.438    22760533.848 7  93200582.01407        44.438    22760533.033 7  93200591.02507        43.219    22760526.589 6  89317205.58406        38.375
G15  23301679.234 6 122451166.64306        37.875    23301678.756 4        28.625    23301677.620 4  95416491.04704        28.625    23301678.946 5  95416498.04405        33.781
G18  20926905.416 7 109971632.82907        47.062    20926905.036 6        40.156    20926903.934 6  85692178.11706        40.156    20926904.514 8  85692183.11808        48.250    20926903.507 7  82121677.45607        42.781
G20  21907043.097 7 115122306.33707        45.031    21907041.787 5        32.656    21907040.436 5  89705684.77205        32.656
G23  22080040.781 7 116031411.31707        44.438    22080040.410 5        33.500    22080039.224 5  90414084.84405        33.500    22080039.488 7  90414084.84907        43.625    22080038.665 6  86646831.54406        39.031
G24  22496015.733 6 118217366.69706        41.500    22496015.260 7        42.719    22496016.411 7  92117426.76707        42.719    22496016.871 7  92117417.76507        43.469    22496012.788 6  88279177.72106        39.250
G25                                                                                                                                  25271929.789 3                        22.219
G29  21963908.746 7 115421126.94707        45.719    21963908.071 7        47.844    21963906.344 7  89938531.23307        47.844    21963907.018 7  89938530.24307        43.656
G32  21960318.820 7 115402261.42907        47.156    21960318.445 8        49.438    21960319.395 8  89923839.73508        49.438    21960319.387 7  89923836.73707        45.406    21960312.610 6  86176993.64106        38.750
I01  42372661.876 7 166279491.86707        43.875
I02  37812658.933 6 148385097.47206        39.781
I03  35940204.081 7 141037156.67407        46.406
I04  38673468.254 6 151763020.89706        39.000
I05  36956455.032 6 145025102.45906        41.719
I06  38152886.254 6 149720232.46206        38.562
I07  43403343.665 6 170324051.14306        38.188
J01                                                  42828098.589 4 175373906.33804        27.125
J03  36994498.298 6 194407494.58506        38.094    36994498.730 6 151486402.84706        40.906    36994494.867 5 145174468.41905        33.375
J07  38436650.568 5 201985995.43205        34.688    38436650.304 7 157391673.22507        43.094    38436647.428 6 150833682.42506        37.562
R03  22646636.899 5 121229251.16105        30.938    22646637.880 5 121229230.13705        30.938    22646644.188 6  94289436.05806        38.375    22646643.748 6  94289434.03906        38.594
R04  20377151.011 6 109118704.78106        40.188    20377150.506 6 109118728.81406        40.469    20377155.381 7  84870144.10007        46.031    20377155.451 7  84870144.10407        46.406
R05  21707415.502 6 116038584.12106        37.812    21707414.569 6 116038589.14606        38.219    21707420.595 6  90252254.46606        41.875    21707421.512 6  90252259.44206        41.688
R17  21492090.484 6 115008522.86206        37.062    21492090.661 6 115008528.86206        36.969    21492096.560 7  89451107.39107        42.438    21492096.977 7  89451133.39507        42.406
R18  19258071.547 7 102800902.66407        45.500    19258071.494 7 102800908.66607        45.250    19258077.582 8  79956282.66808        49.688    19258077.500 8  79956292.67508        49.312
R19                                                                                                                                                  20928432.518 6  87074564.78006        41.844
> 2021 01 03 00 18 30.0000000  0 47
C01  40365955.866 5 210196118.36005        30.594    40365953.091 5                        30.312
C02  35828265.261 7 186567239.98607        45.281    35828261.507 8 144265634.09208        50.344    35828260.488 6 151601165.73006        40.031
C03  37048521.757 7 192921382.32507        42.594    37048519.972 7 149179048.43107        46.438    37048517.252 6 156764409.88006        36.875
C05  36460736.645 7 189860637.19507        44.781    36460734.608 8 146812283.71408        48.531    36460732.646 6 154277302.28706        39.875
C06  37269691.367 7 194073082.50107        43.781    37269690.145 7 150069611.60607        47.312    37269685.167 6 157700242.51806        38.156
C08  37971263.972 6 197726410.16206        40.562    37971260.568 7 152894619.15807        45.000    37971255.576 5 160668896.00005        35.375
C09  35892251.357 7 186900390.66607        46.719    35892251.339 8 144523328.79708        50.719    35892245.247 6 151871850.67506        40.688
C10  39788083.170 5 207187082.50905        32.094    39788085.403 6 160210239.66306        36.062    39788078.344 4 168356442.15604        27.531
C13  36923115.570 7 192268438.16407        45.219    36923120.268 7 148674221.52307        45.938    36923114.293 6 156233868.34406        37.812
C16  37014049.991 7 192741890.13307        45.969    37014053.287 7 149040270.94907        47.438    37014047.280 6 156618551.26306        37.250
C23  25517061.953 6 132874047.66006        38.906                                                    25517051.246 5 107970996.01105        35.312
C25  25755237.637 5                        33.781
C27  22158128.436 8 115383197.41608        50.188                                                    22158126.016 7  93758285.31607        42.156
C28  22069316.180 8 114920723.88508        50.375                                                    22069314.458 7  93382500.04507        43.469
C32  23795772.430 7 123910843.72107        44.750                                                    23795773.022 6 100687707.35806        39.625
C33  26335473.049 4                        27.938
E07  26533241.692 6 139433149.98906        37.938    26533235.552 4 113176218.88304        26.750    26533239.721 5 104122141.35005        32.812    26533244.036 7 106838405.21707        43.031    26533239.660 7 105480263.85707        42.406
E13  26137467.675 6 137353359.30306        39.219    26137463.388 4 111488084.38104        28.469    26137465.252 5 102569074.14705        34.688    26137469.208 7 105244799.26207        45.188    26137465.289 7 103906935.78207        44.438
E18  19565874.613 8 102819374.54308        48.938    19565868.816 6  83457249.97106        37.625    19565871.082 7  76780687.30107        42.812    19565874.418 8  78783670.92808        51.906    19565871.126 8  77782178.18908        51.656
E19  24586402.382 6 129202430.79506        41.688                                                    24586398.351 5  96482306.89705        34.031    24586402.203 7  98999256.04307        44.344    24586398.559 7  97740772.54307        43.750
E26  22914899.344 8 120418631.26808        48.094    22914895.008 6  97742360.06406        38.438    22914897.643 7  89923009.36107        42.062    22914900.832 8  92268840.59508        51.844    22914897.752 8  91095919.55308        51.406
E33  25355782.883 7 133245560.16707        43.844    25355778.098 5 108153823.42405        31.250    25355778.456 6  99501530.97906        37.562    25355782.016 7 102097238.22307        46.719    25355778.834 7 100799374.68207        46.438
G10  22759165.560 7 119600219.45307        43.531    22759164.885 7        43.812    22759166.118 7  93194983.96307        43.812    22759165.602 7  93194992.98207        43.594    22759159.311 6  89311840.80606        38.531
G15  23321159.609 6 122553531.45806        36.656    23321159.136 4        28.844    23321157.547 4  95496255.84304        28.844    23321157.697 5  95496262.84705        34.156
G18  20920694.184 7 109938991.71707        46.500    20920693.800 6        39.844    20920692.206 6  85666743.48206        39.844    20920693.166 8  85666748.48208        48.500    20920692.040 7  82097302.59907        42.938
G20  21907535.518 7 115124893.31007        45.312    21907534.217 5        32.719    21907532.606 5  89707700.59305        32.719
G23  22082908.185 7 116046478.48007        44.219    22082907.819 5        33.281    22082906.085 5  90425825.50205        33.281    22082906.930 7  90425825.50007        44.188    22082906.041 6  86658083.00006        39.281
G24  22496001.664 6 118217294.82506        40.719    22496001.199 7        42.312    22496002.728 7  92117370.75507        42.312    22496003.403 7  92117361.75907        43.812    22495998.997 6  88279124.04606        39.281
G25                                                                                                                                  25275896.666 3                        22.531
G29  21980944.982 7 115510656.28107        45.844    21980944.307 7        47.469    21980943.119 7  90008294.35307        47.469    21980943.771 7  90008293.35007        43.031
G32  21947424.892 7 115334502.82407        47.500    21947424.517 8        49.688    21947425.270 8  89871040.81808        49.688    21947425.395 7  89871037.81707        45.500    21947418.884 6  86126394.68206        38.688
I01  42388034.198 7 166339813.60507        44.312
I02  37814076.101 6 148390657.53406        39.812
I03  35940155.874 7 141036968.47307        46.688
I04  38671547.072 6 151755479.88206        39.281
I05  36956144.374 7 145023884.50407        42.125
I06  38153001.905 6 149720687.60406        38.750
I07  43399955.721 6 170310754.14206        38.531
J01                                                  42827167.193 4 175370099.88304        27.875
J03  36995227.738 6 194411326.19006        37.562    36995227.821 6 151489388.51306        40.562    36995224.388 5 145177329.64705        33.531
J07  38436639.140 5 201985933.16505        34.531    38436638.728 7 157391624.69507        43.188    38436635.526 6 150833635.91406        37.875
R03  22664453.732 5 121324615.68405        30.094    22664452.615 5 121324594.74905        30.219    22664459.170 6  94363608.48606        39.531    22664457.878 6  94363606.49906        40.031
R04  20386126.481 6 109166771.54406        40.562    20386126.623 6 109166795.57006        40.594    20386131.877 7  84907529.37807        46.000    20386131.077 7  84907529.37407        46.344
R05  21700677.536 6 116002566.69006        37.719    21700676.849 6 116002571.71306        38.000    21700683.742 7  90224240.88607        43.281    21700683.448 7  90224245.90507        43.312
R17  21510235.564 6 115105618.95606        36.938    21510235.535 6 115105624.98006        37.094    21510241.949 7  89526626.57707        42.906    21510241.288 7  89526652.58507        43.875
R18  19257342.402 7 102797011.62607        45.688    19257342.569 7 102797017.62707        45.219    19257348.636 8  79953256.29908        49.625    19257348.615 8  79953266.30908        49.438
R19                                                                                                                                                  20909496.715 7  86995779.54607        42.281
> 2021 01 03 00 19  0.0000000  0 47
C01  40365984.164 5 210196266.22405        30.906    40365982.225 5                        30.875
C02  35828248.875 7 186567154.03807        45.344    35828244.776 8 144265567.62808        50.438    35828244.111 6 151601095.86906        39.781
C03  37048636.031 7 192921979.08407        42.562    37048634.809 7 149179509.88507        46.562    37048632.002 6 156764894.78606        36.812
C05  36460727.127 7 189860588.31707        44.688    36460725.322 8 146812245.91308        48.656    36460723.204 6 154277262.57706        39.750
C06  37272370.595 7 194087033.57707        43.719    37272369.122 7 150080399.46607        47.344    37272364.283 6 157711578.90406        38.031
C08  37966798.590 6 197703161.15606        40.719    37966795.473 7 152876641.56307        44.562    37966790.739 5 160650004.28505        35.625
C09  35891736.737 7 186897709.11307        46.781    35891736.376 8 144521255.25508        50.750    35891730.266 6 151869671.68806        40.469
C10  39790944.596 5 207201977.03805        32.312    39790945.826 6 160221757.06706        36.438    39790939.305 4 168368545.17304        27.281
C13  36917996.475 7 192241780.52607        45.625    36918001.188 7 148653608.14907        46.500    36917995.136 6 156212206.83206        37.750
C16  37016561.349 7 192754968.07807        45.969    37016564.600 7 149050383.64207        47.406    37016558.347 6 156629178.15406        37.312
C23  25508146.414 6 132827626.21706        39.844                                                    25508136.407 5 107933274.82305        35.031
C25  25749839.136 5 134086170.04115        33.281
C27  22149250.096 8 115336966.73508        50.438                                                    22149247.786 7  93720719.10607        42.125
C28  22077835.397 8 114965087.10908        50.156                                                    22077833.838 7  93418548.78807        43.344
C32  23794130.429 7 123902292.53807        45.375                                                    23794130.629 6 100680758.81506        39.188
C33  26347417.667 3                        23.062
E07  26547324.756 6 139507157.61006        37.375    26547320.208 4 113236289.90704        27.094    26547322.584 5 104177406.74005        32.000    26547326.875 7 106895112.34907        42.906    26547322.858 7 105536250.12707        42.188
E13  26147361.922 6 137405352.06006        39.250    26147357.246 4 111530286.30104        28.594    26147359.177 5 102607899.88705        34.781    26147362.701 7 105284637.87507        44.938    26147359.261 7 103946267.96007        44.344
E18  19570395.188 8 102843129.81508        49.188    19570389.292 6  83476531.85506        37.844    19570391.444 7  76798426.62607        42.688    19570394.699 8  78801873.02008        51.906    19570391.543 8  77800148.89908        51.562
E19  24580270.768 6 129170208.97406        41.938                                                    24580266.700 5  96458245.13105        34.125    24580270.467 7  98974566.58607        44.312    24580266.937 7  97716396.93607        43.656
E26  22912552.721 8 120406299.38908        48.281    22912548.529 6  97732350.41406        37.906    22912550.862 6  89913800.48806        41.781    22912554.166 8  92259391.49208        51.906    22912551.028 8  91086590.56608        51.344
E33  25342931.785 7 133178027.92507        43.875    25342926.681 5 108099008.30205        31.188    25342927.335 6  99451101.05606        37.406    25342931.113 7 102045492.73607        46.844    25342927.866 7 100748286.97507        46.438
G10  22757799.423 7 119593040.68407        43.500    22757798.748 7        43.625    22757799.637 7  93189390.12307        43.625    22757799.663 7  93189399.12807        42.531    22757793.222 6  89306480.00906        38.469
G15  23340657.153 6 122655991.77406        36.906    23340656.702 4        28.906    23340655.156 4  95576095.03304        28.906    23340654.781 5  95576102.02905        33.219
G18  20914532.053 7 109906609.11607        46.375    20914531.664 6        40.188    20914530.334 6  85641510.28306        40.188    20914530.944 8  85641515.28508        48.625    20914529.798 7  82073120.77707        43.094
G20  21908019.237 7 115127436.64107        45.375    21908017.932 5        32.844    21908016.473 5  89709682.41105        32.844
G23  22085767.714 7 116061505.23907        43.531    22085767.348 5        32.969    22085765.722 5  90437534.66705        32.969    22085766.265 7  90437534.67707        43.969    22085765.309 6  86669304.29006        39.156
G24  22496076.231 6 118217685.65706        40.938    22496075.762 7        42.156    22496077.181 7  92117675.28107        42.156    22496077.457 7  92117666.28407        43.625    22496073.233 6  88279415.86906        39.156
G25                                                                                                                                  25279802.640 4                        24.031
G29  21998035.530 7 115600465.47107        45.375    21998034.873 7        47.375    21998033.036 7  90078275.54507        47.375    21998034.020 7  90078274.55107        42.938
G32  21934605.563 7 115267137.91907        47.719    21934605.170 8        49.656    21934605.585 8  89818548.68608        49.656    21934605.972 7  89818545.69407        45.312    21934599.794 6  86076089.73306        38.719
I01  42403399.809 7 166400112.73307        44.062
I02  37815482.447 6 148396173.64606        39.781
I03  35940108.602 7 141036782.32607        46.594
I04  38669615.439 6 151747900.40006        39.344
I05  36955831.138 7 145022653.65007        42.094
I06  38153117.681 6 149721141.52006        38.469
I07  43396567.042 6 170297457.59906        38.312
J01                                                  42826218.981 4 175366210.98704        27.375
J03  36995980.032 6 194415280.04706        38.000    36995980.165 6 151492469.42306        40.812    36995976.757 5 145180282.20805        33.500
J07  38436626.818 5 201985870.97405        34.656    38436626.867 7 157391576.23107        43.156    38436623.731 6 150833589.47906        38.000
R03  22682247.868 5 121419869.57205        30.469    22682246.169 5 121419848.56805        30.719    22682252.469 6  94437694.78506        37.938    22682251.206 6  94437692.80806        38.906
R04  20395162.761 6 109215155.32506        40.000    20395161.542 6 109215179.35506        40.188    20395166.908 7  84945161.20607        45.812    20395166.961 7  84945161.20807        45.906
R05  21694031.496 6 115967034.16206        38.344    21694030.289 6 115967039.21406        38.562    21694036.113 7  90196604.47407        42.938    21694036.194 7  90196609.49707        42.750
R17  21528470.231 6 115203201.57306        37.625    21528471.224 6 115203207.56206        37.062    21528477.307 7  89602524.13307        43.031    21528476.652 7  89602550.14607        43.500
R18  19256754.811 7 102793871.95107        45.531    19256754.717 7 102793877.95507        45.594    19256760.788 8  79950814.33008        50.094    19256760.662 8  79950824.33308        49.656
R19                                                                                                                                                  20890627.488 6  86917271.79706        41.938
> 2021 01 03 00 19 30.0000000  0 47
C01  40366012.997 5 210196413.42205        31.781    40366010.522 5                        30.656
C02  35828232.013 7 186567067.22007        45.469    35828228.446 8 144265500.50008        50.344    35828227.351 6 151601025.34506        39.844
C03  37048750.649 7 192922574.59807        42.875    37048749.165 7 149179970.37407        46.562    37048746.330 6 156765378.68106        36.500
C05  36460717.889 7 189860539.35807        44.750    36460715.910 8 146812208.06108        48.656    36460713.773 6 154277222.78706        39.500
C06  37275070.180 7 194101090.24807        43.750    37275068.390 7 150091268.97907        47.094    37275064.138 6 157723001.11206        37.812
C08  37962346.270 6 197679979.48206        40.500    37962343.834 7 152858715.99107        44.625    37962339.189 5 160631167.24005        35.375
C09  35891249.356 7 186895171.72507        47.094    35891249.072 8 144519293.18008        50.750    35891243.009 6 151867609.85406        40.344
C10  39793779.082 5 207216730.86605        32.781    39793778.499 6 160233165.65106        36.438    39793771.843 4 168380533.85804        26.406
C13  36912879.801 7 192215137.66307        45.719    36912884.707 7 148633006.19607        46.719    36912879.028 6 156190557.33306        37.969
C16  37019095.850 7 192768167.21707        45.906    37019099.139 7 149060590.05907        47.344    37019092.907 6 156639903.54506        36.844
C23  25499203.688 6 132781058.94406        39.938                                                    25499193.594 5 107895435.05805        34.906
C25  25744462.945 5 134058181.76905        30.562
C27  22140448.085 8 115291134.06708        50.469                                                    22140445.884 6  93683476.30006        41.656
C28  22086436.312 8 115009874.22108        50.188                                                    22086434.635 7  93454941.98007        42.875
C32  23792526.678 7 123893940.57207        46.094                                                    23792526.846 6 100673972.16906        39.188
C33  26359335.427 4                        25.812
E07  26561408.682 6 139581168.70606        37.781    26561403.350 4 113296363.87904        27.031    26561406.238 5 104232674.76905        32.156    26561410.568 7 106951822.14707        42.781    26561406.640 7 105592239.03907        42.062
E13  26157307.773 6 137457615.83706        40.375    26157303.207 4 111572708.22804        28.812    26157304.238 5 102646928.05505        34.969    26157308.029 7 105324684.14307        44.344    26157304.690 7 103985805.17107        44.031
E18  19575142.364 8 102868077.30308        48.969    19575136.591 6  83496781.42106        37.812    19575138.602 7  76817056.23507        42.438    19575142.191 8  78820988.62008        51.938    19575138.892 8  77819021.50408        51.500
E19  24574198.179 6 129138296.81006        41.219                                                    24574194.086 5  96434414.62405        34.156    24574197.646 7  98950114.41107        44.000    24574194.285 7  97692255.58907        43.469
E26  22910263.240 8 120394267.89308        48.250    22910259.051 6  97722584.58206        38.594    22910261.273 6  89904815.92906        41.844    22910264.798 8  92250172.54608        52.031    22910261.431 8  91077488.81508        51.438
E33  25330094.734 7 133110568.45607        43.812    25330089.804 5 108044252.21605        32.125    25330090.497 6  99400725.47806        37.406    25330094.185 7 101993803.00907        46.812    25330090.871 7 100697254.31807        46.438
G10  22756434.032 7 119585864.95807        43.781    22756433.344 7        43.781    22756433.762 7  93183798.65607        43.781    22756434.202 7  93183807.66607        42.562    22756427.867 6  89301121.51806        38.250
G15  23360172.078 6 122758543.88906        36.125    23360171.663 4        28.219    23360170.036 4  95656005.78504        28.219    23360170.853 5  95656012.80105        32.781
G18  20908419.380 7 109874486.38807        47.000    20908418.996 6        40.406    20908417.733 6  85616479.58106        40.406    20908418.102 8  85616484.58108        48.750    20908417.155 7  82049133.02407        43.000
G20  21908494.802 7 115129934.46007        44.656    21908493.492 5        32.688    21908491.709 5  89711628.76305        32.688
G23  22088619.163 7 116076489.72507        44.031    22088618.774 5        32.562    22088616.891 5  90449210.88605        32.562    22088617.595 7  90449210.89307        43.250    22088617.111 6  86680493.98706        39.062
G24  22496238.427 6 118218539.10306        41.250    22496237.976 7        42.531    22496240.019 7  92118340.29907        42.531    22496239.872 7  92118331.30507        43.844    22496235.670 6  88280053.19706        38.844
G25                                                                                                                                  25283645.405 3                        22.438
G29  22015177.771 7 115690550.43907        45.625    22015177.110 7        47.406    22015175.390 7  90148471.62607        47.406    22015176.364 7  90148470.62107        43.188
G32  21921861.559 7 115200167.14207        47.531    21921861.170 8        49.844    21921861.259 8  89766363.66808        49.844    21921862.069 7  89766360.67407        45.281    21921855.592 6  86026079.08806        38.719
I01  42418759.673 7 166460388.35907        43.875
I02  37816876.494 6 148401646.50906        39.906
I03  35940061.319 7 141036597.55907        46.375
I04  38667673.789 6 151740281.73306        38.781
I05  36955513.889 7 145021409.18007        42.031
I06  38153232.580 6 149721593.42806        38.531
I07  43393179.026 6 170284160.76606        38.062
J01                                                  42825249.956 4 175362238.70604        27.438
J03  36996755.639 6 194419354.91206        37.906    36996755.671 6 151495644.63806        40.906    36996752.143 5 145183325.11505        33.531
J07  38436614.664 5 201985807.82305        34.531    38436615.098 7 157391527.01907        42.969    38436611.725 6 150833542.30406        37.812
R03  22700020.705 5 121515009.50305        31.375    22700020.020 5 121514988.50205        31.594    22700025.537 6  94511692.49406        37.875    22700024.403 6  94511690.51406        38.219
R04  20404254.687 6 109263851.79506        40.562    20404255.498 6 109263875.79906        40.562    20404260.905 7  84983036.21807        46.375    20404260.627 7  84983036.22507        46.469
R05  21687473.474 6 115931984.75306        38.969    21687473.794 6 115931989.78106        39.281    21687479.430 7  90169343.80607        42.594    21687479.045 7  90169348.82207        42.594
R17  21546796.863 6 115301266.86706        36.156    21546796.666 5 115301272.90105        35.969    21546802.574 7  89678797.16207        42.375    21546802.400 7  89678823.17707        42.562
R18  19256307.199 7 102791483.99107        45.750    19256307.133 7 102791489.98607        45.406    19256313.485 8  79948957.02808        50.000    19256313.269 8  79948967.03108        49.750
R19                                                                                                                                                  20871825.815 7  86839043.72107        42.031
