     3.03           OBSERVATION DATA    M (MIXED)           RINEX VERSION / TYPE
RTCM2RINEX 1.2.19   NRCan               20210103 00:19:48UTCPGM / RUN BY / DATE
gfzrnx-1.11-7352    FILE MERGE          20210104 002459 UTC COMMENT
 -2218337.8500 -2201205.0600  5543057.5700                  APPROX POSITION XYZ
Topcon GPS -    L1 Phase aligned to CA and L2 aligned to P2 COMMENT
GLONASS- L1 Phase aligned to C1 and L2 aligned to C2        COMMENT
This data is subject to the Open Government Licence- Canada COMMENT
https://open.canada.ca/en/open-government-licence-canada    COMMENT
DBHZ                                                        SIGNAL STRENGTH UNIT
    18                  GPS                                 LEAP SECONDS
     1     1                                                WAVELENGTH FACT L1/2
G L1C                                                       SYS / PHASE SHIFT
G L1W -0.25000                                              SYS / PHASE SHIFT
G L2L  0.25000                                              SYS / PHASE SHIFT
G L2W                                                       SYS / PHASE SHIFT
R L1C                                                       SYS / PHASE SHIFT
R L1P -0.25000                                              SYS / PHASE SHIFT
R L2C                                                       SYS / PHASE SHIFT
R L2P -0.25000                                              SYS / PHASE SHIFT
618-00846           TPS NET-G3A         4.7 Nov,23,2017 p6  REC # / TYPE / VERS
WHIT CACS-GSD 7787017 Whitehorse YT Canada                  MARKER NAME
        0.1000        0.0000        0.0000                  ANTENNA: DELTA H/E/N
40136M001                                                   MARKER NUMBER
ACSOPS              NRCan                                   OBSERVER / AGENCY
 24 R01  1 R02 -4 R03  5 R04  6 R05  1 R06 -4 R07  5 R08  6 GLONASS SLOT / FRQ #
    R09 -2 R10 -7 R11  0 R12 -1 R13 -2 R14 -7 R15  0 R16 -1 GLONASS SLOT / FRQ #
    R17  4 R18 -3 R19  3 R20  2 R21  4 R22 -3 R23  3 R24  2 GLONASS SLOT / FRQ #
 C1C    0.000 C1P    0.000 C2C    0.000 C2P    0.000        GLONASS COD/PHS/BIS
289                 AOAD/M_T        NONE                    ANT # / TYPE
G   16 C1C C1W C2L C2W D1C D1W D2L D2W L1C L1W L2L L2W S1C  SYS / # / OBS TYPES
       S1W S2L S2W                                          SYS / # / OBS TYPES
R   16 C1C C1P C2C C2P D1C D1P D2C D2P L1C L1P L2C L2P S1C  SYS / # / OBS TYPES
       S1P S2C S2P                                          SYS / # / OBS TYPES
    56                                                      # OF SATELLITES
   G01  1012  1012  1012  1012  1012  1012  1012  1012  1012PRN / # OF OBS
        1012  1012  1012  1012  1012  1012  1012            PRN / # OF OBS
   G02  1065  1065        1065  1065  1065        1065  1065PRN / # OF OBS
        1065        1065  1065  1065        1065            PRN / # OF OBS
   G03   979   979   979   979   979   979   979   979   979PRN / # OF OBS
         979   979   979   979   979   979   979            PRN / # OF OBS
   G04   938   938   938   938   938   938   938   938   938PRN / # OF OBS
         938   938   938   938   938   938   938            PRN / # OF OBS
   G05  1051  1050  1051  1050  1051  1050  1051  1050  1051PRN / # OF OBS
        1050  1051  1050  1051  1050  1051  1050            PRN / # OF OBS
   G06  1058  1058  1058  1058  1058  1058  1058  1058  1058PRN / # OF OBS
        1058  1058  1058  1058  1058  1058  1058            PRN / # OF OBS
   G07   990   990   990   990   990   990   990   990   990PRN / # OF OBS
         990   990   990   990   990   990   990            PRN / # OF OBS
   G08  1051  1050  1051  1050  1051  1050  1051  1050  1051PRN / # OF OBS
        1050  1051  1050  1051  1050  1051  1050            PRN / # OF OBS
   G09   962   962   962   962   962   962   962   962   962PRN / # OF OBS
         962   962   962   962   962   962   962            PRN / # OF OBS
   G10  1001  1001  1001  1001  1001  1001  1001  1001  1001PRN / # OF OBS
        1001  1001  1001  1001  1001  1001  1001            PRN / # OF OBS
   G11  1007  1007        1007  1007  1007        1007  1007PRN / # OF OBS
        1007        1007  1007  1007        1007            PRN / # OF OBS
   G12   978   978   978   978   978   978   978   978   978PRN / # OF OBS
         978   978   978   978   978   978   978            PRN / # OF OBS
   G13  1029  1029        1029  1029  1029        1029  1029PRN / # OF OBS
        1029        1029  1029  1029        1029            PRN / # OF OBS
   G14   974   974   974   974   974   974   974   974   974PRN / # OF OBS
         974   974   974   974   974   974   974            PRN / # OF OBS
   G15  1033  1029  1033  1029  1033  1029  1033  1029  1033PRN / # OF OBS
        1029  1033  1029  1033  1029  1033  1029            PRN / # OF OBS
   G16  1011  1011        1011  1011  1011        1011  1011PRN / # OF OBS
        1011        1011  1011  1011        1011            PRN / # OF OBS
   G17  1060  1060  1060  1060  1060  1060  1060  1060  1060PRN / # OF OBS
        1060  1060  1060  1060  1060  1060  1060            PRN / # OF OBS
   G18   966   966   966   966   966   966   966   966   966PRN / # OF OBS
         966   966   966   966   966   966   966            PRN / # OF OBS
   G19  1017  1017        1017  1017  1017        1017  1017PRN / # OF OBS
        1017        1017  1017  1017        1017            PRN / # OF OBS
   G20   985   985         985   985   985         985   985PRN / # OF OBS
         985         985   985   985         985            PRN / # OF OBS
   G21  1053  1053        1053  1053  1053        1053  1053PRN / # OF OBS
        1053        1053  1053  1053        1053            PRN / # OF OBS
   G22   969   969         969   969   969         969   969PRN / # OF OBS
         969         969   969   969         969            PRN / # OF OBS
   G23  1018  1018  1018  1018  1018  1018  1018  1018  1018PRN / # OF OBS
        1018  1018  1018  1018  1018  1018  1018            PRN / # OF OBS
   G24   985   985   985   985   985   985   985   985   985PRN / # OF OBS
         985   985   985   985   985   985   985            PRN / # OF OBS
   G25   998   998   998   998   998   998   998   998   998PRN / # OF OBS
         998   998   998   998   998   998   998            PRN / # OF OBS
   G26  1038  1034  1038  1034  1038  1034  1038  1034  1038PRN / # OF OBS
        1034  1038  1034  1038  1034  1038  1034            PRN / # OF OBS
   G27  1026  1026  1026  1026  1026  1026  1026  1026  1026PRN / # OF OBS
        1026  1026  1026  1026  1026  1026  1026            PRN / # OF OBS
   G28  1016  1016        1016  1016  1016        1016  1016PRN / # OF OBS
        1016        1016  1016  1016        1016            PRN / # OF OBS
   G29   984   984   984   984   984   984   984   984   984PRN / # OF OBS
         984   984   984   984   984   984   984            PRN / # OF OBS
   G30   936   936   936   936   936   936   936   936   936PRN / # OF OBS
         936   936   936   936   936   936   936            PRN / # OF OBS
   G31  1046  1046  1046  1046  1046  1046  1046  1046  1046PRN / # OF OBS
        1046  1046  1046  1046  1046  1046  1046            PRN / # OF OBS
   G32  1031  1031  1031  1031  1031  1031  1031  1031  1031PRN / # OF OBS
        1031  1031  1031  1031  1031  1031  1031            PRN / # OF OBS
   R01  1075  1075  1074  1074  1075  1075  1074  1074  1075PRN / # OF OBS
        1075  1074  1074  1075  1075  1074  1074            PRN / # OF OBS
   R02  1188  1188  1188  1188  1188  1188  1188  1188  1188PRN / # OF OBS
        1188  1188  1188  1188  1188  1188  1188            PRN / # OF OBS
   R03  1179  1179  1179  1179  1179  1179  1179  1179  1179PRN / # OF OBS
        1179  1179  1179  1179  1179  1179  1179            PRN / # OF OBS
   R04  1077  1077  1077  1077  1077  1077  1077  1077  1077PRN / # OF OBS
        1077  1077  1077  1077  1077  1077  1077            PRN / # OF OBS
   R05   970   970   970   970   970   970   970   970   970PRN / # OF OBS
         970   970   970   970   970   970   970            PRN / # OF OBS
   R06   974   974    57    54   974   974    57    54   974PRN / # OF OBS
         974    57    54   974   974    57    54            PRN / # OF OBS
   R07   983   983   983   983   983   983   983   983   983PRN / # OF OBS
         983   983   983   983   983   983   983            PRN / # OF OBS
   R08  1003  1002  1002  1002  1003  1002  1002  1002  1003PRN / # OF OBS
        1002  1002  1002  1003  1002  1002  1002            PRN / # OF OBS
   R09   974   974   974   974   974   974   974   974   974PRN / # OF OBS
         974   974   974   974   974   974   974            PRN / # OF OBS
   R10  1026  1025    64    68  1026  1025    64    68  1026PRN / # OF OBS
        1025    64    68  1026  1025    64    68            PRN / # OF OBS
   R11  1199  1199  1199  1199  1199  1199  1199  1199  1199PRN / # OF OBS
        1199  1199  1199  1199  1199  1199  1199            PRN / # OF OBS
   R12  1200  1200  1200  1200  1200  1200  1200  1200  1200PRN / # OF OBS
        1200  1200  1200  1200  1200  1200  1200            PRN / # OF OBS
   R13   838   838   838   838   838   838   838   838   838PRN / # OF OBS
         838   838   838   838   838   838   838            PRN / # OF OBS
   R14   969   969   969   969   969   969   969   969   969PRN / # OF OBS
         969   969   969   969   969   969   969            PRN / # OF OBS
   R15   973   973   973   973   973   973   973   973   973PRN / # OF OBS
         973   973   973   973   973   973   973            PRN / # OF OBS
   R16   970   970   969   968   970   970   969   968   970PRN / # OF OBS
         970   969   968   970   970   969   968            PRN / # OF OBS
   R17  1016  1016  1016  1016  1016  1016  1016  1016  1016PRN / # OF OBS
        1016  1016  1016  1016  1016  1016  1016            PRN / # OF OBS
   R18   987   987   987   987   987   987   987   987   987PRN / # OF OBS
         987   987   987   987   987   987   987            PRN / # OF OBS
   R19   771   770   770   770   771   770   770   770   771PRN / # OF OBS
         770   770   770   771   770   770   770            PRN / # OF OBS
   R20   897   895   895   895   897   895   895   895   897PRN / # OF OBS
         895   895   895   897   895   895   895            PRN / # OF OBS
   R21  1163  1163  1163  1163  1163  1163  1163  1163  1163PRN / # OF OBS
        1163  1163  1163  1163  1163  1163  1163            PRN / # OF OBS
   R22  1079  1079  1062  1060  1079  1079  1062  1060  1079PRN / # OF OBS
        1079  1062  1060  1079  1079  1062  1060            PRN / # OF OBS
   R23  1033  1033    59    59  1033  1033    59    59  1033PRN / # OF OBS
        1033    59    59  1033  1033    59    59            PRN / # OF OBS
   R24  1027  1027  1027  1027  1027  1027  1027  1027  1027PRN / # OF OBS
        1027  1027  1027  1027  1027  1027  1027            PRN / # OF OBS
    30.000                                                  INTERVAL
  2021     1     3     0     0    0.0000000     GPS         TIME OF FIRST OBS
  2021     1     3    23    59   30.0000000     GPS         TIME OF LAST OBS
                                                            END OF HEADER
> 2021 01 03 00 00 00.0000000  0 21
G05  23829841.452    23829840.895    23829837.465    23829836.889        3106.456        3106.456        2420.615        2420.615   125226654.849   125226654.849    97579219.470    97579198.470          43.250          29.500          39.000          29.250
G07  21915013.578    21915013.060    21915008.565    21915008.270        2439.851        2439.851        1901.183        1901.183   115164198.940   115164198.937    89738343.334    89738346.329          49.250          37.750          42.500          37.750
G08  22283688.149    22283687.521    22283686.801    22283686.236         706.160         706.160         550.255         550.255   117101609.319   117101609.316    91248024.061    91248018.055          45.000          44.750          43.750          45.000
G11  24204043.384    24204042.753                    24204038.128       -2778.785       -2778.785                       -2165.287   127193121.077   127193121.085                    99111517.567          38.250          19.500                          19.250
G13  21077017.074    21077016.396                    21077011.769       -1599.340       -1599.340                       -1246.239   110760496.074   110760496.074                    86306888.378          48.500          38.750                          38.500
G14  20984974.923    20984974.617    20984970.812    20984970.524       -2016.994       -2016.994       -1571.684       -1571.684   110276829.689   110276829.692    85930003.811    85930007.813          49.000          40.750          48.000          41.000
G15  23284222.409    23284221.721    23284218.321    23284217.517       -3097.092       -3097.092       -2413.319       -2413.319   122359422.523   122359422.520    95345026.628    95344997.637          42.000          37.000          37.000          36.750
G20  24731953.751    24731953.240                    24731949.159       -2309.869       -2309.869                       -1799.898   129967302.106   129967302.101                   101273218.843          35.750          15.250                          15.000
G23  25002923.357    25002923.224    25002919.204    25002919.374       -2684.932       -2684.932       -2092.155       -2092.155   131391254.558   131391254.558   102382780.554   102382787.569          36.500          18.000          36.000          18.000
G27  24045969.837    24045968.967    24045966.370    24045966.299        2862.066        2862.066        2230.181        2230.181   126362456.670   126362456.669    98464254.873    98464257.878          39.250          35.500          38.000          35.750
G28  21395264.221    21395263.221                    21395258.432       -2132.237       -2132.237                       -1661.483   112432912.073   112432912.071                    87610068.108          47.500          37.750                          37.750
G30  20496838.947    20496838.126    20496836.717    20496836.073         782.845         782.845         610.009         610.009   107711651.753   107711651.755    83931157.025    83931156.021          52.500          45.750          50.250          45.750
R01  22595866.019    22595865.872    22595862.256    22595863.236        4454.231        4454.231        3464.402        3464.402   120787840.507   120787840.514    93946090.632    93946093.634          44.000          42.750          37.250          37.250
R02  19795006.844    19795006.487    19795002.093    19795002.022         357.798         357.798         278.287         278.287   105629949.117   105629949.116    82156627.425    82156630.422          54.500          53.750          49.500          49.750
R03  22178902.833    22178902.900    22178898.172    22178897.652       -3481.631       -3481.631       -2707.935       -2707.935   118725413.254   118725413.258    92341968.146    92341980.152          47.500          46.750          43.750          43.250
R10  22913005.692    22913005.138                                        3950.337        3950.337                                   122139261.376   122139261.376                                          42.750          42.000
R11  19352001.863    19352001.933    19351995.973    19351996.063        1218.604        1218.604         947.803         947.803   103411261.099   103411261.097    80430992.296    80430991.298          53.750          53.000          53.250          52.500
R12  20382557.349    20382557.716    20382553.655    20382553.314       -2741.838       -2741.838       -2132.541       -2132.541   108880004.456   108880004.457    84684443.439    84684436.436          53.000          52.500          49.250          48.250
R19  23286222.843    23286221.627    23286216.067    23286215.768        3141.327        3141.327        2443.254        2443.254   124565588.783   124565588.795    96884333.009    96884330.014          32.250          31.000          37.000          36.500
R20  21709672.021    21709670.286    21709668.268    21709667.230        -957.637        -957.637        -744.829        -744.829   116091367.795   116091367.794    90293279.584    90293274.584          37.750          36.500          45.500          46.000
R21  23409023.684    23409023.963    23409019.594    23409019.330       -4184.406       -4184.406       -3254.538       -3254.538   125266428.134   125266428.136    97429435.378    97429432.378          43.500          43.000          41.250          40.750
> 2021 01 03 00 00 30.0000000  0 20
G05  23847601.893    23847601.761    23847598.566    23847598.455        3116.135        3116.135        2428.157        2428.157   125319992.650   125319992.655    97651950.220    97651929.224          39.750          26.750          37.500          27.250
G07  21928971.890    21928971.333    21928966.602    21928966.455        2450.126        2450.126        1909.189        1909.189   115237549.786   115237549.784    89795499.836    89795502.827          49.250          38.000          42.500          38.000
G08  22287780.014    22287779.132    22287778.556    22287777.763         727.239         727.239         566.679         566.679   117123110.073   117123110.070    91264777.909    91264771.907          46.500          45.250          43.500          44.750
G11  24188212.209    24188211.520                    24188206.955       -2767.446       -2767.446                       -2156.451   127109926.703   127109926.710                    99046690.811          38.750          18.500                          18.750
G13  21067937.375    21067936.668                    21067932.129       -1581.602       -1581.602                       -1232.417   110712781.477   110712781.477                    86269708.181          50.000          39.250                          39.250
G14  20973505.484    20973505.266    20973501.086    20973500.976       -2001.057       -2001.057       -1559.265       -1559.265   110216557.879   110216557.880    85883038.758    85883042.761          50.000          40.250          48.000          40.500
G15  23266575.748    23266574.818    23266570.772    23266570.770       -3085.163       -3085.163       -2404.023       -2404.023   122266687.982   122266687.973    95272765.974    95272736.976          40.250          36.750          37.000          36.500
G20  24718809.347    24718808.089                    24718804.070       -2295.337       -2295.337                       -1788.574   129898222.834   129898222.838                   101219390.838          35.500          15.000                          15.250
G23  24987633.212    24987632.683    24987628.658    24987629.173       -2672.039       -2672.039       -2082.108       -2082.108   131310903.289   131310903.286   102320169.197   102320176.187          36.750          18.000          35.750          18.250
G27  24062348.369    24062347.724    24062346.481    24062345.644        2876.083        2876.083        2241.104        2241.104   126448531.568   126448531.570    98531326.248    98531329.251          38.250          35.000          38.000          34.750
G28  21383131.140    21383130.032                    21383125.334       -2118.474       -2118.474                       -1650.759   112369151.516   112369151.513                    87560384.566          49.500          38.000                          37.750
G30  20501352.446    20501351.478    20501349.906    20501349.473         798.353         798.353         622.093         622.093   107735369.633   107735369.633    83949638.490    83949637.486          52.750          45.750          50.500          45.500
R01  22620883.081    22620882.828    22620880.697    22620881.230        4461.768        4461.768        3470.264        3470.264   120921581.702   120921581.700    94050111.483    94050114.492          42.000          41.000          36.750          36.250
R02  19797097.432    19797097.172    19797093.043    19797092.708         385.886         385.886         300.133         300.133   105641105.276   105641105.276    82165304.444    82165307.443          54.250          53.750          49.750          49.250
R03  22159436.679    22159436.894    22159431.983    22159431.261       -3465.431       -3465.431       -2695.335       -2695.335   118621206.457   118621206.458    92260918.450    92260930.448          47.750          47.250          44.250          43.500
R10  22935249.678    22935249.976                                        3954.133        3954.133                                   122257830.060   122257830.058                                          43.500          42.750
R11  19358894.930    19358895.039    19358888.669    19358888.936        1237.037        1237.037         962.140         962.140   103448095.231   103448095.230    80459641.075    80459640.078          54.250          53.250          53.500          52.500
R12  20367199.173    20367199.300    20367195.660    20367195.512       -2727.530       -2727.530       -2121.412       -2121.412   108797963.898   108797963.900    84620634.140    84620627.131          54.000          52.500          49.250          48.750
R20  21704377.499    21704376.035    21704373.807    21704372.802        -929.449        -929.449        -722.905        -722.905   116063056.595   116063056.598    90271259.791    90271254.787          37.250          36.500          46.000          46.000
R21  23385590.166    23385590.420    23385586.090    23385585.416       -4175.662       -4175.662       -3247.737       -3247.737   125141026.475   125141026.480    97331900.860    97331897.855          44.250          43.500          42.000          41.250
> 2021 01 03 00 01 00.0000000  0 20
G05  23865419.662    23865418.686    23865415.163    23865414.693        3125.608        3125.608        2435.539        2435.539   125413619.322   125413619.326    97724906.041    97724885.030          41.250          26.250          37.250          26.250
G07  21942988.801    21942988.474    21942984.342    21942983.821        2460.501        2460.501        1917.274        1917.274   115311210.828   115311210.823    89852898.038    89852901.037          48.500          38.250          42.750          38.000
G08  22291991.059    22291990.518    22291989.877    22291989.357         748.259         748.259         583.059         583.059   117145242.221   117145242.218    91282023.755    91282017.751          45.750          45.000          44.000          44.750
G11  24172445.878    24172444.877                    24172440.383       -2756.094       -2756.094                       -2147.605   127027071.895   127027071.895                    98982128.666          39.250          19.250                          19.000
G13  21058959.003    21058958.571                    21058953.930       -1563.730       -1563.730                       -1218.491   110665601.414   110665601.413                    86232944.501          49.750          38.750                          39.000
G14  20962127.591    20962127.536    20962123.786    20962123.294       -1984.994       -1984.994       -1546.749       -1546.749   110156767.391   110156767.395    85836448.762    85836452.765          49.000          40.750          48.250          40.750
G15  23248997.484    23248996.929    23248993.728    23248992.677       -3073.001       -3073.001       -2394.546       -2394.546   122174315.304   122174315.307    95200787.305    95200758.300          41.750          36.750          37.250          36.750
G20  24705747.816    24705746.125                    24705742.436       -2280.536       -2280.536                       -1777.041   129829584.911   129829584.915                   101165906.750          34.250          15.250                          15.250
G23  24972417.925    24972417.104    24972412.945    24972413.812       -2658.601       -2658.601       -2071.637       -2071.637   131230944.679   131230944.679   102257863.770   102257870.784          35.750          18.000          36.000          17.750
G27  24078808.157    24078807.704    24078805.412    24078805.483        2890.337        2890.337        2252.211        2252.211   126535028.819   126535028.822    98598726.737    98598729.734          38.000          34.500          38.000          34.750
G28  21371076.917    21371075.727                    21371071.054       -2104.547       -2104.547                       -1639.907   112305806.098   112305806.096                    87511024.508          48.500          37.750                          38.000
G30  20505954.443    20505953.620    20505952.038    20505951.712         813.910         813.910         634.216         634.216   107759554.420   107759554.420    83968483.781    83968482.777          52.500          45.750          50.500          45.750
R01  22645947.313    22645947.086    22645944.397    22645944.835        4469.729        4469.729        3476.456        3476.456   121055557.213   121055557.215    94154314.689    94154317.686          43.500          42.750          37.500          36.750
R02  19799345.970    19799345.645    19799341.883    19799341.283         414.079         414.079         322.061         322.061   105653105.075   105653105.077    82174637.623    82174640.622          54.750          53.750          49.750          49.000
R03  22140060.407    22140060.874    22140055.783    22140055.414       -3449.184       -3449.184       -2682.699       -2682.699   118517486.645   118517486.655    92180247.494    92180259.499          47.750          47.000          43.750          43.500
R10  22957515.338    22957514.687                                        3957.773        3957.773                                   122376510.054   122376510.054                                          44.500          43.250
R11  19365891.332    19365891.892    19365886.079    19365885.718        1255.451        1255.451         976.462         976.462   103485484.308   103485484.309    80488721.473    80488720.477          54.000          53.500          52.750          52.250
R12  20351921.446    20351921.883    20351918.192    20351917.867       -2713.012       -2713.012       -2110.121       -2110.121   108716355.974   108716355.978    84557161.320    84557154.315          53.250          52.500          48.500          48.250
R20  21699240.237    21699239.922    21699236.993    21699235.558        -901.493        -901.493        -701.161        -701.161   116035589.768   116035589.756    90249896.695    90249891.692          38.250          36.500          45.000          45.500
R21  23362205.993    23362205.758    23362200.997    23362201.257       -4166.618       -4166.618       -3240.703       -3240.703   125015893.616   125015893.611    97234575.374    97234572.367          43.500          42.250          40.750          40.750
> 2021 01 03 00 01 30.0000000  0 20
G05  23883289.108    23883289.666    23883286.178    23883285.858        3135.184        3135.184        2443.000        2443.000   125507532.101   125507532.107    97798084.823    97798063.823          39.750          27.000          37.250          27.000
G07  21957065.163    21957064.564    21957060.026    21957059.948        2470.825        2470.825        1925.318        1925.318   115385181.354   115385181.351    89910537.405    89910540.406          48.250          37.750          42.500          37.750
G08  22296323.318    22296322.239    22296321.988    22296320.798         769.163         769.163         599.348         599.348   117168005.033   117168005.028    91299761.021    91299755.021          43.250          44.500          43.750          44.500
G11  24156744.351    24156743.610                    24156738.530       -2744.781       -2744.781                       -2138.791   126944560.149   126944560.151                    98917833.865          38.750          19.500                          19.250
G13  21050083.225    21050082.789                    21050077.967       -1545.854       -1545.854                       -1204.562   110618958.124   110618958.125                    86196599.093          50.000          38.750                          39.000
G14  20950841.911    20950841.621    20950838.037    20950837.646       -1968.862       -1968.862       -1534.178       -1534.178   110097459.994   110097459.999    85790235.202    85790239.205          49.250          40.500          48.000          40.500
G15  23231488.728    23231488.393    23231484.285    23231484.039       -3060.896       -3060.896       -2385.115       -2385.115   122082307.555   122082307.557    95129092.966    95129063.963          41.250          36.750          37.250          36.500
G20  24692771.612    24692769.542                    24692765.618       -2265.822       -2265.822                       -1765.575   129761390.975   129761390.980                   101112768.619          35.500          16.250                          16.000
G23  24957278.164    24957276.979    24957272.560    24957273.273       -2645.540       -2645.540       -2061.460       -2061.460   131151381.694   131151381.695   102195866.642   102195873.643          36.000          17.500          35.500          17.750
G27  24095348.111    24095347.679    24095346.227    24095345.711        2903.960        2903.960        2262.826        2262.826   126621945.994   126621945.989    98666454.406    98666457.407          37.750          34.250          38.750          34.500
G28  21359101.857    21359100.781                    21359096.121       -2090.667       -2090.667                       -1629.092   112242877.677   112242877.677                    87461989.381          48.500          37.750                          38.000
G30  20510645.466    20510644.772    20510643.134    20510642.738         829.442         829.442         646.318         646.318   107784206.216   107784206.215    83987692.975    83987691.970          52.500          46.000          50.000          46.000
R01  22671053.790    22671053.315    22671050.253    22671050.241        4477.289        4477.289        3482.336        3482.336   121189763.511   121189763.516    94258697.292    94258700.295          43.500          43.000          36.750          36.250
R02  19801753.020    19801752.546    19801748.809    19801748.411         442.110         442.110         343.864         343.864   105665949.067   105665949.066    82184627.390    82184630.388          54.500          53.750          49.500          49.750
R03  22120776.489    22120776.688    22120771.954    22120771.280       -3432.742       -3432.742       -2669.910       -2669.910   118414258.231   118414258.240    92099958.746    92099970.753          48.000          48.000          43.750          43.750
R10  22979799.340    22979798.937                                        3961.538        3961.538                                   122495299.377   122495299.378                                          44.000          43.000
R11  19372991.972    19372992.313    19372986.398    19372986.311        1273.891        1273.891         990.804         990.804   103523427.214   103523427.215    80518232.624    80518231.629          54.500          53.250          53.000          52.250
R12  20336726.322    20336726.521    20336722.917    20336722.514       -2698.553       -2698.553       -2098.874       -2098.874   108635182.971   108635182.974    84494026.766    84494019.762          53.750          53.250          49.000          49.250
R20  21694262.112    21694261.750    21694258.632    21694257.913        -873.322        -873.322        -679.251        -679.251   116008968.944   116008968.948    90229191.634    90229186.632          37.750          36.750          45.500          45.750
R21  23338872.201    23338872.528    23338868.398    23338868.230       -4157.362       -4157.362       -3233.504       -3233.504   124891034.649   124891034.645    97137462.921    97137459.919          43.500          42.500          41.750          41.500
> 2021 01 03 00 02 00.0000000  0 20
G05  23901214.718    23901214.452    23901210.784    23901210.781        3144.335        3144.335        2450.131        2450.131   125601726.776   125601726.780    97871483.226    97871462.230          41.500          27.000          38.500          27.250
G07  21971199.556    21971199.393    21971195.252    21971194.599        2481.057        2481.057        1933.291        1933.291   115459459.879   115459459.876    89968416.774    89968419.771          49.250          37.500          42.250          37.750
G08  22300774.364    22300773.531    22300773.499    22300772.300         790.177         790.177         615.722         615.722   117191397.451   117191397.443    91317988.890    91317982.891          45.750          44.500          43.750          44.000
G11  24141108.111    24141107.294                    24141102.101       -2733.073       -2733.073                       -2129.667   126862394.082   126862394.086                    98853808.425          38.500          19.000                          19.000
G13  21041309.905    21041309.280                    21041304.309       -1527.851       -1527.851                       -1190.533   110572853.072   110572853.074                    86160673.083          50.000          38.750                          39.250
G14  20939648.115    20939647.964    20939644.093    20939643.821       -1952.750       -1952.750       -1521.623       -1521.623   110038636.731   110038636.734    85744398.887    85744402.891          48.750          41.000          48.500          41.000
G15  23214049.604    23214049.685    23214046.714    23214045.697       -3048.587       -3048.587       -2375.522       -2375.522   121990667.158   121990667.159    95057684.888    95057655.880          40.500          36.250          37.250          36.500
G20  24679878.954    24679877.432                    24679873.759       -2250.928       -2250.928                       -1753.970   129693642.370   129693642.366                   101059977.519          35.750          15.500                          15.250
G23  24942212.956    24942212.497    24942208.415    24942208.543       -2632.145       -2632.145       -2051.022       -2051.022   131072216.713   131072216.712   102134179.645   102134186.658          36.250          17.250          35.750          17.500
G27  24111967.447    24111966.440    24111965.597    24111965.378        2918.098        2918.098        2273.842        2273.842   126709280.049   126709280.041    98734506.920    98734509.925          38.000          35.000          39.000          34.750
G28  21347206.330    21347205.620                    21347200.643       -2076.708       -2076.708                       -1618.214   112180367.116   112180367.116                    87413279.859          49.750          38.250                          38.250
G30  20515425.420    20515424.557    20515422.953    20515422.572         844.991         844.991         658.434         658.434   107809324.291   107809324.291    84007265.504    84007264.500          53.250          45.250          50.500          45.250
R01  22696201.200    22696201.106    22696198.661    22696198.929        4484.823        4484.823        3488.196        3488.196   121324196.353   121324196.355    94363256.177    94363259.179          42.750          41.500          36.250          36.000
R02  19804318.316    19804317.673    19804313.463    19804313.406         470.340         470.340         365.820         365.820   105679635.938   105679635.936    82195272.729    82195275.728          54.250          53.750          49.250          49.250
R03  22101585.336    22101585.429    22101580.317    22101580.011       -3416.122       -3416.122       -2656.984       -2656.984   118311524.860   118311524.861    92020055.020    92020067.023          48.000          47.500          44.250          44.000
R10  23002102.996    23002102.932                                        3965.015        3965.015                                   122614196.235   122614196.234                                          43.250          42.250
R11  19380195.726    19380196.085    19380190.127    19380190.013        1292.347        1292.347        1005.159        1005.159   103561922.131   103561922.131    80548173.116    80548172.120          54.750          53.500          53.000          52.750
R12  20321612.357    20321612.455    20321608.502    20321608.523       -2683.979       -2683.979       -2087.539       -2087.539   108554446.117   108554446.122    84431231.445    84431224.441          53.500          52.750          49.000          49.250
R20  21689442.307    21689441.283    21689438.731    21689437.931        -844.938        -844.938        -657.174        -657.174   115983196.029   115983196.033    90209146.037    90209141.035          37.750          36.500          45.250          45.500
R21  23315592.326    23315591.965    23315587.033    23315586.584       -4148.010       -4148.010       -3226.230       -3226.230   124766453.760   124766453.759    97040566.720    97040563.714          44.250          42.750          41.000          40.250
> 2021 01 03 00 02 30.0000000  0 20
G05  23919192.520    23919192.224    23919189.113    23919188.756        3153.754        3153.754        2457.470        2457.470   125696200.820   125696200.825    97945099.297    97945078.312          41.000          27.250          38.500          27.250
G07  21985392.833    21985392.478    21985387.634    21985387.798        2491.208        2491.208        1941.201        1941.201   115534045.034   115534045.031    90026535.074    90026538.074          46.750          37.750          42.250          38.000
G08  22305345.366    22305344.868    22305344.056    22305343.107         811.271         811.271         632.159         632.159   117215418.374   117215418.373    91336706.510    91336700.509          45.250          44.250          43.750          44.250
G11  24125538.930    24125537.800                    24125533.681       -2721.505       -2721.505                       -2120.653   126780576.355   126780576.351                    98790054.427          38.250          19.750                          19.750
G13  21032639.064    21032638.481                    21032633.796       -1509.785       -1509.785                       -1176.456   110527287.897   110527287.902                    86125167.760          50.500          39.500                          39.250
G14  20928546.868    20928546.544    20928542.461    20928542.577       -1936.549       -1936.549       -1508.999       -1508.999   109980298.625   109980298.629    85698940.616    85698944.621          47.750          40.500          48.250          40.500
G15  23196681.717    23196681.487    23196677.067    23196677.335       -3036.092       -3036.092       -2365.786       -2365.786   121899396.709   121899396.707    94986565.076    94986536.074          41.500          36.500          37.250          36.250
G20  24667072.320    24667071.266                    24667067.098       -2235.901       -2235.901                       -1742.261   129626341.810   129626341.816                   101007535.527          36.750          15.250                          15.250
G23  24927224.162    24927223.918    24927221.014    24927220.271       -2618.827       -2618.827       -2040.644       -2040.644   130993452.057   130993452.060   102072804.574   102072811.573          36.750          18.000          36.250          18.000
G27  24128664.671    24128663.968    24128662.139    24128661.873        2931.920        2931.920        2284.614        2284.614   126797027.758   126797027.754    98802881.784    98802884.782          37.750          34.000          38.000          33.750
G28  21335390.654    21335389.723                    21335385.046       -2062.775       -2062.775                       -1607.357   112118275.096   112118275.098                    87364896.471          48.000          38.000                          38.250
G30  20520293.842    20520292.997    20520291.255    20520290.923         860.489         860.489         670.511         670.511   107834907.926   107834907.927    84027200.806    84027199.802          51.500          45.500          50.250          45.500
R01  22721391.388    22721391.297    22721388.824    22721389.754        4492.100        4492.100        3493.855        3493.855   121458851.725   121458851.729    94467988.083    94467991.080          42.750          42.250          37.000          36.500
R02  19807041.028    19807040.701    19807036.696    19807036.272         498.350         498.350         387.605         387.605   105694165.888   105694165.888    82206573.801    82206576.800          54.250          54.000          49.500          49.750
R03  22082487.558    22082487.403    22082481.900    22082481.729       -3399.579       -3399.579       -2644.117       -2644.117   118209290.102   118209290.106    91940539.125    91940551.126          49.250          46.750          44.250          43.750
R10  23024426.864    23024426.599                                        3968.405        3968.405                                   122733198.508   122733198.507                                          42.500          41.500
R11  19387502.758    19387502.959    19387496.599    19387496.794        1310.639        1310.639        1019.387        1019.387   103600967.350   103600967.349    80578541.623    80578540.625          54.500          53.750          53.000          52.500
R12  20306580.282    20306580.713    20306576.590    20306576.253       -2669.348       -2669.348       -2076.159       -2076.159   108474146.758   108474146.760    84368776.399    84368769.395          54.000          53.000          49.750          48.000
R20  21684781.571    21684781.185    21684777.741    21684776.967        -816.704        -816.704        -635.214        -635.214   115958271.463   115958271.466    90189760.272    90189755.269          38.000          36.500          45.000          45.500
R21  23292362.875    23292363.045    23292358.781    23292359.189       -4138.518       -4138.518       -3218.847       -3218.847   124642155.283   124642155.288    96943890.179    96943887.185          43.500          42.250          41.500          41.000
> 2021 01 03 00 03 00.0000000  0 20
G05  23937222.843    23937222.359    23937219.660    23937218.971        3162.948        3162.948        2464.635        2464.635   125790951.532   125790951.534    98018930.996    98018909.991          41.250          25.750          37.000          25.750
G07  21999644.015    21999643.659    21999638.874    21999639.073        2501.490        2501.490        1949.213        1949.213   115608935.999   115608935.996    90084891.665    90084894.665          48.250          37.250          42.250          37.500
G08  22310036.084    22310035.289    22310034.582    22310033.386         832.159         832.159         648.436         648.436   117240067.108   117240067.107    91355913.321    91355907.325          46.000          44.500          43.750          44.500
G11  24110036.686    24110036.015                    24110031.254       -2709.503       -2709.503                       -2111.301   126699110.338   126699110.335                    98726574.494          39.500          20.250                          20.250
G13  21024071.475    21024071.050                    21024066.205       -1491.638       -1491.638                       -1162.315   110482265.123   110482265.124                    86090085.082          49.500          39.250                          39.250
G14  20917537.961    20917537.838    20917534.333    20917533.805       -1920.226       -1920.226       -1496.281       -1496.281   109922447.285   109922447.289    85653861.643    85653865.647          48.000          40.750          48.750          40.500
G15  23179384.070    23179384.083    23179380.873    23179379.879       -3023.758       -3023.758       -2356.175       -2356.175   121808498.920   121808498.921    94915735.648    94915706.653          41.000          36.000          37.000          36.000
G20  24654351.901    24654349.390                    24654345.785       -2220.752       -2220.752                       -1730.456   129559491.845   129559491.841                   100955444.655          35.750          16.000                          16.000
G23  24912312.649    24912312.558    24912308.946    24912309.256       -2605.362       -2605.362       -2030.152       -2030.152   130915090.645   130915090.644   102011743.727   102011750.741          37.250          18.500          36.500          18.500
G27  24145441.608    24145440.986    24145439.708    24145439.310        2945.435        2945.435        2295.144        2295.144   126885186.591   126885186.587    98871576.982    98871579.988          38.250          34.750          39.000          34.500
G28  21323654.876    21323654.078                    21323649.156       -2048.705       -2048.705                       -1596.394   112056603.037   112056603.036                    87316840.316          50.000          38.250                          38.250
G30  20525250.865    20525249.879    20525248.292    20525247.977         876.061         876.061         682.645         682.645   107860957.032   107860957.032    84047498.814    84047497.811          51.750          45.250          50.500          45.500
R01  22746622.753    22746622.597    22746620.670    22746620.642        4499.462        4499.462        3499.582        3499.582   121593726.078   121593726.082    94572890.354    94572893.358          42.750          41.750          36.250          36.000
R02  19809921.892    19809921.226    19809917.267    19809916.704         526.494         526.494         409.495         409.495   105709538.497   105709538.497    82218530.270    82218533.269          54.250          53.250          49.500          50.000
R03  22063482.788    22063482.879    22063477.716    22063477.223       -3382.644       -3382.644       -2630.945       -2630.945   118107558.370   118107558.372    91861414.469    91861426.466          48.500          47.500          45.000          44.500
R10  23046771.471    23046770.776                                        3971.873        3971.873                                   122852304.220   122852304.221                                          42.750          41.750
R11  19394912.254    19394912.512    19394906.427    19394906.436        1329.034        1329.034        1033.693        1033.693   103640561.642   103640561.640    80609337.183    80609336.186          54.250          53.250          53.250          52.750
R12  20291630.630    20291631.103    20291626.354    20291626.393       -2654.608       -2654.608       -2064.695       -2064.695   108394286.807   108394286.807    84306663.111    84306656.109          54.500          53.000          49.500          48.750
R20  21680279.369    21680278.437    21680276.028    21680274.985        -788.249        -788.249        -613.082        -613.082   115934197.111   115934197.106    90171035.792    90171030.787          37.750          36.250          45.250          45.500
R21  23269189.571    23269189.702    23269184.608    23269183.778       -4128.795       -4128.795       -3211.285       -3211.285   124518144.131   124518144.135    96847437.111    96847434.111          44.000          43.750          41.250          40.750
> 2021 01 03 00 03 30.0000000  0 20
G05  23955305.757    23955305.675    23955302.245    23955301.371        3172.061        3172.061        2471.736        2471.736   125885975.311   125885975.311    98092975.505    98092954.494          41.250          26.000          36.500          26.250
G07  22013953.459    22013952.888    22013947.946    22013948.251        2511.508        2511.508        1957.018        1957.018   115684131.337   115684131.335    90143485.434    90143488.431          47.750          37.250          42.250          37.500
G08  22314845.662    22314845.080    22314844.124    22314843.179         852.975         852.975         664.656         664.656   117265342.174   117265342.171    91375608.195    91375602.194          45.500          44.250          43.500          44.000
G11  24094600.701    24094600.271                    24094595.499       -2697.926       -2697.926                       -2102.280   126617998.478   126617998.481                    98663370.514          39.000          19.750                          19.750
G13  21015607.198    21015606.536                    21015601.870       -1473.637       -1473.637                       -1148.289   110437785.269   110437785.268                    86055425.463          49.250          39.000                          39.500
G14  20906622.357    20906621.858    20906618.113    20906617.869       -1903.970       -1903.970       -1483.613       -1483.613   109865083.531   109865083.536    85609162.616    85609166.615          49.500          40.750          48.500          40.750
G15  23162158.150    23162158.336    23162154.716    23162153.912       -3011.167       -3011.167       -2346.364       -2346.364   121717975.948   121717975.946    94845198.295    94845169.292          41.250          36.750          36.500          36.500
G20  24641715.377    24641714.218                    24641710.780       -2205.642       -2205.642                       -1718.682   129493094.302   129493094.306                   100903706.344          34.750          16.000                          15.750
G23  24897478.002    24897477.760    24897473.833    24897474.086       -2591.869       -2591.869       -2019.637       -2019.637   130837134.587   130837134.589   101950998.757   101951005.755          36.750          18.500          36.500          18.250
G27  24162295.733    24162294.886    24162292.736    24162291.915        2959.097        2959.097        2305.790        2305.790   126973753.319   126973753.313    98940590.041    98940593.036          39.250          34.500          37.750          34.500
G28  21311999.426    21311998.344                    21311993.582       -2034.685       -2034.685                       -1585.469   111995352.071   111995352.073                    87269112.287          49.000          38.250                          38.250
G30  20530296.240    20530295.281    20530293.873    20530293.266         891.518         891.518         694.689         694.689   107887470.694   107887470.694    84068158.812    84068157.809          52.500          45.500          50.000          45.250
R01  22771894.871    22771895.043    22771891.052    22771891.499        4506.371        4506.371        3504.955        3504.955   121728815.387   121728815.389    94677959.798    94677962.801          44.250          43.500          36.250          36.000
R02  19812960.325    19812960.062    19812956.067    19812955.478         554.480         554.480         431.263         431.263   105725753.082   105725753.081    82231141.613    82231144.612          54.500          53.500          49.500          49.500
R03  22044573.358    22044573.322    22044567.904    22044567.502       -3365.663       -3365.663       -2617.738       -2617.738   118006333.017   118006333.024    91782683.654    91782695.660          49.000          47.750          44.750          43.750
R10  23069134.288    23069133.581                                        3975.129        3975.129                                   122971510.914   122971510.914                                          42.500          41.500
R11  19402424.260    19402424.401    19402418.092    19402418.155        1347.097        1347.097        1047.742        1047.742   103680702.949   103680702.948    80640558.201    80640557.205          54.250          53.750          53.000          52.000
R12  20276762.795    20276762.971    20276758.888    20276758.835       -2640.004       -2640.004       -2053.336       -2053.336   108314867.110   108314867.110    84244892.250    84244885.247          53.750          53.250          49.000          49.250
R20  21675936.614    21675935.470    21675932.967    21675932.419        -760.069        -760.069        -591.165        -591.165   115910973.796   115910973.795    90152973.227    90152968.225          37.750          36.250          45.500          45.750
R21  23246068.528    23246068.901    23246064.447    23246064.591       -4119.183       -4119.183       -3203.809       -3203.809   124394424.252   124394424.249    96751210.553    96751207.551          43.750          43.250          41.250          41.500
> 2021 01 03 00 04 00.0000000  0 20
G05  23973438.954    23973438.244    23973435.910    23973435.409        3180.876        3180.876        2478.605        2478.605   125981269.639   125981269.643    98167230.777    98167209.788          39.000          24.000          36.500          24.250
G07  22028320.382    22028319.886    22028315.061    22028315.200        2521.668        2521.668        1964.936        1964.936   115759630.457   115759630.457    90202315.917    90202318.914          48.250          37.500          42.250          37.500
G08  22319774.553    22319773.686    22319772.837    22319771.952         873.690         873.690         680.797         680.797   117291243.026   117291243.019    91395790.685    91395784.684          43.750          44.750          43.000          44.750
G11  24079233.952    24079233.326                    24079228.710       -2685.763       -2685.763                       -2092.802   126537243.982   126537243.985                    98600444.977          39.250          19.750                          19.750
G13  21007246.747    21007246.199                    21007241.475       -1455.384       -1455.384                       -1134.066   110393850.399   110393850.396                    86021190.504          50.500          39.250                          39.250
G14  20895799.435    20895799.036    20895795.208    20895795.027       -1887.711       -1887.711       -1470.943       -1470.943   109808208.960   109808208.965    85564844.764    85564848.765          49.000          40.750          48.750          40.250
G15  23145005.079    23145004.438    23144999.997    23144999.847       -2998.627       -2998.627       -2336.593       -2336.593   121627830.843   121627830.838    94774955.362    94774926.364          40.500          37.000          36.750          37.000
G20  24629167.027    24629166.626                    24629162.289       -2190.554       -2190.554                       -1706.925   129427152.046   129427152.033                   100852322.748          35.000          15.750                          15.500
G23  24882720.727    24882720.601    24882717.526    24882717.101       -2578.106       -2578.106       -2008.914       -2008.914   130759586.842   130759586.850   101890571.948   101890578.937          35.750          17.750          36.250          18.000
G27  24179225.801    24179225.035    24179224.063    24179222.861        2972.369        2972.369        2316.132        2316.132   127062725.297   127062725.296    99009918.857    99009921.860          39.000          34.500          38.250          34.250
G28  21300423.718    21300422.850                    21300418.102       -2020.657       -2020.657                       -1574.538   111934523.101   111934523.102                    87221713.087          48.500          38.000                          38.000
G30  20535429.935    20535429.090    20535427.426    20535426.974         907.033         907.033         706.779         706.779   107914448.756   107914448.758    84089180.687    84089179.681          52.000          45.750          49.500          45.500
R01  22797203.188    22797203.557    22797201.808    22797202.951        4513.338        4513.338        3510.374        3510.374   121864115.604   121864115.602    94783193.255    94783196.262          41.250          40.250          36.000          35.750
R02  19816156.803    19816156.520    19816152.487    19816152.140         582.534         582.534         453.082         453.082   105742809.817   105742809.818    82244407.960    82244410.959          54.750          53.750          50.000          49.500
R03  22025758.110    22025758.661    22025753.253    22025753.123       -3348.669       -3348.669       -2604.520       -2604.520   117905618.451   117905618.459    91704350.111    91704362.112          48.000          47.750          44.750          44.000
R10  23091516.078    23091515.759                                        3978.431        3978.431                                   123090817.262   123090817.254                                          43.000          42.250
R11  19410038.126    19410038.361    19410032.352    19410032.212        1365.249        1365.249        1061.861        1061.861   103721390.055   103721390.053    80672203.725    80672202.730          54.250          53.500          52.750          52.500
R12  20261977.784    20261978.033    20261973.921    20261973.678       -2625.273       -2625.273       -2041.879       -2041.879   108235889.886   108235889.887    84183465.530    84183458.526          53.750          52.750          49.000          49.000
R20  21671752.304    21671752.093    21671749.552    21671748.603        -731.591        -731.591        -569.016        -569.016   115888603.178   115888603.172    90135573.876    90135568.871          37.500          36.500          45.500          45.750
R21  23223004.852    23223004.505    23223000.400    23223000.068       -4109.229       -4109.229       -3196.067       -3196.067   124271000.665   124271000.666    96655214.461    96655211.457          44.000          42.500          42.000          41.750
> 2021 01 03 00 04 30.0000000  0 20
G05  23991624.916    23991624.064    23991620.880    23991620.264        3189.784        3189.784        2485.546        2485.546   126076831.229   126076831.229    98241694.307    98241673.300          41.750          26.750          36.750          26.500
G07  22042744.675    22042744.336    22042739.793    22042739.646        2531.757        2531.757        1972.798        1972.798   115835431.757   115835431.755    90261381.860    90261384.854          48.250          37.500          42.250          37.250
G08  22324821.747    22324821.187    22324820.361    22324819.642         894.706         894.706         697.174         697.174   117317768.561   117317768.560    91416459.943    91416453.944          45.750          44.750          43.500          44.500
G11  24063935.919    24063934.787                    24063929.951       -2673.639       -2673.639                       -2083.355   126456850.176   126456850.169                    98537800.513          39.250          20.250                          20.000
G13  20998990.219    20998989.643                    20998985.037       -1437.047       -1437.047                       -1119.777   110350462.804   110350462.802                    85987381.994          50.000          39.250                          39.250
G14  20885069.844    20885069.418    20885065.601    20885065.519       -1871.240       -1871.240       -1458.109       -1458.109   109751824.939   109751824.945    85520909.156    85520913.160          49.750          40.750          48.750          40.250
G15  23127923.138    23127922.716    23127918.918    23127918.263       -2985.654       -2985.654       -2326.484       -2326.484   121538066.500   121538066.499    94705009.142    94704980.141          42.250          37.000          37.000          37.250
G20  24616706.549    24616705.200                    24616700.708       -2175.009       -2175.009                       -1694.812   129361667.025   129361667.024                   100801295.462          35.750          16.000                          15.750
G23  24868042.891    24868042.592    24868038.727    24868038.726       -2564.219       -2564.219       -1998.093       -1998.093   130682450.085   130682450.077   101830465.360   101830472.368          35.750          18.000          36.500          18.000
G27  24196233.175    24196232.434    24196230.856    24196230.110        2985.652        2985.652        2326.482        2326.482   127152099.867   127152099.864    99079561.404    99079564.410          37.500          34.000          37.750          33.500
G28  21288929.292    21288928.083                    21288923.183       -2006.425       -2006.425                       -1563.448   111874117.275   111874117.271                    87174643.600          49.000          38.250                          38.250
G30  20540652.086    20540651.168    20540649.759    20540649.135         922.576         922.576         718.891         718.891   107941890.917   107941890.918    84110564.190    84110563.188          52.750          45.500          50.000          45.500
R01  22822554.920    22822554.749    22822550.552    22822551.573        4520.412        4520.412        3515.876        3515.876   121999623.555   121999623.555    94888588.274    94888591.280          43.250          42.750          35.500          35.000
R02  19819510.781    19819510.427    19819506.090    19819506.199         610.657         610.657         474.956         474.956   105760707.776   105760707.776    82258328.594    82258331.591          54.250          53.000          49.000          49.500
R03  22007040.193    22007040.157    22007034.978    22007034.681       -3331.306       -3331.306       -2591.016       -2591.016   117805418.507   117805418.511    91626416.831    91626428.829          48.750          48.000          44.500          44.000
R10  23113916.297    23113915.892                                        3981.809        3981.809                                   123210221.333   123210221.331                                          42.750          41.750
R11  19417753.934    19417754.293    19417748.213    19417748.145        1383.506        1383.506        1076.060        1076.060   103762621.527   103762621.526    80704272.652    80704271.653          54.750          53.750          52.750          52.500
R12  20247275.843    20247276.138    20247272.479    20247272.273       -2610.268       -2610.268       -2030.208       -2030.208   108157356.720   108157356.725    84122384.208    84122377.201          53.250          52.500          49.250          48.750
R20  21667729.274    21667728.858    21667726.017    21667725.570        -702.847        -702.847        -546.659        -546.659   115867086.696   115867086.702    90118838.853    90118833.851          37.750          36.500          45.750          45.750
R21  23199996.087    23199996.108    23199990.910    23199991.050       -4098.900       -4098.900       -3188.033       -3188.033   124147878.118   124147878.119    96559452.508    96559449.504          43.750          42.750          41.250          40.750
> 2021 01 03 00 05 00.0000000  0 20
G05  24009858.687    24009858.634    24009854.174    24009854.822        3198.591        3198.591        2492.409        2492.409   126172656.405   126172656.405    98316363.262    98316342.273          39.750          25.750          36.000          25.750
G07  22057226.475    22057226.098    22057222.239    22057221.507        2541.674        2541.674        1980.525        1980.525   115911533.966   115911533.962    90320682.277    90320685.276          48.500          37.250          42.250          37.250
G08  22329988.563    22329987.752    22329987.046    22329986.071         915.294         915.294         713.216         713.216   117344917.990   117344917.988    91437615.348    91437609.351          45.250          44.250          43.250          44.250
G11  24048706.458    24048705.918                    24048701.094       -2661.670       -2661.670                       -2074.028   126376819.726   126376819.730                    98475439.147          39.250          21.000                          19.750
G13  20990838.368    20990837.597                    20990832.890       -1418.810       -1418.810                       -1105.566   110307623.611   110307623.614                    85954000.813          50.500          39.250                          39.250
G14  20874433.719    20874433.473    20874429.650    20874429.478       -1854.855       -1854.855       -1445.342       -1445.342   109695932.431   109695932.437    85477356.552    85477360.556          50.500          41.000          48.500          41.000
G15  23110914.815    23110914.013    23110910.073    23110909.600       -2973.000       -2973.000       -2316.624       -2316.624   121448685.162   121448685.158    94635361.357    94635332.355          41.750          37.500          37.250          37.750
G20  24604331.857    24604331.180                    24604327.409       -2159.640       -2159.640                       -1682.837   129296641.461   129296641.459                   100750626.220          35.500          16.250                          16.250
G23  24853443.312    24853442.564    24853438.839    24853438.421       -2550.788       -2550.788       -1987.627       -1987.627   130605726.538   130605726.545   101770680.800   101770687.783          37.000          18.750          36.500          18.500
G27  24213317.091    24213316.548    24213314.479    24213313.971        2999.264        2999.264        2337.089        2337.089   127241873.975   127241873.972    99149515.242    99149518.247          38.750          33.750          38.250          33.750
G28  21277514.844    21277513.814                    21277509.160       -1992.293       -1992.293                       -1552.436   111814135.321   111814135.324                    87127904.411          49.250          38.750                          38.750
G30  20545962.288    20545961.376    20545959.818    20545959.316         937.854         937.854         730.795         730.795   107969796.418   107969796.417    84132308.740    84132307.737          52.000          46.000          50.250          45.500
R01  22847942.627    22847941.714    22847938.910    22847939.527        4526.979        4526.979        3520.984        3520.984   122135334.944   122135334.947    94994141.582    94994144.571          42.500          41.750          36.000          35.750
R02  19823022.377    19823022.025    19823017.939    19823017.382         638.579         638.579         496.672         496.672   105779446.189   105779446.191    82272902.912    82272905.909          55.250          53.750          49.750          49.250
R03  21988418.981    21988419.667    21988414.043    21988413.953       -3314.032       -3314.032       -2577.581       -2577.581   117705737.337   117705737.341    91548887.046    91548899.046          48.750          48.000          45.000          45.000
R10  23136334.001    23136333.755                                        3984.939        3984.939                                   123329721.015   123329721.012                                          42.500          41.500
R11  19425571.277    19425571.620    19425565.530    19425565.608        1401.500        1401.500        1090.055        1090.055   103804395.447   103804395.446    80736763.486    80736762.487          54.250          53.250          53.000          52.500
R12  20232657.582    20232657.969    20232654.283    20232653.729       -2595.480       -2595.480       -2018.707       -2018.707   108079268.784   108079268.786    84061649.161    84061642.158          53.500          53.000          48.750          49.000
R20  21663865.658    21663864.403    21663862.358    21663861.489        -674.508        -674.508        -524.617        -524.617   115846425.164   115846425.164    90102768.780    90102763.785          38.000          36.500          46.250          46.250
R21  23177044.225    23177045.156    23177039.757    23177039.565       -4088.793       -4088.793       -3180.173       -3180.173   124025060.731   124025060.736    96463927.879    96463924.889          44.500          43.250          41.500          41.000
> 2021 01 03 00 05 30.0000000  0 20
G05  24028143.625    24028143.447    24028140.824    24028139.624        3207.167        3207.167        2499.091        2499.091   126268742.643   126268742.646    98391235.614    98391214.625          40.000          25.250          37.000          24.500
G07  22071765.437    22071765.043    22071760.376    22071760.131        2551.780        2551.780        1988.400        1988.400   115987935.937   115987935.933    90380216.275    90380219.274          47.000          37.250          42.000          37.000
G08  22335273.272    22335272.513    22335271.975    22335270.960         936.140         936.140         729.460         729.460   117372690.112   117372690.111    91459255.969    91459249.972          45.250          44.500          43.500          44.500
G11  24033546.853    24033546.123                    24033541.979       -2649.242       -2649.242                       -2064.344   126297155.516   126297155.525                    98413363.189          39.250          21.000                          20.750
G13  20982790.904    20982790.354                    20982785.718       -1400.471       -1400.471                       -1091.276   110265334.716   110265334.718                    85921048.434          49.750          39.000                          39.250
G14  20863891.487    20863891.346    20863887.381    20863887.212       -1838.465       -1838.465       -1432.570       -1432.570   109640532.705   109640532.709    85434187.936    85434191.939          49.500          40.750          48.750          40.750
G15  23093978.787    23093978.785    23093975.695    23093974.426       -2960.021       -2960.021       -2306.510       -2306.510   121359689.556   121359689.558    94566014.159    94565985.155          41.500          37.500          37.500          37.750
G20  24592046.233    24592044.681                    24592040.362       -2144.306       -2144.306                       -1670.888   129232077.580   129232077.569                   100700316.705          36.000          16.000                          16.000
G23  24838921.211    24838921.180    24838917.172    24838917.596       -2536.670       -2536.670       -1976.626       -1976.626   130529418.955   130529418.959   101711220.350   101711227.349          36.000          18.250          36.750          18.250
G27  24230475.289    24230474.723    24230473.586    24230472.254        3012.416        3012.416        2347.337        2347.337   127332044.621   127332044.617    99219778.108    99219781.108          37.750          32.750          37.000          32.750
G28  21266181.340    21266180.525                    21266175.861       -1978.089       -1978.089                       -1541.368   111754578.521   111754578.519                    87081496.501          49.500          38.500                          38.250
G30  20551360.588    20551359.765    20551358.163    20551357.767         953.391         953.391         742.902         742.902   107998164.811   107998164.809    84154413.988    84154412.983          52.750          45.750          50.000          45.750
R01  22873367.268    22873367.229    22873364.642    22873364.482        4533.785        4533.785        3526.277        3526.277   122271246.018   122271246.022    95099850.133    95099853.141          43.000          42.000          36.000          36.000
R02  19826691.497    19826691.368    19826687.238    19826686.604         666.605         666.605         518.470         518.470   105799024.806   105799024.805    82288130.717    82288133.717          54.500          53.500          49.750          49.500
R03  21969895.248    21969895.457    21969890.242    21969889.915       -3296.534       -3296.534       -2563.971       -2563.971   117606578.537   117606578.550    91471763.559    91471775.555          48.250          47.750          44.750          44.750
R10  23158768.920    23158768.602                                        3987.960        3987.960                                   123449313.940   123449313.937                                          41.750          41.000
R11  19433490.208    19433490.476    19433484.060    19433484.209        1419.483        1419.483        1104.042        1104.042   103846710.416   103846710.417    80769675.131    80769674.134          54.500          53.500          53.000          52.250
R12  20218123.898    20218123.974    20218120.194    20218119.854       -2580.535       -2580.535       -2007.083       -2007.083   108001627.725   108001627.726    84001261.686    84001254.681          54.250          52.750          49.500          49.250
R20  21660161.590    21660161.142    21660158.397    21660157.803        -645.979        -645.979        -502.428        -502.428   115826619.854   115826619.863    90087364.683    90087359.681          38.000          36.500          46.000          46.250
R21  23154150.422    23154150.627    23154146.647    23154146.238       -4078.368       -4078.368       -3172.064       -3172.064   123902553.135   123902553.144    96368644.235    96368641.234          43.750          43.250          41.750          41.250
> 2021 01 03 00 06 00.0000000  0 20
G05  24046477.499    24046477.481    24046473.989    24046473.358        3215.781        3215.781        2505.803        2505.803   126365086.970   126365086.975    98466309.061    98466288.072          40.750          25.750          36.750          25.750
G07  22086361.460    22086360.780    22086356.337    22086356.082        2561.669        2561.669        1996.106        1996.106   116064637.011   116064637.010    90439983.345    90439986.341          48.000          36.500          42.000          37.000
G08  22340676.496    22340675.697    22340675.034    22340674.084         956.779         956.779         745.542         745.542   117401083.876   117401083.874    91481380.993    91481374.996          45.250          44.750          43.250          44.500
G11  24018457.641    24018456.771                    24018451.998       -2636.969       -2636.969                       -2054.781   126217860.586   126217860.590                    98351574.955          39.750          20.500                          20.500
G13  20974848.845    20974847.994                    20974843.292       -1381.986       -1381.986                       -1076.872   110223597.761   110223597.757                    85888526.134          50.250          39.500                          39.500
G14  20853443.447    20853443.050    20853439.115    20853438.982       -1822.021       -1822.021       -1419.756       -1419.756   109585627.087   109585627.089    85391404.346    85391408.348          49.500          41.250          48.750          40.750
G15  23077117.704    23077117.354    23077113.607    23077112.865       -2947.110       -2947.110       -2296.449       -2296.449   121271082.233   121271082.231    94496969.510    94496940.509          42.250          38.250          37.750          38.250
G20  24579847.706    24579846.519                    24579842.631       -2128.901       -2128.901                       -1658.884   129167977.356   129167977.365                   100650368.480          35.500          16.500                          16.500
G23  24824480.390    24824480.641    24824477.184    24824476.227       -2522.439       -2522.439       -1965.537       -1965.537   130453529.855   130453529.853   101652085.994   101652092.985          36.500          19.000          37.250          18.500
G27  24247709.516    24247709.071    24247707.025    24247706.268        3025.235        3025.235        2357.326        2357.326   127422609.045   127422609.038    99290347.785    99290350.789          38.500          33.250          37.250          33.250
G28  21254929.512    21254928.350                    21254923.669       -1963.890       -1963.890                       -1530.304   111695447.725   111695447.727                    87035420.551          49.250          38.750                          38.500
G30  20556846.988    20556846.089    20556844.507    20556844.032         968.751         968.751         754.871         754.871   108026995.704   108026995.703    84176879.620    84176878.618          52.750          46.000          50.000          45.750
R01  22898828.764    22898829.249    22898826.633    22898826.790        4540.127        4540.127        3531.210        3531.210   122407353.022   122407353.028    95205711.123    95205714.130          43.000          41.750          36.750          36.250
R02  19830517.950    19830517.649    19830513.596    19830513.486         694.525         694.525         540.186         540.186   105819443.570   105819443.567    82304011.977    82304014.973          54.500          53.500          50.000          49.250
R03  21951469.859    21951469.910    21951464.592    21951464.441       -3278.931       -3278.931       -2550.279       -2550.279   117507946.096   117507946.103    91395049.446    91395061.446          48.250          47.500          45.250          44.500
R10  23181222.523    23181221.687                                        3991.050        3991.050                                   123568998.712   123568998.711                                          43.000          41.500
R11  19441509.812    19441509.932    19441503.761    19441503.802        1437.422        1437.422        1117.995        1117.995   103889564.784   103889564.782    80803006.308    80803005.311          54.750          53.750          53.000          52.000
R12  20203673.367    20203673.488    20203669.351    20203668.860       -2565.566       -2565.566       -1995.440       -1995.440   107924435.241   107924435.242    83941223.104    83941216.098          54.000          53.250          49.500          48.500
R20  21656617.995    21656617.275    21656615.091    21656614.002        -617.353        -617.353        -480.163        -480.163   115807671.867   115807671.874    90072627.374    90072622.370          37.750          36.750          45.250          45.750
R21  23131316.775    23131316.822    23131311.991    23131311.195       -4067.852       -4067.852       -3163.885       -3163.885   123780359.948   123780359.955    96273605.096    96273602.100          44.500          43.250          41.750          41.500
> 2021 01 03 00 06 30.0000000  0 20
G05  24064860.189    24064859.973    24064855.556    24064855.552        3224.085        3224.085        2512.274        2512.274   126461687.066   126461687.069    98541581.840    98541560.840          40.500          25.000          35.500          25.250
G07  22101013.663    22101013.075    22101009.098    22101008.294        2571.556        2571.556        2003.810        2003.810   116141636.039   116141636.040    90499982.585    90499985.582          47.500          36.750          41.750          36.750
G08  22346197.793    22346196.847    22346196.523    22346195.480         977.365         977.365         761.583         761.583   117430098.145   117430098.142    91503989.523    91503983.523          44.750          44.500          43.500          44.750
G11  24003439.085    24003438.330                    24003433.670       -2624.615       -2624.615                       -2045.154   126138938.251   126138938.245                    98290077.028          39.250          20.500                          20.500
G13  20967011.661    20967011.171                    20967006.552       -1363.617       -1363.617                       -1062.558   110182414.663   110182414.664                    85856435.418          50.000          39.500                          39.500
G14  20843089.588    20843089.181    20843085.168    20843085.147       -1805.392       -1805.392       -1406.799       -1406.799   109531216.964   109531216.967    85349006.859    85349010.862          49.000          41.500          49.250          41.250
G15  23060330.748    23060330.256    23060325.617    23060325.861       -2934.018       -2934.018       -2286.248       -2286.248   121182866.085   121182866.083    94428229.662    94428200.669          42.000          38.750          38.250          39.000
G20  24567739.215    24567737.878                    24567733.942       -2113.437       -2113.437                       -1646.834   129104343.613   129104343.614                   100600783.720          36.250          17.000                          17.000
G23  24810119.709    24810119.328    24810115.043    24810115.417       -2508.731       -2508.731       -1954.856       -1954.856   130378061.927   130378061.939   101593279.805   101593286.809          36.500          19.250          37.000          19.250
G27  24265017.329    24265017.110    24265014.903    24265014.258        3038.164        3038.164        2367.401        2367.401   127513564.627   127513564.625    99361222.306    99361225.298          38.000          33.000          37.000          32.750
G28  21243758.535    21243757.469                    21243752.979       -1949.746       -1949.746                       -1519.282   111636744.729   111636744.728                    86989677.947          49.250          38.500                          38.750
G30  20562421.224    20562420.360    20562418.758    20562418.334         984.109         984.109         766.838         766.838   108056288.794   108056288.794    84199705.413    84199704.408          51.500          46.250          49.250          46.500
R01  22924326.341    22924326.356    22924323.812    22924323.680        4546.403        4546.403        3536.091        3536.091   122543652.393   122543652.396    95311721.700    95311724.715          42.250          41.500          36.250          36.000
R02  19834501.363    19834501.060    19834497.224    19834496.907         722.587         722.587         562.012         562.012   105840701.195   105840701.193    82320545.682    82320548.682          54.250          53.750          49.250          49.250
R03  21933143.803    21933143.810    21933138.777    21933138.388       -3261.214       -3261.214       -2536.500       -2536.500   117409844.282   117409844.285    91318748.051    91318760.048          48.500          47.250          45.000          44.500
R10  23203690.646    23203690.533                                        3993.961        3993.961                                   123688773.389   123688773.392                                          42.750          41.250
R11  19449630.092    19449630.105    19449624.068    19449624.213        1455.296        1455.296        1131.896        1131.896   103932957.236   103932957.237    80836756.008    80836755.011          54.000          54.000          52.500          52.250
R12  20189306.468    20189306.680    20189302.696    20189302.893       -2550.571       -2550.571       -1983.778       -1983.778   107847693.082   107847693.082    83881534.769    83881527.767          53.750          53.000          49.500          49.250
R20  21653235.949    21653235.301    21653232.503    21653231.379        -588.573        -588.573        -457.779        -457.779   115789582.438   115789582.436    90058557.835    90058552.829          38.000          36.750          45.500          46.250
R21  23108541.044    23108540.801    23108536.103    23108536.148       -4057.123       -4057.123       -3155.540       -3155.540   123658486.262   123658486.259    96178814.480    96178811.480          44.250          43.250          41.750          41.500
> 2021 01 03 00 07 00.0000000  0 20
G05  24083290.281    24083290.240    24083286.065    24083285.619        3232.558        3232.558        2518.877        2518.877   126558538.902   126558538.907    98617050.790    98617029.778          40.750          24.000          34.750          24.500
G07  22115722.273    22115721.762    22115717.654    22115717.178        2581.504        2581.504        2011.561        2011.561   116218931.545   116218931.543    90560212.840    90560215.838          47.250          36.750          42.000          37.000
G08  22351836.493    22351835.853    22351835.169    22351834.491         998.115         998.115         777.752         777.752   117459731.862   117459731.864    91527080.735    91527074.737          45.000          44.250          43.250          43.750
G11  23988491.657    23988491.090                    23988485.928       -2611.884       -2611.884                       -2035.234   126060391.284   126060391.287                    98228871.599          39.500          20.500                          21.000
G13  20959280.657    20959280.002                    20959275.118       -1344.965       -1344.965                       -1048.025   110141786.634   110141786.634                    85824777.218          49.750          39.500                          39.250
G14  20832830.140    20832829.799    20832825.690    20832825.676       -1788.792       -1788.792       -1393.864       -1393.864   109477303.391   109477303.396    85306996.298    85307000.302          49.000          41.250          49.000          40.750
G15  23043618.970    23043618.238    23043614.616    23043613.998       -2920.811       -2920.811       -2275.956       -2275.956   121095043.610   121095043.610    94359796.591    94359767.588          42.000          39.250          38.500          39.250
G20  24555719.631    24555717.892                    24555713.606       -2097.665       -2097.665                       -1634.544   129041178.374   129041178.373                   100551564.042          35.000          18.000                          17.750
G23  24795839.076    24795838.487    24795835.217    24795835.095       -2494.375       -2494.375       -1943.669       -1943.669   130303017.739   130303017.741   101534803.813   101534810.801          36.000          19.250          37.250          18.750
G27  24282399.294    24282398.689    24282397.229    24282397.169        3050.961        3050.961        2377.372        2377.372   127604908.352   127604908.350    99432399.228    99432402.239          37.250          33.000          38.000          33.000
G28  21232669.093    21232668.094                    21232663.530       -1935.276       -1935.276                       -1508.007   111578470.158   111578470.158                    86944269.186          48.750          39.000                          38.750
G30  20568083.290    20568082.459    20568080.933    20568080.469         999.505         999.505         778.835         778.835   108086043.451   108086043.448    84222890.862    84222889.861          51.250          45.500          50.000          45.250
R01  22949858.906    22949858.501    22949857.599    22949857.539        4552.704        4552.704        3540.992        3540.992   122680140.320   122680140.321    95417878.969    95417881.975          41.250          40.250          36.250          36.000
R02  19838642.655    19838642.303    19838638.106    19838637.960         750.521         750.521         583.738         583.738   105862797.729   105862797.727    82337731.869    82337734.868          54.500          53.750          50.000          49.250
R03  21914917.036    21914917.238    21914912.183    21914911.860       -3243.235       -3243.235       -2522.516       -2522.516   117312276.956   117312276.963    91242862.364    91242874.364          48.750          47.750          45.000          44.500
R10  23226177.570    23226176.966                                        3996.952        3996.952                                   123808636.251   123808636.247                                          42.750          41.250
R11  19457851.010    19457850.994    19457844.827    19457844.898        1473.192        1473.192        1145.816        1145.816   103976885.983   103976885.981    80870922.807    80870921.809          54.500          54.000          52.500          52.000
R12  20175024.519    20175024.907    20175020.869    20175020.900       -2535.440       -2535.440       -1972.009       -1972.009   107771402.613   107771402.611    83822197.752    83822190.751          53.500          53.000          49.000          48.750
R20  21650014.239    21650013.458    21650010.086    21650009.416        -560.003        -560.003        -435.558        -435.558   115772352.646   115772352.651    90045156.898    90045151.900          38.250          36.750          45.750          45.750
R21  23085826.255    23085826.848    23085821.574    23085821.484       -4046.272       -4046.272       -3147.101       -3147.101   123536936.307   123536936.304    96084275.645    96084272.637          44.750          44.000          41.750          41.500
> 2021 01 03 00 07 30.0000000  0 20
G05  24101767.766    24101767.645    24101764.773    24101763.666        3240.594        3240.594        2525.138        2525.138   126655639.098   126655639.098    98692713.258    98692692.269          40.250          24.500          35.250          24.000
G07  22130487.781    22130487.078    22130483.015    22130482.356        2591.206        2591.206        2019.122        2019.122   116296522.428   116296522.425    90620673.261    90620676.261          49.250          36.750          41.750          36.750
G08  22357593.254    22357592.528    22357591.869    22357591.105        1018.630        1018.630         793.738         793.738   117489983.303   117489983.298    91550653.298    91550647.300          46.250          44.500          43.000          44.500
G11  23973616.159    23973615.935                    23973611.055       -2599.289       -2599.289                       -2025.420   125982222.233   125982222.232                    98167960.642          38.750          20.750                          20.750
G13  20951655.288    20951654.687                    20951649.680       -1326.450       -1326.450                       -1033.598   110101715.173   110101715.175                    85793552.706          51.000          39.000                          39.250
G14  20822665.275    20822665.027    20822661.194    20822660.862       -1772.271       -1772.271       -1380.990       -1380.990   109423887.241   109423887.247    85265373.341    85265377.344          49.000          41.750          49.000          41.250
G15  23026981.610    23026981.528    23026978.138    23026977.379       -2907.811       -2907.811       -2265.827       -2265.827   121007617.177   121007617.166    94291672.112    94291643.107          43.000          39.500          39.000          39.500
G20  24543788.976    24543787.480                    24543783.706       -2081.974       -2081.974                       -1622.317   128978483.495   128978483.496                   100502710.899          38.000          18.500                          18.250
G23  24781639.184    24781639.059    24781636.346    24781635.296       -2480.160       -2480.160       -1932.592       -1932.592   130228399.438   130228399.439   101476659.661   101476666.671          36.000          18.750          36.500          19.000
G27  24299855.289    24299854.414    24299853.057    24299852.241        3063.986        3063.986        2387.521        2387.521   127696637.021   127696637.017    99503876.153    99503879.149          38.000          33.250          37.000          33.250
G28  21221661.715    21221660.600                    21221655.782       -1921.042       -1921.042                       -1496.916   111520624.776   111520624.772                    86899194.858          49.500          38.750                          38.750
G30  20573833.061    20573832.172    20573830.873    20573830.228        1014.737        1014.737         790.704         790.704   108116258.849   108116258.850    84246435.332    84246434.325          52.500          45.500          49.750          45.250
R01  22975426.325    22975426.101    22975422.759    22975422.284        4558.630        4558.630        3545.601        3545.601   122816812.699   122816812.695    95524179.684    95524182.675          41.250          41.000          35.000          34.750
R02  19842940.218    19842940.020    19842935.687    19842935.208         778.315         778.315         605.356         605.356   105885731.221   105885731.220    82355569.028    82355572.025          54.500          53.500          49.250          49.000
R03  21896791.597    21896791.764    21896786.047    21896785.956       -3225.383       -3225.383       -2508.631       -2508.631   117215247.588   117215247.597    91167395.094    91167407.097          48.500          48.250          45.000          44.500
R10  23248678.620    23248678.614                                        3999.554        3999.554                                   123928584.904   123928584.898                                          42.000          41.250
R11  19466171.489    19466171.698    19466165.260    19466165.626        1490.961        1490.961        1159.636        1159.636   104021349.380   104021349.380    80905505.458    80905504.463          54.500          53.500          53.000          52.000
R12  20160827.995    20160828.023    20160823.827    20160824.100       -2520.357       -2520.357       -1960.278       -1960.278   107695564.901   107695564.901    83763212.884    83763205.882          53.500          53.000          49.750          49.500
R20  21646952.585    21646951.665    21646948.948    21646947.999        -531.199        -531.199        -413.154        -413.154   115755982.960   115755982.969    90032424.943    90032419.938          37.500          37.000          45.500          45.750
R21  23063173.349    23063173.332    23063169.149    23063168.883       -4035.344       -4035.344       -3138.601       -3138.601   123415714.247   123415714.253    95989991.834    95989988.834          44.750          43.500          42.000          41.750
> 2021 01 03 00 08 00.0000000  0 20
G05  24120291.629    24120291.379    24120287.848    24120287.883        3249.020        3249.020        2531.704        2531.704   126752984.874   126752984.876    98768567.047    98768546.069          38.500          23.250          36.500          23.250
G07  22145308.599    22145308.302    22145303.864    22145303.432        2601.151        2601.151        2026.871        2026.871   116374407.545   116374407.542    90681362.963    90681365.959          47.750          36.750          42.000          36.500
G08  22363467.369    22363466.630    22363466.473    22363465.125        1039.180        1039.180         809.750         809.750   117520851.837   117520851.836    91574706.708    91574700.711          45.250          44.250          43.500          44.250
G11  23958814.670    23958813.865                    23958808.623       -2586.519       -2586.519                       -2015.469   125904433.895   125904433.892                    98107346.340          39.250          21.000                          21.250
G13  20944136.002    20944135.686                    20944130.738       -1307.729       -1307.729                       -1019.009   110062202.233   110062202.234                    85762763.410          49.000          39.250                          39.500
G14  20812595.342    20812595.129    20812591.370    20812590.867       -1755.543       -1755.543       -1367.955       -1367.955   109370969.805   109370969.809    85224138.990    85224142.994          50.250          41.000          48.750          40.750
G15  23010421.128    23010420.747    23010417.195    23010416.531       -2893.946       -2893.946       -2255.023       -2255.023   120920589.696   120920589.694    94223858.515    94223829.512          43.250          39.750          39.000          39.750
G20  24531948.601    24531947.203                    24531942.837       -2066.122       -2066.122                       -1609.965   128916261.180   128916261.177                   100454225.973          38.250          18.250                          18.250
G23  24767521.525    24767521.331    24767517.563    24767517.405       -2465.717       -2465.717       -1921.338       -1921.338   130154209.614   130154209.621   101418849.416   101418856.418          36.750          18.500          36.750          18.500
G27  24317383.160    24317382.218    24317380.623    24317379.636        3076.904        3076.904        2397.587        2397.587   127788747.820   127788747.813    99575650.787    99575653.789          36.500          33.250          37.750          33.000
G28  21210735.934    21210734.924                    21210730.324       -1906.570       -1906.570                       -1485.639   111463209.601   111463209.595                    86854455.759          49.250          39.000                          39.000
G30  20579670.302    20579669.508    20579667.869    20579667.609        1030.264        1030.264         802.803         802.803   108146934.620   108146934.620    84270338.532    84270337.528          52.000          45.500          49.750          45.500
R01  23001027.322    23001026.855    23001024.717    23001025.212        4564.935        4564.935        3550.505        3550.505   122953665.697   122953665.693    95630620.858    95630623.860          41.250          40.250          36.250          36.000
R02  19847394.687    19847394.450    19847390.294    19847389.942         806.346         806.346         627.158         627.158   105909501.603   105909501.600    82374057.092    82374060.089          54.250          53.250          49.500          49.500
R03  21878766.943    21878767.055    21878761.379    21878761.750       -3207.081       -3207.081       -2494.396       -2494.396   117118760.205   117118760.212    91092349.370    91092361.371          48.750          48.250          45.250          44.750
R10  23271198.194    23271197.180                                        4002.632        4002.632                                   124048617.597   124048617.598                                          43.250          42.000
R11  19474591.887    19474591.891    19474585.611    19474585.756        1508.787        1508.787        1173.501        1173.501   104066345.533   104066345.532    80940502.473    80940501.476          54.500          53.750          52.750          52.000
R12  20146715.887    20146716.225    20146712.363    20146712.077       -2505.124       -2505.124       -1948.429       -1948.429   107620181.775   107620181.778    83704581.586    83704574.584          53.750          53.250          49.500          49.250
R20  21644052.381    21644051.791    21644048.817    21644047.808        -502.564        -502.564        -390.883        -390.883   115740474.552   115740474.549    90020362.844    90020357.845          38.250          36.750          46.000          45.500
R21  23040581.780    23040582.182    23040577.819    23040577.522       -4023.965       -4023.965       -3129.750       -3129.750   123294824.768   123294824.773    95895966.691    95895963.678          44.500          44.000          41.750          41.750
> 2021 01 03 00 08 30.0000000  0 20
G05  24138862.658    24138862.557    24138858.760    24138858.744        3257.074        3257.074        2537.980        2537.980   126850573.070   126850573.072    98844609.756    98844588.754          40.250          25.750          36.750          26.000
G07  22160185.444    22160184.938    22160180.062    22160180.363        2610.849        2610.849        2034.428        2034.428   116452585.834   116452585.833    90742281.107    90742284.101          47.000          37.000          41.750          36.750
G08  22369458.562    22369458.048    22369457.105    22369456.250        1059.739        1059.739         825.771         825.771   117552336.315   117552336.314    91599240.081    91599234.081          45.750          44.250          43.000          44.250
G11  23944084.605    23944084.308                    23944079.609       -2573.655       -2573.655                       -2005.445   125827029.918   125827029.924                    98047031.550          39.000          21.750                          21.750
G13  20936723.876    20936723.222                    20936718.135       -1289.119       -1289.119                       -1004.508   110023249.269   110023249.266                    85732410.455          49.500          39.750                          40.000
G14  20802620.679    20802620.334    20802616.476    20802616.270       -1738.954       -1738.954       -1355.029       -1355.029   109318552.189   109318552.195    85183294.115    85183298.119          49.500          41.000          49.000          41.000
G15  22993937.102    22993936.406    22993932.541    22993932.054       -2880.731       -2880.731       -2244.726       -2244.726   120833963.729   120833963.731    94156357.784    94156328.785          42.750          40.500          39.500          40.000
G20  24520197.247    24520196.715                    24520192.747       -2050.414       -2050.414                       -1597.725   128854513.521   128854513.520                   100406110.938          37.000          18.500                          18.500
G23  24753486.565    24753485.757    24753481.885    24753481.630       -2451.473       -2451.473       -1910.239       -1910.239   130080450.782   130080450.783   101361374.988   101361381.991          36.250          19.000          37.000          19.000
G27  24334983.584    24334982.290    24334980.991    24334980.755        3089.181        3089.181        2407.154        2407.154   127881237.809   127881237.802    99647720.910    99647723.913          36.750          33.500          38.500          33.500
G28  21199892.257    21199891.168                    21199886.579       -1892.315       -1892.315                       -1474.531   111406225.936   111406225.938                    86810052.910          50.000          39.250                          39.000
G30  20585595.358    20585594.559    20585593.070    20585592.516        1045.492        1045.492         814.669         814.669   108178070.183   108178070.182    84294600.010    84294599.008          52.500          45.500          50.250          45.000
R01  23026661.882    23026661.974    23026658.775    23026659.355        4570.614        4570.614        3554.923        3554.923   123090695.677   123090695.676    95737199.681    95737202.684          41.750          40.500          35.750          35.250
R02  19852006.042    19852005.484    19852001.303    19852001.125         834.103         834.103         648.747         648.747   105934107.854   105934107.853    82393195.289    82393198.284          54.500          53.250          49.250          49.250
R03  21860844.304    21860844.600    21860839.228    21860838.704       -3188.966       -3188.966       -2480.307       -2480.307   117022818.735   117022818.738    91017728.242    91017740.243          49.750          48.750          45.500          44.250
R10  23293729.687    23293729.296                                        4005.115        4005.115                                   124168732.427   124168732.419                                          41.750          40.750
R11  19483111.472    19483111.792    19483105.896    19483105.823        1526.419        1526.419        1187.215        1187.215   104111872.997   104111872.998    80975912.733    80975911.735          54.250          53.250          52.750          52.000
R12  20132688.924    20132689.435    20132685.352    20132685.390       -2490.032       -2490.032       -1936.692       -1936.692   107545254.692   107545254.695    83646304.985    83646297.982          53.500          53.000          49.500          49.500
R20  21641313.504    21641312.688    21641310.257    21641309.024        -473.701        -473.701        -368.434        -368.434   115725828.378   115725828.380    90008971.399    90008966.393          38.250          36.750          45.250          46.250
R21  23018054.113    23018054.592    23018050.181    23018050.025       -4012.635       -4012.635       -3120.939       -3120.939   123174272.655   123174272.652    95802203.948    95802200.947          45.500          44.250          42.750          42.250
> 2021 01 03 00 09 00.0000000  0 20
G05  24157478.272    24157477.965    24157474.414    24157474.563        3264.938        3264.938        2544.108        2544.108   126948401.086   126948401.084    98920839.341    98920818.355          39.250          25.250          36.250          25.250
G07  22175118.061    22175117.373    22175112.637    22175112.643        2620.479        2620.479        2041.931        2041.931   116531055.919   116531055.916    90803426.619    90803429.615          48.500          36.750          41.500          36.750
G08  22375566.819    22375566.201    22375565.898    22375564.670        1080.203        1080.203         841.716         841.716   117584435.021   117584435.016    91624252.075    91624246.069          45.500          44.250          43.250          44.250
G11  23929428.824    23929428.377                    23929423.448       -2560.808       -2560.808                       -1995.435   125750012.547   125750012.553                    97987018.034          39.500          21.500                          21.500
G13  20929417.904    20929417.488                    20929412.558       -1270.362       -1270.362                        -989.892   109984857.874   109984857.873                    85702495.086          50.000          39.750                          39.500
G14  20792741.206    20792740.972    20792737.100    20792736.847       -1722.188       -1722.188       -1341.964       -1341.964   109266635.535   109266635.537    85142839.599    85142843.601          48.500          41.250          48.750          41.000
G15  22977529.402    22977528.738    22977525.377    22977524.682       -2867.262       -2867.262       -2234.230       -2234.230   120747741.610   120747741.608    94089171.735    94089142.739          42.000          39.750          39.500          39.750
G20  24508538.478    24508537.270                    24508533.151       -2034.301       -2034.301                       -1585.170   128793243.024   128793243.022                   100358367.711          37.500          18.250                          18.500
G23  24739531.901    24739532.369    24739528.093    24739528.173       -2436.902       -2436.902       -1898.885       -1898.885   130007125.454   130007125.455   101304238.386   101304245.373          36.500          18.750          37.000          18.750
G27  24352655.057    24352654.290    24352653.024    24352652.342        3101.574        3101.574        2416.812        2416.812   127974104.151   127974104.145    99720084.283    99720087.278          37.250          33.250          38.250          33.000
G28  21189130.713    21189129.718                    21189125.204       -1877.762       -1877.762                       -1463.191   111349674.316   111349674.315                    86765986.719          47.250          39.000                          39.000
G30  20591607.577    20591606.886    20591605.227    20591604.808        1060.802        1060.802         826.599         826.599   108209664.993   108209664.992    84319219.346    84319218.344          51.500          45.250          50.000          45.250
R01  23052328.491    23052328.032    23052326.956    23052327.477        4576.317        4576.317        3559.358        3559.358   123227898.818   123227898.818    95843913.235    95843916.233          41.250          40.500          36.500          36.000
R02  19856773.598    19856773.346    19856769.237    19856769.058         861.935         861.935         670.394         670.394   105959549.199   105959549.197    82412982.987    82412985.986          54.500          53.750          49.750          49.750
R03  21843023.961    21843024.490    21843019.042    21843018.749       -3170.476       -3170.476       -2465.926       -2465.926   116927426.957   116927426.963    90943534.651    90943546.650          49.250          48.750          45.250          44.500
R10  23316279.463    23316278.235                                        4007.808        4007.808                                   124288927.859   124288927.861                                          43.000          41.500
R11  19491730.374    19491730.775    19491724.875    19491724.791        1544.037        1544.037        1200.918        1200.918   104157929.939   104157929.939    81011734.802    81011733.807          54.250          53.750          52.750          52.000
R12  20118748.162    20118748.732    20118744.567    20118744.349       -2474.665       -2474.665       -1924.740       -1924.740   107470785.023   107470785.024    83588384.145    83588377.142          54.000          52.750          49.500          48.750
R20  21638736.426    21638734.408    21638732.315    21638731.643        -444.827        -444.827        -345.977        -345.977   115712044.788   115712044.797    89998250.834    89998245.830          38.250          37.000          46.000          45.750
R21  22995589.610    22995590.470    22995585.354    22995585.360       -4001.304       -4001.304       -3112.126       -3112.126   123054062.419   123054062.423    95708707.113    95708704.106          45.250          44.750          42.000          41.500
> 2021 01 03 00 09 30.0000000  0 20
G05  24176138.907    24176138.798    24176136.360    24176135.606        3272.552        3272.552        2550.040        2550.040   127046465.330   127046465.333    98997252.997    98997232.005          38.250          23.500          36.250          23.500
G07  22190105.337    22190105.087    22190100.609    22190100.272        2630.196        2630.196        2049.503        2049.503   116609816.551   116609816.548    90864798.538    90864801.539          48.500          36.000          41.250          36.250
G08  22381791.791    22381791.190    22381790.856    22381789.554        1100.645        1100.645         857.646         857.646   117617147.228   117617147.223    91649742.119    91649736.116          45.250          44.250          43.250          44.000
G11  23914846.586    23914846.086                    23914841.413       -2547.678       -2547.678                       -1985.204   125673384.851   125673384.850                    97927308.171          39.750          21.000                          21.250
G13  20922219.443    20922218.826                    20922214.026       -1251.602       -1251.602                        -975.274   109947029.261   109947029.259                    85673018.252          50.250          39.750                          39.500
G14  20782957.379    20782957.070    20782953.283    20782953.063       -1705.412       -1705.412       -1328.892       -1328.892   109215220.913   109215220.917    85102776.273    85102780.278          49.750          41.250          49.000          41.000
G15  22961198.827    22961198.508    22961194.376    22961194.554       -2853.720       -2853.720       -2223.678       -2223.678   120661925.920   120661925.920    94022302.394    94022273.394          42.250          39.500          39.750          39.750
G20  24496970.814    24496969.666                    24496964.886       -2018.346       -2018.346                       -1572.737   128732451.336   128732451.336                   100310997.562          38.000          18.250                          18.250
G23  24725661.117    24725662.045    24725658.744    24725657.894       -2422.402       -2422.402       -1887.587       -1887.587   129934236.075   129934236.075   101247441.459   101247448.453          36.500          19.250          37.250          19.250
G27  24370398.779    24370397.986    24370395.970    24370396.118        3113.961        3113.961        2426.463        2426.463   128067343.887   128067343.884    99792738.613    99792741.611          38.250          34.500          38.750          34.250
G28  21178451.952    21178450.893                    21178446.161       -1863.385       -1863.385                       -1451.988   111293555.839   111293555.841                    86722258.044          49.750          38.750                          39.250
G30  20597707.226    20597706.351    20597704.719    20597704.334        1076.069        1076.069         838.496         838.496   108241718.441   108241718.442    84344196.063    84344195.060          52.250          45.250          49.750          45.250
R01  23078026.980    23078027.226    23078025.242    23078026.003        4581.760        4581.760        3563.591        3563.591   123365271.208   123365271.209    95950758.363    95950761.365          41.250          40.250          36.750          36.250
R02  19861697.785    19861697.406    19861693.320    19861692.948         889.773         889.773         692.045         692.045   105985824.983   105985824.982    82433419.702    82433422.701          54.250          53.750          49.000          49.250
R03  21825308.029    21825307.830    21825302.734    21825302.169       -3151.957       -3151.957       -2451.522       -2451.522   116832588.778   116832588.781    90869771.622    90869783.631          49.750          48.750          44.750          44.500
R10  23338842.599    23338841.260                                        4010.423        4010.423                                   124409201.646   124409201.640                                          42.500          41.250
R11  19500448.439    19500448.442    19500442.371    19500442.437        1561.667        1561.667        1214.630        1214.630   104204514.962   104204514.961    81047967.604    81047966.606          54.250          54.000          52.750          52.000
R12  20104893.225    20104893.658    20104889.637    20104889.291       -2459.381       -2459.381       -1912.852       -1912.852   107396774.144   107396774.143    83530820.139    83530813.137          53.750          53.000          49.750          49.000
R20  21636319.648    21636319.252    21636316.310    21636315.396        -416.294        -416.294        -323.784        -323.784   115699125.190   115699125.189    89988202.257    89988197.252          38.000          37.000          45.750          45.750
R21  22973190.812    22973190.892    22973186.104    22973186.047       -3989.582       -3989.582       -3103.009       -3103.009   122934198.557   122934198.563    95615479.652    95615476.647          46.000          44.500          42.750          42.000
> 2021 01 03 00 10 00.0000000  0 20
G05  24194845.139    24194844.810    24194842.156    24194841.433        3280.608        3280.608        2556.318        2556.318   127144763.085   127144763.085    99073848.599    99073827.606          40.500          24.250          36.500          24.250
G07  22205148.130    22205147.670    22205143.559    22205142.984        2639.924        2639.924        2057.084        2057.084   116688866.742   116688866.742    90926396.089    90926399.085          47.500          36.000          41.500          36.250
G08  22388133.173    22388132.434    22388132.006    22388130.895        1120.958        1120.958         873.474         873.474   117650471.238   117650471.234    91675708.896    91675702.893          44.250          44.250          43.500          44.250
G11  23900340.643    23900339.647                    23900334.742       -2534.667       -2534.667                       -1975.066   125597150.098   125597150.097                    97867904.494          40.250          21.750                          21.750
G13  20915128.337    20915127.726                    20915122.937       -1232.640       -1232.640                        -960.499   109909765.046   109909765.044                    85643981.208          50.000          39.500                          39.500
G14  20773269.198    20773268.930    20773265.113    20773264.748       -1688.604       -1688.604       -1315.796       -1315.796   109164309.519   109164309.524    85063105.079    85063109.081          48.250          41.750          48.500          41.500
G15  22944946.551    22944946.055    22944942.824    22944942.310       -2840.006       -2840.006       -2212.991       -2212.991   120576519.626   120576519.621    93955752.066    93955723.062          43.000          39.500          40.000          39.500
G20  24485494.129    24485492.639                    24485488.638       -2002.226       -2002.226                       -1560.176   128672141.072   128672141.083                   100264002.565          37.750          18.250                          18.500
G23  24711875.048    24711875.139    24711871.321    24711871.406       -2407.535       -2407.535       -1876.001       -1876.001   129861785.294   129861785.297   101190986.304   101190993.305          36.500          19.750          37.750          19.250
G27  24388211.681    24388210.709    24388208.595    24388208.899        3126.513        3126.513        2436.244        2436.244   128160954.240   128160954.232    99865681.750    99865684.753          37.500          32.750          37.250          32.750
G28  21167855.312    21167854.349                    21167849.738       -1848.851       -1848.851                       -1440.663   111237871.225   111237871.224                    86678867.447          49.000          39.000                          39.000
G30  20603894.185    20603893.142    20603891.581    20603891.189        1091.471        1091.471         850.497         850.497   108274230.104   108274230.104    84369529.828    84369528.823          51.500          45.250          49.500          45.250
R01  23103757.194    23103757.033    23103753.295    23103754.562        4587.426        4587.426        3567.999        3567.999   123502809.418   123502809.418    96057732.528    96057735.536          42.500          41.750          35.750          35.000
R02  19866777.958    19866777.701    19866773.552    19866773.344         917.624         917.624         713.708         713.708   106012934.232   106012934.233    82454504.667    82454507.666          54.250          53.750          49.250          49.750
R03  21807695.307    21807695.533    21807689.549    21807689.452       -3133.244       -3133.244       -2436.968       -2436.968   116738308.179   116738308.188    90796442.288    90796454.289          49.750          49.000          45.000          44.500
R10  23361418.445    23361418.229                                        4012.976        4012.976                                   124529551.981   124529551.982                                          41.500          40.500
R11  19509264.302    19509264.773    19509258.724    19509258.675        1579.233        1579.233        1228.292        1228.292   104251626.253   104251626.254    81084609.726    81084608.729          54.500          53.750          52.750          52.000
R12  20091124.402    20091124.818    20091120.868    20091120.532       -2443.904       -2443.904       -1900.814       -1900.814   107323223.871   107323223.874    83473614.392    83473607.389          53.750          52.750          49.750          49.250
R20  21634065.359    21634064.906    21634062.271    21634061.031        -387.447        -387.447        -301.347        -301.347   115687069.959   115687069.958    89978825.973    89978820.967          38.500          36.750          46.000          46.750
R21  22950856.745    22950856.949    22950852.216    22950851.840       -3977.769       -3977.769       -3093.820       -3093.820   122814685.754   122814685.762    95522525.251    95522522.249          45.500          44.750          42.250          41.750
> 2021 01 03 00 10 30.0000000  0 20
G05  24213594.230    24213593.956    24213590.344    24213590.245        3288.003        3288.003        2562.080        2562.080   127243291.098   127243291.100    99150623.652    99150602.657          39.250          24.000          36.250          24.000
G07  22220245.978    22220245.462    22220240.993    22220240.925        2649.438        2649.438        2064.497        2064.497   116768205.874   116768205.873    90988218.783    90988221.780          47.500          36.250          41.500          36.250
G08  22394591.142    22394589.979    22394589.441    22394588.397        1141.180        1141.180         889.231         889.231   117684406.001   117684405.998    91702151.581    91702145.581          43.000          44.250          43.250          44.000
G11  23885908.644    23885907.819                    23885903.308       -2521.270       -2521.270                       -1964.626   125521310.913   125521310.915                    97808809.075          39.750          21.500                          21.500
G13  20908144.927    20908144.323                    20908139.431       -1213.800       -1213.800                        -945.818   109873067.308   109873067.306                    85615385.577          50.000          39.500                          40.000
G14  20763677.021    20763676.789    20763672.650    20763672.527       -1671.820       -1671.820       -1302.717       -1302.717   109113902.460   109113902.464    85023826.867    85023830.869          50.000          41.500          49.000          41.250
G15  22928773.005    22928772.432    22928768.753    22928768.501       -2826.170       -2826.170       -2202.210       -2202.210   120491525.298   120491525.301    93889522.752    93889493.751          42.750          40.000          40.000          40.250
G20  24474109.313    24474107.669                    24474103.884       -1986.114       -1986.114                       -1547.621   128612314.033   128612314.031                   100217384.118          38.250          19.000                          18.750
G23  24698172.631    24698171.854    24698168.568    24698168.253       -2392.984       -2392.984       -1864.663       -1864.663   129789775.395   129789775.398   101134874.721   101134881.714          37.750          20.500          37.500          20.500
G27  24406094.391    24406093.520    24406092.080    24406091.979        3138.438        3138.438        2445.535        2445.535   128254932.150   128254932.142    99938911.288    99938914.302          36.500          31.250          37.000          31.250
G28  21157341.959    21157340.745                    21157336.067       -1834.340       -1834.340                       -1429.356   111182622.232   111182622.231                    86635816.300          48.750          39.000                          39.000
G30  20610168.079    20610167.045    20610165.494    20610164.936        1106.607        1106.607         862.291         862.291   108307199.356   108307199.358    84395220.159    84395219.155          51.250          45.250          49.750          45.000
R01  23129516.047    23129516.371    23129513.742    23129514.482        4592.668        4592.668        3572.075        3572.075   123640509.345   123640509.351    96164832.478    96164835.472          42.000          41.000          36.500          35.750
R02  19872014.664    19872014.204    19872009.572    19872009.534         945.249         945.249         735.194         735.194   106040875.800   106040875.800    82476236.997    82476239.994          54.500          53.500          49.250          49.250
R03  21790187.682    21790187.934    21790182.315    21790182.220       -3114.645       -3114.645       -2422.502       -2422.502   116644589.178   116644589.181    90723549.737    90723561.734          50.250          49.250          44.750          44.000
R10  23384010.487    23384009.972                                        4015.448        4015.448                                   124649977.070   124649977.078                                          41.750          40.750
R11  19518178.992    19518179.180    19518173.245    19518173.276        1596.597        1596.597        1241.797        1241.797   104299262.327   104299262.328    81121660.016    81121659.018          54.500          54.000          52.750          51.500
R12  20077442.075    20077442.496    20077438.504    20077438.353       -2428.579       -2428.579       -1888.895       -1888.895   107250135.597   107250135.598    83416767.976    83416760.975          53.500          52.750          50.000          49.250
R20  21631971.857    21631971.510    21631969.419    21631968.394        -358.420        -358.420        -278.771        -278.771   115675880.070   115675880.069    89970122.726    89970117.720          37.750          36.750          46.000          45.500
R21  22928589.998    22928589.912    22928584.684    22928584.931       -3966.036       -3966.036       -3084.695       -3084.695   122695528.534   122695528.535    95429847.419    95429844.416          46.000          44.750          42.750          42.250
> 2021 01 03 00 11 00.0000000  0 20
G05  24232387.179    24232386.493    24232383.794    24232382.744        3295.604        3295.604        2568.003        2568.003   127342046.497   127342046.496    99227575.846    99227554.865          39.250          24.000          36.500          23.750
G07  22235398.360    22235397.788    22235393.416    22235392.987        2658.953        2658.953        2071.912        2071.912   116847831.899   116847831.896    91050265.033    91050268.029          47.500          36.250          41.250          36.250
G08  22401164.059    22401163.239    22401162.823    22401161.876        1161.441        1161.441         905.019         905.019   117718949.652   117718949.646    91729068.725    91729062.724          45.000          44.000          43.250          44.250
G11  23871552.444    23871551.924                    23871547.010       -2508.061       -2508.061                       -1954.333   125445869.882   125445869.880                    97750023.888          40.500          21.750                          21.750
G13  20901269.799    20901268.964                    20901264.130       -1194.919       -1194.919                        -931.106   109836937.195   109836937.196                    85587232.251          50.000          40.000                          40.000
G14  20754180.993    20754180.667    20754176.832    20754176.632       -1654.996       -1654.996       -1289.607       -1289.607   109064000.612   109064000.617    84984942.323    84984946.327          49.500          41.250          49.250          41.000
G15  22912677.947    22912677.264    22912673.324    22912673.313       -2812.444       -2812.444       -2191.515       -2191.515   120406945.221   120406945.219    93823616.218    93823587.217          41.750          39.750          39.750          39.750
G20  24462816.699    24462815.406                    24462811.356       -1969.925       -1969.925                       -1535.006   128552972.208   128552972.207                   100171143.753          36.000          19.000                          19.000
G23  24684553.951    24684553.396    24684549.085    24684549.613       -2377.984       -2377.984       -1852.975       -1852.975   129718208.769   129718208.771   101079108.511   101079115.514          38.000          20.500          37.750          20.750
G27  24424047.089    24424046.730    24424045.098    24424044.986        3150.754        3150.754        2455.133        2455.133   128349274.653   128349274.651   100012424.957   100012427.962          36.750          31.000          36.250          31.000
G28  21146911.143    21146910.230                    21146905.574       -1819.819       -1819.819                       -1418.041   111127809.044   111127809.044                    86593104.741          49.250          39.250                          39.250
G30  20616528.680    20616527.852    20616526.229    20616525.728        1121.794        1121.794         874.126         874.126   108340625.481   108340625.479    84421266.490    84421265.486          52.750          45.000          49.500          45.000
R01  23155305.266    23155305.390    23155303.097    23155303.467        4597.899        4597.899        3576.144        3576.144   123778367.322   123778367.327    96272055.271    96272058.277          41.750          41.000          36.250          35.750
R02  19877406.522    19877405.904    19877401.842    19877401.676         972.870         972.870         756.677         756.677   106069648.557   106069648.557    82498615.801    82498618.799          54.750          53.750          49.500          49.000
R03  21772785.510    21772786.042    21772780.433    21772780.327       -3095.812       -3095.812       -2407.854       -2407.854   116551435.059   116551435.062    90651096.537    90651108.534          49.750          49.000          44.750          44.500
R10  23406614.825    23406614.132                                        4017.787        4017.787                                   124770475.162   124770475.160                                          40.250          39.500
R11  19527191.198    19527191.411    19527185.415    19527185.406        1613.961        1613.961        1255.303        1255.303   104347421.119   104347421.119    81159116.860    81159115.863          54.500          54.250          52.500          52.000
R12  20063846.788    20063847.044    20063843.039    20063842.886       -2413.179       -2413.179       -1876.916       -1876.916   107177510.597   107177510.595    83360281.877    83360274.875          53.500          52.750          49.500          49.000
R20  21630041.488    21630042.267    21630038.684    21630037.767        -329.648        -329.648        -256.393        -256.393   115665555.912   115665555.924    89962092.825    89962087.822          38.250          37.000          46.000          46.000
R21  22906389.618    22906389.909    22906384.776    22906384.815       -3953.956       -3953.956       -3075.299       -3075.299   122576731.263   122576731.262    95337449.533    95337446.530          46.250          45.500          42.750          42.500
> 2021 01 03 00 11 30.0000000  0 20
G05  24251222.486    24251221.898    24251218.471    24251217.936        3302.977        3302.977        2573.749        2573.749   127441025.858   127441025.861    99304702.579    99304681.581          41.750          25.500          36.500          25.250
G07  22250605.056    22250604.710    22250599.836    22250599.864        2668.547        2668.547        2079.388        2079.388   116927744.118   116927744.117    91112534.289    91112537.290          47.500          35.750          41.250          36.000
G08  22407853.315    22407852.718    22407851.934    22407851.038        1181.842        1181.842         920.916         920.916   117754101.819   117754101.818    91756460.045    91756454.045          45.250          44.000          43.500          43.750
G11  23857272.963    23857272.314                    23857267.008       -2494.527       -2494.527                       -1943.787   125370830.352   125370830.356                    97691551.554          40.500          21.500                          21.500
G13  20894502.502    20894501.987                    20894497.236       -1175.857       -1175.857                        -916.252   109801376.242   109801376.246                    85559522.429          50.000          39.750                          40.250
G14  20744781.586    20744781.103    20744777.439    20744776.943       -1638.097       -1638.097       -1276.439       -1276.439   109014605.173   109014605.181    84946452.387    84946456.390          48.750          41.500          48.750          41.000
G15  22896662.020    22896661.442    22896657.629    22896657.547       -2798.422       -2798.422       -2180.589       -2180.589   120322782.068   120322782.065    93758034.558    93758005.560          41.750          39.500          39.250          39.500
G20  24451616.922    24451616.044                    24451611.515       -1953.566       -1953.566                       -1522.259   128494117.993   128494117.990                   100125283.331          38.250          19.000                          19.000
G23  24671020.589    24671019.828    24671016.294    24671015.382       -2363.200       -2363.200       -1841.455       -1841.455   129647087.894   129647087.894   101023689.641   101023696.646          38.500          21.250          37.750          21.000
G27  24442068.528    24442068.300    24442066.868    24442065.816        3162.851        3162.851        2464.559        2464.559   128443978.948   128443978.959   100086220.544   100086223.542          36.000          30.500          35.500          30.500
G28  21136563.656    21136562.723                    21136558.211       -1805.200       -1805.200                       -1406.650   111073432.720   111073432.717                    86550733.599          48.250          39.250                          39.500
G30  20622976.233    20622975.466    20622973.891    20622973.304        1137.044        1137.044         886.008         886.008   108374508.015   108374508.017    84447668.470    84447667.468          52.500          45.000          49.500          45.000
R01  23181122.604    23181121.823    23181120.821    23181120.955        4602.897        4602.897        3580.031        3580.031   123916379.575   123916379.575    96379398.118    96379401.135          40.500          39.250          35.000          34.500
R02  19882954.176    19882953.812    19882949.239    19882949.002        1000.582        1000.582         778.231         778.231   106099251.886   106099251.886    82521640.611    82521643.609          54.500          53.750          49.750          49.000
R03  21755490.117    21755490.273    21755484.927    21755484.862       -3076.760       -3076.760       -2393.035       -2393.035   116458849.858   116458849.865    90579085.833    90579097.834          50.500          49.250          45.000          44.500
R10  23429235.381    23429234.331                                        4020.199        4020.199                                   124891044.330   124891044.328                                          42.750          41.750
R11  19536301.049    19536301.235    19536294.942    19536295.198        1631.336        1631.336        1268.817        1268.817   104396101.229   104396101.227    81196979.169    81196978.174          54.750          54.000          52.750          52.000
R12  20050338.237    20050338.368    20050334.420    20050334.055       -2397.580       -2397.580       -1864.784       -1864.784   107105350.442   107105350.441    83304157.338    83304150.332          53.750          53.250          49.750          49.000
R20  21628273.144    21628272.298    21628270.236    21628269.271        -300.951        -300.951        -234.073        -234.073   115656098.168   115656098.173    89954736.807    89954731.803          38.250          36.750          45.500          46.000
R21  22884257.522    22884258.017    22884252.477    22884252.278       -3941.708       -3941.708       -3065.773       -3065.773   122458298.693   122458298.695    95245335.331    95245332.326          46.500          45.500          42.500          42.250
> 2021 01 03 00 12 00.0000000  0 20
G05  24270099.333    24270099.388    24270095.415    24270095.316        3310.435        3310.435        2579.560        2579.560   127540226.195   127540226.203    99382001.539    99381980.546          40.750          25.000          35.500          25.250
G07  22265866.052    22265865.562    22265860.882    22265860.692        2677.978        2677.978        2086.736        2086.736   117007941.354   117007941.353    91175025.637    91175028.639          46.750          36.000          41.250          35.750
G08  22414658.030    22414657.262    22414657.016    22414655.818        1202.048        1202.048         936.661         936.661   117789860.664   117789860.661    91784324.095    91784318.097          44.750          44.000          43.750          44.250
G11  23843070.037    23843069.067                    23843064.673       -2481.149       -2481.149                       -1933.363   125296194.940   125296194.942                    97633394.136          40.500          21.750                          22.000
G13  20887844.133    20887843.532                    20887838.766       -1156.806       -1156.806                        -901.407   109766385.860   109766385.862                    85532257.206          50.500          40.250                          40.250
G14  20735478.115    20735477.967    20735474.316    20735473.873       -1621.119       -1621.119       -1263.210       -1263.210   108965717.266   108965717.271    84908357.921    84908361.923          49.750          41.500          49.000          41.250
G15  22880725.865    22880725.371    22880721.677    22880721.432       -2784.296       -2784.296       -2169.581       -2169.581   120239038.668   120239038.666    93692779.989    93692750.987          42.500          39.000          39.000          38.750
G20  24440510.386    24440509.546                    24440504.935       -1937.428       -1937.428                       -1509.684   128435753.161   128435753.165                   100079804.258          38.500          19.500                          19.250
G23  24657571.473    24657571.057    24657566.938    24657567.233       -2348.400       -2348.400       -1829.922       -1829.922   129576415.316   129576415.317   100968620.108   100968627.098          37.500          21.750          38.000          21.750
G27  24460159.423    24460158.999    24460156.389    24460155.803        3174.653        3174.653        2473.755        2473.755   128539042.112   128539042.115   100160295.720   100160298.721          37.000          30.750          35.750          30.750
G28  21126299.586    21126298.545                    21126294.016       -1790.607       -1790.607                       -1395.278   111019494.418   111019494.418                    86508703.774          48.750          39.250                          39.250
G30  20629510.517    20629509.853    20629508.070    20629507.716        1152.191        1152.191         897.811         897.811   108408846.403   108408846.401    84474425.657    84474424.655          52.500          45.750          49.500          45.250
R01  23206969.305    23206969.700    23206966.740    23206966.850        4607.785        4607.785        3583.833        3583.833   124054542.273   124054542.278    96486857.982    96486860.986          41.500          40.750          34.750          34.250
R02  19888656.783    19888656.344    19888652.347    19888652.102        1028.212        1028.212         799.720         799.720   106129684.211   106129684.210    82545310.182    82545313.182          54.000          53.250          49.250          48.750
R03  21738301.434    21738301.611    21738296.293    21738295.664       -3057.479       -3057.479       -2378.039       -2378.039   116366837.636   116366837.640    90507520.766    90507532.766          50.000          49.500          44.750          44.500
R10  23451866.361    23451865.770                                        4022.356        4022.356                                   125011683.040   125011683.043                                          42.250          41.500
R11  19545508.042    19545508.341    19545502.169    19545502.360        1648.602        1648.602        1282.246        1282.246   104445301.025   104445301.024    81235245.682    81235244.687          54.000          53.250          52.500          51.750
R12  20036916.836    20036917.620    20036913.278    20036913.156       -2382.009       -2382.009       -1852.674       -1852.674   107033656.554   107033656.554    83248395.443    83248388.439          54.250          53.250          50.000          49.500
R20  21626666.909    21626666.366    21626663.733    21626662.942        -271.941        -271.941        -211.510        -211.510   115647507.516   115647507.511    89948055.180    89948050.175          38.250          37.000          45.750          46.000
R21  22862194.393    22862195.054    22862190.248    22862189.442       -3929.248       -3929.248       -3056.082       -3056.082   122340235.479   122340235.490    95153508.420    95153505.414          45.750          45.750          43.250          42.250
> 2021 01 03 00 12 30.0000000  0 20
G05  24289017.769    24289017.597    24289014.346    24289013.894        3317.397        3317.397        2584.984        2584.984   127639644.538   127639644.543    99459470.355    99459449.352          40.000          23.500          35.750          23.500
G07  22281180.896    22281180.510    22281176.111    22281175.815        2687.289        2687.289        2093.991        2093.991   117088422.072   117088422.070    91237737.885    91237740.882          46.750          35.750          41.250          35.750
G08  22421577.677    22421577.083    22421576.386    22421575.526        1222.092        1222.092         952.279         952.279   117826225.255   117826225.252    91812660.153    91812654.155          45.250          43.500          43.500          43.750
G11  23828945.519    23828944.512                    23828939.829       -2467.532       -2467.532                       -1922.753   125221966.455   125221966.461                    97575553.808          41.000          22.500                          22.250
G13  20881294.653    20881293.980                    20881289.062       -1137.801       -1137.801                        -886.598   109731967.688   109731967.688                    85505437.860          50.250          40.250                          40.250
G14  20726271.856    20726271.685    20726267.796    20726267.592       -1604.219       -1604.219       -1250.041       -1250.041   108917337.919   108917337.924    84870659.736    84870663.742          49.500          41.250          49.250          41.250
G15  22864870.162    22864869.930    22864866.212    22864865.861       -2770.440       -2770.440       -2158.785       -2158.785   120155717.509   120155717.504    93627854.431    93627825.424          41.500          38.000          38.250          37.750
G20  24429497.202    24429496.419                    24429492.040       -1920.961       -1920.961                       -1496.853   128377879.849   128377879.851                   100034708.189          39.000          19.250                          19.750
G23  24644207.852    24644207.979    24644204.074    24644204.203       -2333.193       -2333.193       -1818.072       -1818.072   129506193.561   129506193.563   100913901.864   100913908.859          38.750          21.750          37.750          21.750
G27  24478317.587    24478317.040    24478314.656    24478314.306        3186.598        3186.598        2483.063        2483.063   128634461.321   128634461.328   100234648.331   100234651.335          37.750          32.250          36.750          32.000
G28  21116118.907    21116117.970                    21116113.407       -1775.987       -1775.987                       -1383.886   110965994.850   110965994.850                    86467015.819          49.250          39.750                          39.500
G30  20636131.658    20636130.808    20636129.204    20636128.730        1167.315        1167.315         909.596         909.596   108443640.058   108443640.058    84501537.601    84501536.598          52.500          45.250          49.500          44.750
R01  23232843.675    23232843.746    23232841.162    23232841.398        4612.682        4612.682        3587.641        3587.641   124192851.924   124192851.925    96594432.125    96594435.136          41.500          40.750          36.000          35.750
R02  19894515.092    19894514.581    19894510.832    19894510.179        1055.779        1055.779         821.161         821.161   106160944.858   106160944.860    82569624.024    82569627.023          54.250          53.500          49.250          49.250
R03  21721220.730    21721220.994    21721215.179    21721214.856       -3038.292       -3038.292       -2363.116       -2363.116   116275402.244   116275402.245    90436404.359    90436416.358          50.500          49.250          45.000          44.750
R10  23474509.619    23474509.150                                        4024.523        4024.523                                   125132389.323   125132389.325                                          41.500          40.000
R11  19554811.993    19554812.184    19554806.104    19554806.342        1665.779        1665.779        1295.606        1295.606   104495018.695   104495018.692    81273914.988    81273913.993          54.500          53.500          52.750          52.000
R12  20023583.505    20023583.910    20023579.605    20023579.402       -2366.495       -2366.495       -1840.608       -1840.608   106962430.603   106962430.605    83192997.506    83192990.507          54.500          53.250          49.750          49.500
R20  21625223.249    21625222.134    21625219.496    21625218.237        -243.095        -243.095        -189.074        -189.074   115639784.447   115639784.446    89942048.361    89942043.354          38.500          37.250          45.750          46.000
R21  22840201.445    22840201.856    22840197.047    22840196.850       -3916.679       -3916.679       -3046.306       -3046.306   122222546.333   122222546.333    95061972.453    95061969.450          46.250          45.500          43.000          42.750
> 2021 01 03 00 13 00.0000000  0 20
G05  24307977.522    24307977.411    24307974.294    24307973.956        3324.649        3324.649        2590.636        2590.636   127739278.091   127739278.096    99537106.841    99537085.846          39.750          25.000          36.750          25.000
G07  22296549.902    22296549.374    22296544.758    22296544.672        2696.798        2696.798        2101.401        2101.401   117169185.543   117169185.541    91300670.455    91300673.453          46.000          35.500          41.250          35.500
G08  22428612.927    22428612.182    22428611.477    22428610.575        1242.460        1242.460         968.150         968.150   117863194.163   117863194.166    91841467.120    91841461.118          44.250          44.000          43.250          43.750
G11  23814897.322    23814896.806                    23814892.183       -2453.730       -2453.730                       -1911.998   125148147.997   125148147.994                    97518032.965          39.750          22.000                          22.500
G13  20874854.103    20874853.521                    20874848.666       -1118.541       -1118.541                        -871.591   109698123.151   109698123.152                    85479065.503          51.250          39.750                          40.000
G14  20717162.595    20717162.367    20717158.533    20717158.307       -1587.180       -1587.180       -1236.764       -1236.764   108869468.127   108869468.131    84833358.611    84833362.611          49.000          41.500          49.500          41.250
G15  22849095.566    22849095.267    22849091.369    22849091.155       -2756.101       -2756.101       -2147.611       -2147.611   120072821.290   120072821.285    93563259.991    93563230.991          41.500          38.250          38.000          38.250
G20  24418578.918    24418577.764                    24418573.477       -1904.433       -1904.433                       -1483.974   128320500.395   128320500.395                    99989996.932          38.750          19.500                          19.500
G23  24630932.113    24630931.964    24630927.590    24630927.865       -2318.023       -2318.023       -1806.252       -1806.252   129436424.927   129436424.927   100859536.686   100859543.694          38.750          21.750          37.750          21.750
G27  24496541.918    24496540.905    24496539.558    24496539.157        3198.200        3198.200        2492.104        2492.104   128730233.587   128730233.587   100309276.065   100309279.081          36.750          31.000          37.000          31.000
G28  21106022.133    21106021.061                    21106016.335       -1761.377       -1761.377                       -1372.501   110912935.062   110912935.061                    86425670.551          49.500          39.750                          39.500
G30  20642839.129    20642838.326    20642836.685    20642836.286        1182.561        1182.561         921.476         921.476   108478888.388   108478888.389    84529003.836    84529002.832          52.000          45.000          49.500          45.000
R01  23258744.134    23258743.756    23258741.620    23258741.770        4617.428        4617.428        3591.333        3591.333   124331304.743   124331304.739    96702117.613    96702120.619          41.250          40.250          35.000          34.750
R02  19900528.574    19900528.365    19900524.028    19900523.776        1083.439        1083.439         842.675         842.675   106193032.387   106193032.384    82594580.984    82594583.982          54.250          53.250          49.250          48.750
R03  21704248.046    21704248.375    21704242.804    21704242.327       -3018.819       -3018.819       -2347.970       -2347.970   116184547.281   116184547.286    90365739.397    90365751.401          50.250          49.250          44.750          44.750
R10  23497166.420    23497166.303                                        4026.775        4026.775                                   125253161.619   125253161.620                                          41.750          40.500
R11  19564212.752    19564212.799    19564206.900    19564206.868        1683.079        1683.079        1309.062        1309.062   104545252.656   104545252.655    81312985.855    81312984.857          54.250          53.500          53.250          52.000
R12  20010337.725    20010337.842    20010333.759    20010333.543       -2350.689       -2350.689       -1828.314       -1828.314   106891673.833   106891673.834    83137964.488    83137957.485          54.000          52.750          50.000          49.500
R20  21623940.819    21623939.931    21623937.444    21623936.288        -214.048        -214.048        -166.482        -166.482   115632929.482   115632929.484    89936716.730    89936711.728          38.250          37.250          46.000          45.500
R21  22818279.557    22818279.574    22818274.054    22818274.416       -3903.975       -3903.975       -3036.425       -3036.425   122105235.649   122105235.652    94970730.865    94970727.862          46.500          45.250          43.250          42.250
> 2021 01 03 00 13 30.0000000  0 20
G05  24326977.697    24326977.083    24326974.549    24326974.119        3331.802        3331.802        2596.210        2596.210   127839123.731   127839123.733    99614908.581    99614887.594          39.500          24.750          37.250          24.750
G07  22311972.304    22311971.901    22311967.077    22311966.992        2706.182        2706.182        2108.713        2108.713   117250230.629   117250230.625    91363822.471    91363825.464          45.750          35.250          41.250          35.250
G08  22435762.347    22435761.654    22435760.717    22435759.940        1262.455        1262.455         983.731         983.731   117900765.176   117900765.171    91870743.242    91870737.240          45.000          43.750          43.000          43.750
G11  23800929.572    23800928.979                    23800923.868       -2439.871       -2439.871                       -1901.198   125074742.401   125074742.403                    97460833.823          40.500          23.000                          23.000
G13  20868523.273    20868522.565                    20868517.749       -1099.303       -1099.303                        -856.600   109664853.495   109664853.495                    85453141.104          49.500          39.750                          39.750
G14  20708150.533    20708150.226    20708146.155    20708146.148       -1570.123       -1570.123       -1223.473       -1223.473   108822108.873   108822108.878    84796455.300    84796459.302          48.250          41.500          49.250          41.250
G15  22833402.551    22833402.008    22833399.342    22833397.895       -2741.655       -2741.655       -2136.354       -2136.354   119990352.408   119990352.403    93498998.548    93498969.545          43.000          38.750          38.000          38.500
G20  24407753.584    24407752.963                    24407748.648       -1887.740       -1887.740                       -1470.966   128263616.582   128263616.586                    99945671.890          37.750          19.250                          19.250
G23  24617742.263    24617741.918    24617738.531    24617738.026       -2302.781       -2302.781       -1794.375       -1794.375   129367111.735   129367111.743   100805526.427   100805533.424          38.500          21.750          37.750          21.750
G27  24514833.191    24514833.070    24514831.100    24514830.363        3209.744        3209.744        2501.099        2501.099   128826355.899   128826355.901   100384176.603   100384179.602          38.000          31.750          36.250          31.750
G28  21096008.974    21096007.870                    21096003.272       -1746.604       -1746.604                       -1360.990   110860315.713   110860315.714                    86384668.478          49.500          39.750                          39.750
G30  20649632.846    20649632.136    20649630.531    20649630.268        1197.703        1197.703         933.275         933.275   108514590.659   108514590.659    84556823.790    84556822.785          52.500          45.250          49.500          45.000
R01  23284669.796    23284669.965    23284668.328    23284667.967        4622.015        4622.015        3594.901        3594.901   124469896.966   124469896.963    96809911.566    96809914.572          40.500          39.500          34.500          33.750
R02  19906696.149    19906695.755    19906691.638    19906691.568        1110.879        1110.879         864.017         864.017   106225945.890   106225945.887    82620180.363    82620183.364          54.000          53.500          49.000          49.000
R03  21687384.580    21687384.708    21687379.083    21687378.794       -2999.268       -2999.268       -2332.764       -2332.764   116094276.675   116094276.677    90295528.923    90295540.926          49.500          48.750          45.000          44.750
R10  23519835.297    23519834.564                                        4029.087        4029.087                                   125373997.694   125373997.695                                          41.750          41.000
R11  19573709.582    19573709.581    19573703.731    19573703.800        1700.232        1700.232        1322.402        1322.402   104596001.152   104596001.151    81352456.911    81352455.914          54.500          53.500          52.750          52.500
R12  19997179.958    19997180.248    19997176.201    19997175.843       -2334.960       -2334.960       -1816.080       -1816.080   106821387.679   106821387.680    83083297.504    83083290.497          53.750          53.000          49.750          49.750
R20  21622821.213    21622820.604    21622817.328    21622816.766        -184.890        -184.890        -143.803        -143.803   115626942.833   115626942.840    89932060.454    89932055.456          38.500          37.250          45.750          45.500
R21  22796428.537    22796428.705    22796424.136    22796423.974       -3891.009       -3891.009       -3026.340       -3026.340   121988308.043   121988308.047    94879787.244    94879784.237          46.750          45.750          43.500          42.500
> 2021 01 03 00 14 00.0000000  0 20
G05  24346016.711    24346016.896    24346014.285    24346013.735        3338.578        3338.578        2601.489        2601.489   127939177.796   127939177.802    99692872.727    99692851.739          38.500          23.750          36.500          23.500
G07  22327448.002    22327447.422    22327442.824    22327442.779        2715.446        2715.446        2115.932        2115.932   117331555.382   117331555.377    91427192.395    91427195.395          47.500          35.500          41.000          35.500
G08  22443026.032    22443025.599    22443024.186    22443023.750        1282.452        1282.452         999.313         999.313   117938936.792   117938936.791    91900487.381    91900481.375          45.000          43.500          42.750          43.750
G11  23787039.524    23787038.834                    23787034.040       -2425.950       -2425.950                       -1890.350   125001751.792   125001751.792                    97403958.046          40.750          22.250                          22.500
G13  20862301.653    20862300.987                    20862296.447       -1080.187       -1080.187                        -841.704   109632159.930   109632159.930                    85427665.611          50.500          40.250                          40.500
G14  20699235.614    20699235.286    20699231.453    20699231.276       -1553.089       -1553.089       -1210.199       -1210.199   108775260.725   108775260.731    84759950.254    84759954.259          49.250          42.000          49.250          41.750
G15  22817790.827    22817790.700    22817786.990    22817786.200       -2727.451       -2727.451       -2125.287       -2125.287   119908312.884   119908312.888    93435071.671    93435042.663          42.250          38.250          38.000          38.500
G20  24397024.330    24397022.830                    24397018.594       -1871.232       -1871.232                       -1458.103   128207230.129   128207230.130                    99901734.415          38.000          19.250                          19.500
G23  24604639.077    24604639.442    24604635.867    24604635.334       -2287.619       -2287.619       -1782.561       -1782.561   129298256.009   129298256.007   100751872.590   100751879.596          38.500          21.750          38.250          21.500
G27  24533191.331    24533190.995    24533186.718    24533186.891        3221.523        3221.523        2510.278        2510.278   128922824.991   128922824.991   100459347.320   100459350.317          37.250          31.250          35.500          31.000
G28  21086079.739    21086078.610                    21086073.873       -1731.940       -1731.940                       -1349.564   110808137.418   110808137.418                    86344010.082          50.250          39.750                          40.000
G30  20656513.229    20656512.357    20656510.814    20656510.340        1212.720        1212.720         944.977         944.977   108550745.869   108550745.869    84584996.684    84584995.681          52.250          45.000          49.250          45.250
R01  23310622.902    23310622.822    23310620.300    23310621.356        4626.535        4626.535        3598.416        3598.416   124608624.415   124608624.424    96917810.688    96917813.692          41.000          40.250          37.000          36.250
R02  19913018.715    19913018.478    19913014.265    19913014.098        1138.233        1138.233         885.292         885.292   106259683.661   106259683.662    82646420.856    82646423.855          54.500          53.500          49.500          49.250
R03  21670630.974    21670631.302    21670625.977    21670625.675       -2979.672       -2979.672       -2317.523       -2317.523   116004593.572   116004593.573    90225775.416    90225787.419          50.000          48.500          45.500          44.750
R10  23542514.964    23542513.699    23542514.316    23542514.730        4030.956        4030.956        3135.188        3135.188   125494895.420   125494895.416    97607104.387    97607106.133          41.000          39.750          13.750          18.750
R11  19583302.325    19583302.563    19583296.233    19583296.521        1717.176        1717.176        1335.581        1335.581   104647261.870   104647261.869    81392326.365    81392325.370          54.500          53.500          52.500          52.000
R12  19984110.402    19984110.815    19984106.630    19984106.462       -2319.285       -2319.285       -1803.889       -1803.889   106751573.108   106751573.110    83028997.305    83028990.303          54.250          52.750          49.750          50.000
R20  21621864.014    21621863.379    21621860.405    21621859.506        -156.275        -156.275        -121.548        -121.548   115621824.801   115621824.798    89928079.767    89928074.766          38.250          37.000          45.500          45.750
R21  22774649.585    22774650.099    22774645.129    22774644.638       -3878.271       -3878.271       -3016.433       -3016.433   121871767.379   121871767.385    94789144.570    94789141.569          46.500          45.500          43.000          42.500
> 2021 01 03 00 14 30.0000000  0 20
G05  24365096.675    24365096.177    24365091.521    24365091.664        3345.369        3345.369        2606.781        2606.781   128039437.299   128039437.303    99770997.027    99770976.011          41.000          22.750          34.250          23.000
G07  22342976.298    22342975.897    22342971.499    22342971.248        2724.703        2724.703        2123.145        2123.145   117413159.048   117413159.042    91490779.662    91490782.660          47.000          35.500          41.000          35.500
G08  22450404.076    22450403.339    22450402.644    22450401.922        1302.460        1302.460        1014.904        1014.904   117977707.983   117977707.978    91930698.699    91930692.700          44.250          43.500          43.250          43.250
G11  23773229.499    23773228.802                    23773223.789       -2412.197       -2412.197                       -1879.634   124929179.370   124929179.370                    97347408.117          40.000          22.750                          22.500
G13  20856190.056    20856189.681                    20856185.051       -1060.865       -1060.865                        -826.648   109600043.757   109600043.758                    85402640.033          49.750          40.500                          40.750
G14  20690418.161    20690417.809    20690414.107    20690413.789       -1535.973       -1535.973       -1196.862       -1196.862   108728924.866   108728924.870    84723844.399    84723848.401          49.500          42.000          49.750          41.750
G15  22802261.563    22802261.222    22802257.276    22802256.902       -2713.178       -2713.178       -2114.166       -2114.166   119826705.464   119826705.458    93371481.474    93371452.477          43.000          38.750          38.250          38.750
G20  24386388.619    24386387.779                    24386383.782       -1854.625       -1854.625                       -1445.162   128151342.842   128151342.841                    99858185.894          37.500          19.000                          19.250
G23  24591623.891    24591623.773    24591619.767    24591620.026       -2272.273       -2272.273       -1770.602       -1770.602   129229860.319   129229860.327   100698577.263   100698584.263          38.750          21.750          37.750          21.750
G27  24551613.501    24551612.451    24551611.430    24551611.349        3232.919        3232.919        2519.157        2519.157   129019638.049   129019638.043   100534786.044   100534789.059          36.000          31.250          37.250          31.500
G28  21076234.709    21076233.612                    21076228.836       -1717.269       -1717.269                       -1338.132   110756401.086   110756401.086                    86303696.073          49.000          40.000                          39.750
G30  20663479.203    20663478.488    20663476.889    20663476.464        1227.756        1227.756         956.693         956.693   108587353.547   108587353.548    84613522.154    84613521.149          51.500          45.000          49.500          44.750
R01  23336599.092    23336599.217    23336596.053    23336596.293        4630.662        4630.662        3601.626        3601.626   124747483.339   124747483.338    97025812.056    97025815.052          41.500          40.000          34.500          34.250
R02  19919495.291    19919495.107    19919490.580    19919490.467        1165.632        1165.632         906.603         906.603   106294243.785   106294243.783    82673300.948    82673303.942          54.250          53.500          49.500          49.000
R03  21653987.906    21653988.087    21653982.555    21653982.093       -2959.867       -2959.867       -2302.119       -2302.119   115915502.033   115915502.036    90156482.003    90156493.996          49.750          48.750          45.000          44.750
R10  23565206.822    23565206.334                                        4033.012        4033.012                                   125615853.590   125615853.592                                          41.500          41.250
R11  19592990.482    19592990.803    19592984.881    19592984.771        1734.216        1734.216        1348.834        1348.834   104699033.377   104699033.374    81432593.095    81432592.098          53.500          53.250          52.250          52.000
R12  19971129.550    19971129.983    19971125.513    19971125.441       -2303.505       -2303.505       -1791.615       -1791.615   106682231.789   106682231.793    82975065.195    82975058.191          54.250          53.250          50.250          49.250
R20  21621069.436    21621068.653    21621065.990    21621064.701        -127.209        -127.209         -98.940         -98.940   115617575.834   115617575.832    89924775.022    89924770.019          38.750          37.250          46.000          45.750
R21  22752944.796    22752944.772    22752940.309    22752940.496       -3865.150       -3865.150       -3006.227       -3006.227   121755618.901   121755618.905    94698806.925    94698803.921          46.000          45.500          43.750          43.000
> 2021 01 03 00 15 00.0000000  0 20
G05  24384213.663    24384213.404    24384210.286    24384209.567        3351.998        3351.998        2611.947        2611.947   128139899.538   128139899.540    99849279.267    99849258.278          39.750          23.500          35.750          23.500
G07  22358558.264    22358557.630    22358552.888    22358552.770        2733.975        2733.975        2130.370        2130.370   117495040.482   117495040.478    91554583.375    91554586.372          47.250          35.250          41.000          35.250
G08  22457895.802    22457895.120    22457894.418    22457893.706        1322.160        1322.160        1030.255        1030.255   118017077.413   118017077.408    91961376.184    91961370.186          42.750          44.000          43.250          43.750
G11  23759499.452    23759498.417                    23759493.484       -2398.012       -2398.012                       -1868.582   124857028.031   124857028.033                    97291186.322          40.500          22.000                          22.250
G13  20850189.119    20850188.429                    20850183.527       -1041.651       -1041.651                        -811.677   109568506.667   109568506.664                    85378065.683          50.750          40.250                          40.500
G14  20681698.298    20681698.037    20681694.174    20681693.997       -1518.865       -1518.865       -1183.532       -1183.532   108683102.394   108683102.400    84688138.575    84688142.581          49.250          41.750          49.750          41.500
G15  22786815.322    22786814.778    22786811.465    22786810.543       -2698.582       -2698.582       -2102.791       -2102.791   119745533.119   119745533.114    93308230.313    93308201.314          43.500          39.250          38.500          39.000
G20  24375849.523    24375848.246                    24375843.949       -1837.906       -1837.906                       -1432.134   128095956.909   128095956.914                    99815028.025          38.750          18.750                          18.750
G23  24578696.622    24578696.281    24578692.065    24578692.561       -2256.844       -2256.844       -1758.580       -1758.580   129161927.155   129161927.152   100645642.327   100645649.327          38.250          21.250          37.000          21.250
G27  24570101.268    24570100.945    24570098.980    24570097.981        3244.175        3244.175        2527.929        2527.929   129116792.332   129116792.340   100610490.768   100610493.750          37.750          31.750          36.000          31.750
G28  21066473.893    21066472.820                    21066468.146       -1702.432       -1702.432                       -1326.570   110705107.877   110705107.878                    86263727.350          49.750          39.500                          39.500
G30  20670531.548    20670530.718    20670529.253    20670528.729        1242.766        1242.766         968.389         968.389   108624413.198   108624413.198    84642399.801    84642398.798          51.250          45.000          49.500          44.750
R01  23362598.917    23362599.363    23362596.336    23362596.812        4635.067        4635.067        3605.052        3605.052   124886470.385   124886470.395    97133913.117    97133916.114          41.250          40.500          34.250          33.250
R02  19926125.788    19926125.384    19926121.851    19926121.578        1192.975        1192.975         927.870         927.870   106329626.219   106329626.217    82700820.616    82700823.612          54.500          53.500          49.750          49.500
R03  21637456.279    21637456.393    21637450.881    21637450.772       -2939.919       -2939.919       -2286.604       -2286.604   115827006.113   115827006.116    90087651.862    90087663.860          49.750          48.750          45.500          45.250
R10  23587909.282    23587908.837    23587906.503    23587909.295        4034.818        4034.818        3138.192        3138.192   125736870.176   125736870.172    97795299.737    97795311.485          41.250          40.500          16.250          20.000
R11  19602774.023    19602774.128    19602768.284    19602768.374        1751.101        1751.101        1361.967        1361.967   104751314.015   104751314.015    81473255.823    81473254.831          54.000          53.250          52.000          51.750
R12  19958237.584    19958237.927    19958233.635    19958233.518       -2287.614       -2287.614       -1779.255       -1779.255   106613365.165   106613365.167    82921502.288    82921495.283          54.000          53.250          50.000          49.750
R20  21620437.291    21620436.893    21620433.740    21620433.173         -98.387         -98.387         -76.523         -76.523   115614196.150   115614196.156    89922146.399    89922141.393          38.750          37.250          45.750          45.500
R21  22731313.360    22731313.661    22731309.175    22731308.814       -3851.790       -3851.790       -2995.837       -2995.837   121639866.982   121639866.984    94608777.726    94608774.718          45.500          45.500          43.250          42.750
> 2021 01 03 00 15 30.0000000  0 20
G05  24403369.510    24403368.809    24403365.765    24403365.176        3358.863        3358.863        2617.296        2617.296   128240561.334   128240561.334    99927716.987    99927695.994          39.750          25.250          37.250          25.000
G07  22374192.016    22374191.860    22374187.257    22374187.060        2743.238        2743.238        2137.588        2137.588   117577198.575   117577198.570    91618602.660    91618605.657          47.500          35.250          41.000          35.250
G08  22465501.126    22465500.467    22465499.858    22465498.786        1342.204        1342.204        1045.874        1045.874   118057043.560   118057043.558    91992518.646    91992512.648          42.500          44.000          43.250          43.750
G11  23745849.978    23745849.391                    23745844.685       -2383.643       -2383.643                       -1857.384   124785300.783   124785300.781                    97235294.975          40.500          22.250                          22.250
G13  20844298.049    20844297.442                    20844292.782       -1022.135       -1022.135                        -796.469   109537550.183   109537550.184                    85353943.757          50.250          40.250                          40.250
G14  20673076.438    20673076.312    20673072.341    20673072.175       -1501.653       -1501.653       -1170.119       -1170.119   108637794.293   108637794.297    84652833.569    84652837.572          47.750          41.250          49.250          40.750
G15  22771451.929    22771451.501    22771447.353    22771446.997       -2683.852       -2683.852       -2091.313       -2091.313   119664798.257   119664798.256    93245320.037    93245291.053          43.250          39.500          38.000          39.500
G20  24365405.934    24365404.207                    24365400.710       -1820.878       -1820.878                       -1418.866   128041074.704   128041074.709                    99772262.676          37.250          18.250                          18.750
G23  24565858.024    24565857.437    24565853.884    24565853.227       -2241.267       -2241.267       -1746.442       -1746.442   129094458.976   129094458.974   100593069.745   100593076.738          39.250          21.250          37.250          21.250
G27  24588655.488    24588654.190    24588651.887    24588650.993        3255.457        3255.457        2536.720        2536.720   129214284.942   129214284.940   100686459.025   100686462.017          39.500          33.500          37.000          33.500
G28  21056797.544    21056796.387                    21056791.798       -1687.496       -1687.496                       -1314.932   110654258.597   110654258.597                    86224104.547          49.250          39.750                          40.250
G30  20677669.790    20677668.940    20677667.349    20677666.896        1257.866        1257.866         980.156         980.156   108661924.246   108661924.245    84671629.193    84671628.190          52.500          45.250          49.750          45.000
R01  23388621.863    23388622.106    23388620.214    23388620.797        4639.048        4639.048        3608.148        3608.148   125025582.023   125025582.024    97242111.016    97242114.011          39.750          39.000          35.000          34.750
R02  19932910.878    19932910.434    19932905.526    19932905.473        1220.527        1220.527         949.299         949.299   106365829.295   106365829.293    82728978.558    82728981.557          54.500          53.500          49.250          49.000
R03  21621036.483    21621036.369    21621031.215    21621030.895       -2919.864       -2919.864       -2271.005       -2271.005   115739109.376   115739109.384    90019287.742    90019299.740          49.500          48.250          46.250          45.250
R10  23610620.741    23610620.630                                        4036.624        4036.624                                   125857943.904   125857943.893                                          40.000          39.000
R11  19612652.706    19612652.940    19612646.954    19612647.041        1768.077        1768.077        1375.171        1375.171   104804102.159   104804102.159    81514313.272    81514312.277          54.250          53.000          52.500          51.750
R12  19945434.588    19945435.052    19945430.894    19945430.534       -2271.734       -2271.734       -1766.904       -1766.904   106544974.758   106544974.763    82868309.769    82868302.764          54.250          53.250          49.750          49.500
R20  21619968.100    21619967.249    21619964.679    21619963.628         -69.248         -69.248         -53.860         -53.860   115611686.193   115611686.195    89920194.219    89920189.217          38.250          37.250          46.000          45.750
R21  22709757.633    22709757.925    22709752.878    22709752.938       -3838.310       -3838.310       -2985.352       -2985.352   121524516.285   121524516.287    94519060.556    94519057.550          47.000          45.500          43.000          43.000
> 2021 01 03 00 16 00.0000000  0 20
G05  24422561.679    24422561.291    24422558.679    24422557.754        3365.205        3365.205        2622.238        2622.238   128341419.396   128341419.396   100006307.596   100006286.622          37.750          23.250          37.000          23.750
G07  22389878.574    22389878.284    22389873.482    22389873.490        2752.373        2752.373        2144.706        2144.706   117659631.838   117659631.838    91682836.370    91682839.367          46.750          35.250          40.750          35.000
G08  22473219.819    22473219.091    22473218.177    22473217.385        1361.940        1361.940        1061.251        1061.251   118097604.713   118097604.713    92024124.751    92024118.747          44.500          44.000          43.000          44.250
G11  23732281.956    23732281.130                    23732276.386       -2369.483       -2369.483                       -1846.351   124713999.927   124713999.931                    97179735.883          39.000          22.250                          22.250
G13  20838517.954    20838517.366                    20838512.546       -1002.791       -1002.791                        -781.396   109507175.127   109507175.128                    85330274.891          50.000          40.250                          40.500
G14  20664552.671    20664552.322    20664548.670    20664548.387       -1484.480       -1484.480       -1156.738       -1156.738   108593001.234   108593001.238    84617929.891    84617933.894          48.250          41.750          49.500          41.250
G15  22756172.002    22756171.647    22756167.694    22756167.098       -2669.243       -2669.243       -2079.930       -2079.930   119584503.261   119584503.257    93182752.533    93182723.534          44.000          39.250          37.750          39.500
G20  24355057.926    24355056.461                    24355053.033       -1804.192       -1804.192                       -1405.864   127986697.654   127986697.653                    99729890.959          38.750          18.000                          18.000
G23  24553108.843    24553107.781    24553104.082    24553103.998       -2225.618       -2225.618       -1734.248       -1734.248   129027457.735   129027457.736   100540860.996   100540867.991          39.000          21.750          38.000          21.750
G27  24607270.425    24607268.533    24607266.211    24607266.539        3266.097        3266.097        2545.011        2545.011   129312112.602   129312112.586   100762688.368   100762691.369          35.750          31.000          36.000          30.500
G28  21047205.574    21047204.735                    21047200.052       -1672.797       -1672.797                       -1303.478   110603853.687   110603853.685                    86184828.001          47.750          40.000                          39.750
G30  20684893.419    20684892.714    20684891.101    20684890.650        1272.842        1272.842         991.825         991.825   108699885.690   108699885.689    84701209.545    84701208.540          51.750          45.250          49.500          45.000
R01  23414668.711    23414669.009    23414666.452    23414666.441        4642.921        4642.921        3611.161        3611.161   125164814.064   125164814.059    97350402.569    97350405.574          40.500          40.000          34.500          34.000
R02  19939848.107    19939847.935    19939843.673    19939843.710        1247.672        1247.672         970.412         970.412   106402850.959   106402850.955    82757773.187    82757776.183          54.500          53.750          49.250          49.500
R03  21604729.291    21604729.188    21604724.123    21604723.621       -2899.741       -2899.741       -2255.353       -2255.353   115651815.432   115651815.438    89951392.457    89951404.461          49.750          48.750          46.250          45.250
R10  23633345.034    23633345.309                                        4038.445        4038.445                                   125979072.283   125979072.281                                          41.500          40.500
R11  19622625.771    19622626.171    19622620.075    19622620.272        1784.818        1784.818        1388.192        1388.192   104857395.778   104857395.780    81555763.873    81555762.877          54.000          53.750          53.000          52.250
R12  19932721.308    19932721.358    19932717.391    19932716.905       -2255.877       -2255.877       -1754.571       -1754.571   106477061.776   106477061.779    82815488.582    82815481.579          54.250          53.250          49.750          49.250
R20  21619660.977    21619660.290    21619658.080    21619657.193         -40.080         -40.080         -31.173         -31.173   115610045.631   115610045.632    89918918.250    89918913.245          38.500          37.250          46.500          46.250
R21  22688277.508    22688277.597    22688272.689    22688272.278       -3824.691       -3824.691       -2974.760       -2974.760   121409571.150   121409571.159    94429658.848    94429655.844          46.250          44.750          43.500          43.000
> 2021 01 03 00 16 30.0000000  0 20
G05  24441791.321    24441790.666    24441787.404    24441786.978        3371.351        3371.351        2627.027        2627.027   128442470.674   128442470.674   100085048.825   100085027.819          39.500          22.750          35.750          22.750
G07  22405617.571    22405616.898    22405612.404    22405612.308        2761.474        2761.474        2151.798        2151.798   117742339.191   117742339.188    91747283.642    91747286.645          47.000          34.750          40.750          35.000
G08  22481050.953    22481050.491    22481049.637    22481048.698        1381.634        1381.634        1076.598        1076.598   118138759.287   118138759.282    92056193.250    92056187.249          45.000          43.500          43.000          44.000
G11  23718795.332    23718794.823                    23718789.662       -2355.031       -2355.031                       -1835.089   124643128.624   124643128.624                    97124511.496          39.500          22.000                          22.000
G13  20832848.431    20832848.056                    20832843.389        -983.301        -983.301                        -766.208   109477383.029   109477383.032                    85307060.284          49.500          40.500                          40.500
G14  20656126.995    20656126.689    20656123.035    20656122.720       -1467.306       -1467.306       -1143.355       -1143.355   108548724.240   108548724.248    84583428.343    84583432.349          49.250          42.000          49.500          41.750
G15  22740976.412    22740975.902    22740971.990    22740971.600       -2654.394       -2654.394       -2068.358       -2068.358   119504650.644   119504650.644    93120529.752    93120500.741          43.500          39.750          38.250          39.750
G20  24344807.081    24344805.409                    24344801.653       -1787.208       -1787.208                       -1392.630   127932827.894   127932827.896                    99687914.516          37.250          18.500                          18.750
G23  24540447.630    24540447.108    24540443.206    24540443.439       -2209.952       -2209.952       -1722.040       -1722.040   128960925.934   128960925.934   100489018.041   100489025.046          39.000          22.000          37.750          22.000
G27  24625949.558    24625948.559    24625945.738    24625946.653        3277.558        3277.558        2553.941        2553.941   129410272.620   129410272.619   100839176.722   100839179.726          36.250          31.250          37.000          31.500
G28  21037698.863    21037697.750                    21037693.013       -1657.866       -1657.866                       -1291.843   110553894.033   110553894.029                    86145898.406          49.750          40.000                          40.000
G30  20692202.864    20692202.055    20692200.751    20692200.038        1287.897        1287.897        1003.556        1003.556   108738297.000   108738297.002    84731140.441    84731139.438          52.000          44.750          49.250          44.750
R01  23440737.351    23440737.190    23440734.329    23440734.885        4646.790        4646.790        3614.170        3614.170   125304163.100   125304163.106    97458785.165    97458788.148          42.000          41.000          34.500          34.000
R02  19946938.934    19946938.596    19946934.909    19946934.369        1274.948        1274.948         991.627         991.627   106440689.888   106440689.888    82787203.464    82787206.461          54.250          53.250          48.750          49.000
R03  21588535.394    21588535.365    21588530.201    21588529.695       -2879.459       -2879.459       -2239.580       -2239.580   115565128.023   115565128.027    89883968.930    89883980.932          50.000          48.750          46.000          45.750
R10  23656078.676    23656078.021                                        4040.217        4040.217                                   126100253.908   126100253.903                                          41.000          40.250
R11  19632693.755    19632693.596    19632687.934    19632687.559        1801.602        1801.602        1401.246        1401.246   104911193.296   104911193.293    81597606.390    81597605.394          54.250          53.250          52.750          51.750
R12  19920097.170    19920097.724    19920093.929    19920093.169       -2239.764       -2239.764       -1742.039       -1742.039   106409627.578   106409627.581    82763039.783    82763032.778          54.250          53.750          49.750          49.750
R20  21619516.814    21619516.038    21619513.844    21619512.868         -11.139         -11.139          -8.663          -8.663   115609274.813   115609274.815    89918318.739    89918313.736          38.250          37.000          46.000          46.000
R21  22666873.767    22666873.988    22666869.154    22666868.851       -3810.896       -3810.896       -2964.031       -2964.031   121295036.108   121295036.111    94340576.079    94340573.071          46.250          46.000          43.500          43.000
> 2021 01 03 00 17 00.0000000  0 20
G05  24461057.403    24461056.534    24461053.825    24461053.195        3377.886        3377.886        2632.119        2632.119   128543712.309   128543712.313   100163938.439   100163917.425          40.250          24.250          35.750          24.000
G07  22421408.086    22421407.518    22421402.679    22421402.834        2770.499        2770.499        2158.830        2158.830   117825319.374   117825319.371    91811943.526    91811946.524          46.500          34.750          40.750          34.750
G08  22488995.174    22488994.373    22488993.788    22488992.909        1401.356        1401.356        1091.965        1091.965   118180505.819   118180505.816    92088723.015    92088717.016          43.500          43.750          42.750          44.000
G11  23705391.237    23705390.471                    23705385.969       -2340.636       -2340.636                       -1823.872   124572689.219   124572689.223                    97069623.668          39.500          22.250                          22.000
G13  20827290.851    20827290.130                    20827285.244        -963.843        -963.843                        -751.046   109448175.493   109448175.490                    85284301.170          49.750          40.500                          40.750
G14  20647799.878    20647799.569    20647795.794    20647795.460       -1450.083       -1450.083       -1129.935       -1129.935   108504964.151   108504964.155    84549329.576    84549333.581          50.250          41.750          49.500          41.750
G15  22725865.314    22725865.222    22725861.527    22725860.818       -2639.569       -2639.569       -2056.807       -2056.807   119425243.028   119425243.026    93058653.706    93058624.699          43.750          40.250          38.500          40.000
G20  24334651.893    24334651.305                    24334647.330       -1770.332       -1770.332                       -1379.479   127879466.883   127879466.877                    99646334.497          36.500          17.500                          17.750
G23  24527876.568    24527876.446    24527873.070    24527872.506       -2194.002       -2194.002       -1709.612       -1709.612   128894865.801   128894865.805   100437542.636   100437549.626          39.000          21.500          37.500          22.000
G27  24644691.753    24644690.577    24644687.796    24644687.340        3288.361        3288.361        2562.359        2562.359   129508761.827   129508761.826   100915921.571   100915924.552          36.500          29.000          35.500          29.750
G28  21028276.659    21028275.719                    21028270.937       -1643.068       -1643.068                       -1280.312   110504380.392   110504380.393                    86107316.359          49.500          40.250                          40.500
G30  20699597.746    20699596.914    20699595.328    20699595.013        1302.784        1302.784        1015.157        1015.157   108777157.397   108777157.397    84761421.276    84761420.271          51.750          44.750          49.250          44.750
R01  23466826.335    23466826.029    23466824.370    23466825.063        4650.379        4650.379        3616.961        3616.961   125443624.876   125443624.880    97567255.425    97567258.416          40.500          39.250          35.500          35.000
R02  19954183.530    19954183.153    19954178.859    19954178.815        1302.110        1302.110        1012.752        1012.752   106479344.962   106479344.963    82817268.522    82817271.521          54.250          53.500          49.500          49.250
R03  21572455.066    21572455.108    21572450.022    21572449.728       -2859.010       -2859.010       -2223.675       -2223.675   115479050.974   115479050.980    89817020.132    89817032.133          49.750          48.750          46.000          46.000
R10  23678822.167    23678821.531                                        4041.995        4041.995                                   126221486.840   126221486.828                                          41.250          40.250
R11  19642854.909    19642854.958    19642848.896    19642848.941        1818.332        1818.332        1414.258        1414.258   104965492.798   104965492.796    81639839.340    81639838.344          54.000          54.000          52.750          51.750
R12  19907563.883    19907563.636    19907559.782    19907559.578       -2223.749       -2223.749       -1729.582       -1729.582   106342673.365   106342673.365    82710964.297    82710957.294          53.750          53.500          50.250          49.500
R20  21619536.470    21619535.593    21619532.426    21619531.010          17.890          17.890          13.915          13.915   115609374.295   115609374.293    89918396.116    89918391.111          38.500          37.250          45.500          45.750
R21  22645547.408    22645547.747    22645542.859    22645542.696       -3797.032       -3797.032       -2953.247       -2953.247   121180915.677   121180915.680    94251815.767    94251812.762          46.500          45.750          43.500          43.250
> 2021 01 03 00 17 30.0000000  0 20
G05  24480357.594    24480357.116    24480355.121    24480354.323        3383.942        3383.942        2636.838        2636.838   128645141.299   128645141.307   100242973.981   100242952.996          36.750          23.000          36.000          23.000
G07  22437250.272    22437249.809    22437245.266    22437245.174        2779.508        2779.508        2165.850        2165.850   117908571.395   117908571.394    91876815.224    91876818.224          46.000          34.750          40.750          34.500
G08  22497051.997    22497050.981    22497050.325    22497049.383        1420.918        1420.918        1107.209        1107.209   118222842.545   118222842.545    92121712.677    92121706.675          41.750          43.750          43.000          43.500
G11  23692069.667    23692069.602                    23692064.333       -2326.334       -2326.334                       -1812.728   124502685.060   124502685.065                    97015074.997          40.500          22.250                          22.250
G13  20821843.943    20821843.519                    20821838.773        -944.408        -944.408                        -735.902   109419553.542   109419553.545                    85261998.365          51.250          40.500                          40.500
G14  20639571.185    20639570.692    20639566.939    20639566.690       -1432.867       -1432.867       -1116.520       -1116.520   108461722.001   108461722.007    84515634.400    84515638.404          48.750          41.500          49.500          41.500
G15  22710839.784    22710839.858    22710835.419    22710835.355       -2624.451       -2624.451       -2045.027       -2045.027   119346282.717   119346282.720    92997126.211    92997097.205          42.750          40.000          38.500          40.250
G20  24324595.542    24324594.633                    24324590.387       -1753.162       -1753.162                       -1366.100   127826617.388   127826617.393                    99605153.096          37.750          17.500                          17.750
G23  24515395.968    24515395.852    24515391.906    24515392.200       -2178.433       -2178.433       -1697.480       -1697.480   128829279.778   128829279.781   100386436.654   100386443.650          38.000          21.750          37.500          22.000
G27  24663494.882    24663493.652    24663493.516    24663492.770        3299.156        3299.156        2570.771        2570.771   129607577.563   129607577.563   100992920.792   100992923.808          35.000          30.000          37.250          29.750
G28  21018939.328    21018938.373                    21018933.766       -1628.233       -1628.233                       -1268.752   110455313.707   110455313.707                    86069082.586          48.750          40.000                          40.000
G30  20707078.076    20707077.261    20707075.614    20707075.204        1317.677        1317.677        1026.762        1026.762   108816466.361   108816466.361    84792051.636    84792050.635          51.250          44.750          49.250          44.500
R01  23492935.881    23492935.945    23492934.061    23492933.621        4654.135        4654.135        3619.883        3619.883   125583196.412   125583196.416    97675811.032    97675814.036          40.500          40.000          34.750          34.250
R02  19961579.743    19961579.477    19961575.248    19961574.690        1329.174        1329.174        1033.802        1033.802   106518814.900   106518814.899    82847967.357    82847970.358          54.000          53.250          48.750          49.000
R03  21556490.040    21556490.200    21556484.304    21556484.574       -2838.612       -2838.612       -2207.810       -2207.810   115393587.791   115393587.797    89750548.782    89750560.782          50.000          49.750          46.250          45.500
R10  23701572.799    23701573.410                                        4043.571        4043.571                                   126342769.682   126342769.682                                          40.000          39.500
R11  19653109.481    19653110.092    19653104.277    19653104.094        1834.947        1834.947        1427.181        1427.181   105020292.733   105020292.731    81682461.520    81682460.523          54.500          53.500          52.500          51.750
R12  19895119.546    19895119.890    19895115.824    19895115.595       -2207.729       -2207.729       -1717.123       -1717.123   106276200.825   106276200.829    82659263.463    82659256.459          54.500          53.750          50.000          49.250
R20  21619717.019    21619716.171    21619713.477    21619712.401          46.777          46.777          36.382          36.382   115610343.860   115610343.861    89919150.220    89919145.216          38.500          37.250          45.500          46.000
R21  22624299.575    22624299.786    22624295.313    22624295.106       -3783.099       -3783.099       -2942.411       -2942.411   121067214.489   121067214.494    94163381.539    94163378.535          46.750          45.500          44.000          43.250
> 2021 01 03 00 18 00.0000000  0 20
G05  24499694.346    24499693.892    24499691.374    24499690.021        3390.145        3390.145        2641.671        2641.671   128746754.769   128746754.773   100322153.204   100322132.229          37.750          20.750          36.000          20.750
G07  22453144.646    22453143.811    22453139.056    22453139.040        2788.616        2788.616        2172.948        2172.948   117992094.179   117992094.177    91941897.913    91941900.906          47.000          34.750          40.500          34.750
G08  22505220.136    22505219.452    22505218.782    22505217.982        1440.667        1440.667        1122.598        1122.598   118265768.168   118265768.162    92155161.210    92155155.210          45.000          43.500          43.000          43.500
G11  23678831.567    23678831.006                    23678826.540       -2311.556       -2311.556                       -1801.212   124433118.750   124433118.758                    96960867.509          39.500          22.000                          22.000
G13  20816509.202    20816508.639                    20816503.781        -924.717        -924.717                        -720.559   109391518.675   109391518.676                    85240153.022          49.500          40.750                          40.500
G14  20631440.870    20631440.784    20631436.962    20631436.786       -1415.494       -1415.494       -1102.982       -1102.982   108418998.745   108418998.751    84482343.557    84482347.561          49.000          42.000          50.000          41.750
G15  22695899.955    22695899.741    22695896.126    22695895.493       -2609.688       -2609.688       -2033.523       -2033.523   119267772.695   119267772.694    92935949.572    92935920.577          43.500          40.500          39.000          40.500
G20  24314636.086    24314634.923                    24314631.123       -1736.051       -1736.051                       -1352.767   127774280.913   127774280.915                    99564371.440          38.000          17.250                          17.250
G23  24503005.364    24503005.473    24503001.599    24503001.698       -2162.397       -2162.397       -1684.984       -1684.984   128764170.237   128764170.239   100335701.930   100335708.944          38.000          21.250          37.250          21.000
G27  24682359.746    24682359.290    24682357.681    24682357.346        3309.821        3309.821        2579.082        2579.082   129706716.899   129706716.896   101070172.261   101070175.262          35.750          29.500          35.750          29.500
G28  21009687.651    21009686.636                    21009681.887       -1613.129       -1613.129                       -1256.984   110406694.889   110406694.888                    86031197.795          49.500          40.000                          39.750
G30  20714643.509    20714642.789    20714641.202    20714640.594        1332.628        1332.628        1038.411        1038.411   108856223.276   108856223.276    84823031.058    84823030.055          52.000          45.000          49.000          44.750
R01  23519066.218    23519066.136    23519062.464    23519064.529        4657.649        4657.649        3622.616        3622.616   125722873.778   125722873.781    97784448.970    97784451.977          42.000          41.250          34.500          33.750
R02  19969128.541    19969128.285    19969124.440    19969124.258        1356.302        1356.302        1054.902        1054.902   106559097.520   106559097.518    82879298.285    82879301.283          54.500          53.500          49.250          49.000
R03  21540640.306    21540640.361    21540634.705    21540634.625       -2817.906       -2817.906       -2191.705       -2191.705   115308742.368   115308742.368    89684557.902    89684569.905          50.250          49.000          46.000          46.000
R10  23724335.069    23724335.036                                        4045.221        4045.221                                   126464101.175   126464101.184                                          39.500          39.500
R11  19663458.308    19663458.489    19663452.250    19663452.415        1851.517        1851.517        1440.069        1440.069   105075591.273   105075591.272    81725471.504    81725470.507          54.250          53.750          52.250          51.750
R12  19882766.080    19882766.253    19882762.215    19882761.887       -2191.586       -2191.586       -1704.567       -1704.567   106210211.226   106210211.226    82607938.239    82607931.237          54.000          53.750          49.500          50.000
R20  21620059.896    21620060.571    21620057.340    21620056.778          75.624          75.624          58.819          58.819   115612183.690   115612183.687    89920581.200    89920576.196          38.500          37.250          45.500          46.000
R21  22603130.882    22603131.561    22603126.721    22603126.565       -3768.838       -3768.838       -2931.318       -2931.318   120953937.347   120953937.349    94075277.113    94075274.102          47.000          46.250          43.750          43.250
> 2021 01 03 00 18 30.0000000  0 20
G05  24519065.702    24519065.032    24519061.652    24519061.254        3396.101        3396.101        2646.312        2646.312   128848548.984   128848548.983   100401473.353   100401452.355          40.750          23.000          35.000          23.000
G07  22469089.405    22469088.857    22469084.537    22469084.157        2797.541        2797.541        2179.902        2179.902   118075886.136   118075886.132    92007190.344    92007193.336          46.750          34.500          40.500          34.500
G08  22513500.443    22513499.867    22513498.878    22513498.053        1460.263        1460.263        1137.867        1137.867   118309281.283   118309281.277    92189067.535    92189061.530          44.500          43.250          42.750          43.500
G11  23665677.568    23665676.621                    23665672.299       -2296.802       -2296.802                       -1789.715   124363992.661   124363992.670                    96907003.054          39.750          22.000                          22.000
G13  20811285.936    20811285.621                    20811280.898        -905.113        -905.113                        -705.283   109364071.879   109364071.876                    85218765.914          49.750          41.250                          40.750
G14  20623409.806    20623409.619    20623406.091    20623405.774       -1398.127       -1398.127       -1089.450       -1089.450   108376795.079   108376795.084    84449457.593    84449461.593          48.750          41.750          50.000          41.500
G15  22681046.469    22681045.980    22681042.201    22681041.364       -2594.283       -2594.283       -2021.519       -2021.519   119189715.276   119189715.275    92875125.620    92875096.628          44.000          40.750          39.000          40.750
G20  24304774.700    24304773.552                    24304769.786       -1718.381       -1718.381                       -1338.998   127722459.125   127722459.124                    99523990.838          38.250          17.750                          17.750
G23  24490707.114    24490707.088    24490702.838    24490702.930       -2146.457       -2146.457       -1672.563       -1672.563   128699539.269   128699539.273   100285340.166   100285347.165          38.250          21.250          37.250          21.250
G27  24701287.831    24701286.283    24701283.216    24701283.847        3320.868        3320.868        2587.689        2587.689   129806176.813   129806176.808   101147673.517   101147676.513          36.500          30.750          36.250          30.750
G28  21000521.265    21000520.108                    21000515.569       -1598.166       -1598.166                       -1245.324   110358524.503   110358524.502                    85993662.436          50.750          40.250                          40.500
G30  20722293.978    20722293.085    20722291.416    20722291.251        1347.578        1347.578        1050.061        1050.061   108896427.241   108896427.240    84854358.827    84854357.823          52.000          44.750          49.000          44.750
R01  23545213.587    23545213.707    23545211.934    23545212.882        4660.917        4660.917        3625.157        3625.157   125862653.369   125862653.367    97893166.432    97893169.418          39.750          38.500          35.250          34.500
R02  19976829.875    19976829.634    19976825.296    19976824.975        1383.309        1383.309        1075.907        1075.907   106600191.309   106600191.307    82911260.126    82911263.119          54.750          53.500          49.000          49.250
R03  21524906.481    21524906.586    21524901.130    21524900.931       -2797.018       -2797.018       -2175.458       -2175.458   115224518.341   115224518.347    89619050.342    89619062.345          50.500          49.750          46.500          45.500
R10  23747106.269    23747105.073                                        4046.817        4046.817                                   126585479.133   126585479.129                                          40.500          39.500
R11  19673899.789    19673899.676    19673893.743    19673893.880        1868.109        1868.109        1452.974        1452.974   105131386.656   105131386.653    81768867.919    81768866.921          54.500          53.250          52.000          52.000
R12  19870503.480    19870503.786    19870499.330    19870499.269       -2175.501       -2175.501       -1692.056       -1692.056   106144705.867   106144705.868    82556989.657    82556982.652          54.250          53.500          50.750          49.500
R20  21620567.592    21620567.003    21620564.295    21620563.282         104.938         104.938          81.618          81.618   115614893.623   115614893.625    89922688.924    89922683.924          38.750          37.500          46.000          46.000
R21  22582042.909    22582043.070    22582037.638    22582037.537       -3754.331       -3754.331       -2920.035       -2920.035   120841088.591   120841088.589    93987505.862    93987502.859          46.750          46.500          43.000          43.000
> 2021 01 03 00 19 00.0000000  0 20
G05  24538470.180    24538469.861    24538466.515    24538465.687        3401.916        3401.916        2650.843        2650.843   128950521.245   128950521.248   100480932.278   100480911.284          39.500          23.000          34.250          22.750
G07  22485085.457    22485085.033    22485081.056    22485080.415        2806.344        2806.344        2186.762        2186.762   118159945.997   118159945.996    92072691.530    92072694.527          47.250          34.500          40.750          34.500
G08  22521892.338    22521891.393    22521890.601    22521889.610        1479.572        1479.572        1152.913        1152.913   118353379.638   118353379.634    92223429.884    92223423.892          44.750          43.250          43.000          43.250
G11  23652607.422    23652606.914                    23652602.342       -2282.044       -2282.044                       -1778.216   124295309.967   124295309.973                    96853484.095          39.750          22.500                          22.500
G13  20806175.475    20806174.825                    20806170.063        -885.458        -885.458                        -689.967   109337214.369   109337214.368                    85197837.993          50.250          41.000                          40.750
G14  20615477.788    20615477.601    20615473.729    20615473.653       -1380.776       -1380.776       -1075.930       -1075.930   108335111.787   108335111.792    84416977.111    84416981.114          49.000          41.750          50.250          41.750
G15  22666279.350    22666278.639    22666274.720    22666274.007       -2579.285       -2579.285       -2009.832       -2009.832   119112112.703   119112112.706    92814656.099    92814627.103          43.500          40.750          38.750          40.750
G20  24295012.052    24295010.777                    24295006.834       -1701.657       -1701.657                       -1325.966   127671154.081   127671154.080                    99484012.886          37.250          18.000                          18.250
G23  24478500.103    24478499.944    24478495.722    24478495.752       -2130.344       -2130.344       -1660.008       -1660.008   128635389.143   128635389.149   100235353.082   100235360.077          38.500          21.000          37.250          21.250
G27  24720273.906    24720273.215    24720271.650    24720271.026        3331.092        3331.092        2595.656        2595.656   129905954.107   129905954.105   101225422.103   101225425.106          36.500          31.500          36.500          31.500
G28  20991440.142    20991439.072                    20991434.339       -1583.282       -1583.282                       -1233.726   110310803.095   110310803.095                    85956476.928          49.000          40.250                          40.000
G30  20730029.540    20730028.775    20730027.222    20730026.767        1362.373        1362.373        1061.589        1061.589   108937077.502   108937077.502    84886034.360    84886033.355          51.500          44.750          49.250          44.500
R01  23571381.381    23571381.482    23571378.783    23571379.644        4664.174        4664.174        3627.691        3627.691   126002531.151   126002531.151    98001960.215    98001963.219          41.250          40.750          35.250          34.500
R02  19984682.401    19984682.040    19984677.918    19984677.541        1410.283        1410.283        1096.887        1096.887   106642094.765   106642094.762    82943851.686    82943854.688          53.750          53.000          49.250          48.500
R03  21509288.830    21509289.182    21509284.121    21509283.773       -2776.276       -2776.276       -2159.325       -2159.325   115140918.905   115140918.909    89554028.573    89554040.575          50.000          49.000          46.250          45.250
R10  23769885.121    23769883.807                                        4048.177        4048.177                                   126706901.621   126706901.617                                          41.000          40.250
R11  19684433.689    19684433.824    19684427.795    19684427.730        1884.541        1884.541        1465.754        1465.754   105187676.969   105187676.969    81812649.276    81812648.280          53.750          53.750          52.500          52.000
R12  19858331.396    19858331.818    19858327.753    19858327.654       -2159.272       -2159.272       -1679.434       -1679.434   106079685.782   106079685.784    82506418.492    82506411.491          53.750          53.000          50.750          50.000
R20  21621236.287    21621236.828    21621233.883    21621233.057         133.757         133.757         104.033         104.033   115618473.404   115618473.409    89925473.213    89925468.209          38.500          37.500          45.750          46.250
R21  22561035.126    22561035.105    22561030.524    22561030.203       -3740.027       -3740.027       -2908.910       -2908.910   120728672.630   120728672.634    93900071.244    93900068.238          47.000          46.000          44.250          43.250
> 2021 01 03 00 19 30.0000000  0 21
G05  24557907.696    24557907.646    24557905.218    24557903.707        3407.724        3407.724        2655.369        2655.369   129052669.101   129052669.101   100560527.985   100560506.989          37.250          20.000          34.500          21.250
G07  22501132.275    22501131.948    22501127.276    22501127.275        2815.377        2815.377        2193.800        2193.800   118244273.246   118244273.244    92138401.073    92138404.064          46.250          34.250          40.500          34.500
G08  22530394.941    22530394.013    22530393.804    22530392.450        1499.208        1499.208        1168.214        1168.214   118398062.187   118398062.185    92258247.472    92258241.468          42.750          43.000          43.000          43.250
G11  23639622.697    23639621.601                    23639616.937       -2267.054       -2267.054                       -1766.535   124227073.205   124227073.205                    96800312.616          39.750          22.500                          22.500
G13  20801176.673    20801176.379                    20801171.683        -865.669        -865.669                        -674.548   109310947.657   109310947.653                    85177370.432          50.000          40.750                          40.250
G14  20607644.882    20607644.800    20607641.009    20607640.746       -1363.320       -1363.320       -1062.327       -1062.327   108293949.941   108293949.944    84384902.951    84384906.955          49.500          41.750          50.000          41.500
G15  22651598.360    22651598.279    22651594.662    22651593.981       -2563.833       -2563.833       -1997.792       -1997.792   119034967.701   119034967.698    92754543.125    92754514.122          43.500          40.750          39.500          40.750
G20  24285347.339    24285346.692                    24285342.235       -1684.348       -1684.348                       -1312.479   127620367.359   127620367.357                    99444438.836          38.500          18.250                          18.250
G21  25168961.535    25168958.090                    25168956.931       -2340.313       -2340.313                       -1823.620   132263785.207   132263785.223                   103062679.956          36.000          15.000                          15.000
G23  24466384.099    24466384.178    24466380.492    24466380.070       -2114.133       -2114.133       -1647.377       -1647.377   128571722.246   128571722.252   100185742.532   100185749.525          39.250          20.750          36.750          20.750
G27  24739321.041    24739319.814    24739318.516    24739317.984        3341.833        3341.833        2604.026        2604.026   130006046.236   130006046.234   101303415.967   101303418.970          36.750          31.250          36.750          31.000
G28  20982444.629    20982443.730                    20982438.921       -1568.171       -1568.171                       -1221.952   110263532.076   110263532.074                    85919642.373          49.750          39.750                          39.750
G30  20737849.938    20737849.034    20737847.526    20737847.126        1377.340        1377.340        1073.252        1073.252   108978173.536   108978173.533    84918057.246    84918056.244          51.500          44.500          49.500          44.250
R01  23597566.050    23597565.006    23597563.818    23597564.420        4667.204        4667.204        3630.048        3630.048   126142503.955   126142503.960    98110827.964    98110830.958          39.750          39.000          33.750          33.000
R02  19992686.517    19992686.014    19992682.111    19992681.857        1437.179        1437.179        1117.806        1117.806   106684806.246   106684806.243    82977071.733    82977074.733          54.250          53.000          49.250          49.000
R03  21493789.605    21493789.864    21493784.059    21493784.233       -2755.219       -2755.219       -2142.948       -2142.948   115057948.222   115057948.231    89489495.839    89489507.842          50.000          49.500          45.250          46.000
R10  23792671.252    23792671.358                                        4049.575        4049.575                                   126828367.322   126828367.323                                          41.250          40.000
R11  19695059.627    19695059.876    19695053.724    19695054.031        1900.968        1900.968        1478.531        1478.531   105244460.451   105244460.450    81856814.216    81856813.217          54.500          53.250          52.500          51.500
R12  19846250.705    19846250.820    19846246.909    19846246.673       -2142.968       -2142.968       -1666.752       -1666.752   106015152.687   106015152.687    82456226.102    82456219.099          54.250          53.250          50.500          50.000
R20  21622069.617    21622068.880    21622065.708    21622064.910         162.736         162.736         126.572         126.572   115622923.329   115622923.326    89928934.270    89928929.266          39.000          37.750          45.250          45.500
R21  22540109.322    22540109.716    22540104.617    22540104.623       -3725.231       -3725.231       -2897.402       -2897.402   120616694.487   120616694.489    93812977.149    93812974.150          47.500          46.500          43.750          43.250
> 2021 01 03 00 20 00.0000000  0 21
G05  24577379.130    24577378.849    24577376.036    24577375.147        3413.386        3413.386        2659.781        2659.781   129154988.797   129154988.797   100640257.522   100640236.539          38.250          21.250          35.500          20.250
G07  22517229.710    22517229.262    22517224.795    22517224.611        2824.123        2824.123        2200.615        2200.615   118328866.209   118328866.206    92204317.662    92204320.656          45.750          34.000          40.250          34.000
G08  22539008.254    22539007.600    22539006.960    22539006.125        1518.509        1518.509        1183.254        1183.254   118443326.852   118443326.845    92293518.629    92293512.635          44.750          43.500          42.750          43.500
G11  23626722.884    23626722.582                    23626717.440       -2252.067       -2252.067                       -1754.857   124159285.244   124159285.241                    96747490.851          40.750          22.750                          22.750
G13  20796291.012    20796290.551                    20796285.987        -845.991        -845.991                        -659.214   109285272.984   109285272.985                    85157364.208          50.250          40.500                          40.500
G14  20599911.609    20599911.407    20599907.484    20599907.334       -1345.918       -1345.918       -1048.767       -1048.767   108253310.303   108253310.308    84353235.714    84353239.719          49.250          42.000          50.250          42.000
G15  22637005.624    22637005.650    22637001.634    22637001.404       -2548.394       -2548.394       -1985.762       -1985.762   118958282.663   118958282.661    92694788.568    92694759.564          44.250          41.500          40.000          41.250
G20  24275782.476    24275780.962                    24275776.684       -1666.835       -1666.835                       -1298.832   127570101.015   127570101.015                    99405270.249          38.000          18.000                          17.750
G21  25155626.366    25155625.402                    25155620.657       -2331.301       -2331.301                       -1816.598   132193710.909   132193710.914                   103008076.615          35.250          14.750                          15.000
G23  24454361.348    24454361.122    24454357.026    24454357.074       -2097.887       -2097.887       -1634.717       -1634.717   128508540.852   128508540.847   100136510.274   100136517.268          38.500          20.500          36.750          20.500
G27  24758426.726    24758425.584    24758424.268    24758424.217        3351.980        3351.980        2611.933        2611.933   130106450.192   130106450.184   101381652.792   101381655.795          35.250          30.250          36.750          30.500
G28  20973534.857    20973534.009                    20973529.323       -1553.149       -1553.149                       -1210.246   110216711.659   110216711.659                    85883158.934          48.750          40.000                          40.500
G30  20745754.742    20745754.108    20745752.608    20745752.150        1392.136        1392.136        1084.781        1084.781   109019714.600   109019714.601    84950426.916    84950425.913          52.250          45.500          49.750          45.250
R01  23623769.147    23623768.855    23623765.096    23623765.904        4670.222        4670.222        3632.396        3632.396   126282568.110   126282568.115    98219766.737    98219769.732          41.250          40.000          33.750          33.250
R02  20000841.424    20000841.278    20000837.326    20000836.916        1464.002        1464.002        1138.668        1138.668   106728324.152   106728324.151    83010918.994    83010921.992          54.000          53.750          49.250          48.750
R03  21478407.898    21478408.154    21478402.968    21478402.609       -2734.104       -2734.104       -2126.525       -2126.525   114975610.035   114975610.042    89425455.040    89425467.042          50.500          49.500          45.750          46.000
R10  23815465.551    23815465.071                                        4050.882        4050.882                                   126949874.488   126949874.486                                          40.250          39.500
R11  19705778.384    19705778.247    19705772.150    19705772.190        1917.300        1917.300        1491.233        1491.233   105301735.581   105301735.579    81901361.542    81901360.543          53.750          53.750          52.250          52.000
R12  19834261.520    19834261.949    19834257.756    19834257.523       -2126.691       -2126.691       -1654.093       -1654.093   105951107.953   105951107.957    82406413.559    82406406.556          54.500          53.500          50.500          49.750
R20  21623064.114    21623063.892    21623060.561    21623059.672         191.891         191.891         149.248         149.248   115628243.113   115628243.116    89933071.886    89933066.886          38.500          37.250          45.750          46.000
R21  22519266.227    22519266.279    22519261.568    22519261.222       -3710.463       -3710.463       -2885.916       -2885.916   120505158.215   120505158.214    93726226.757    93726223.754          47.000          45.750          43.750          43.250
> 2021 01 03 00 20 30.0000000  0 21
G05  24596881.545    24596881.545    24596879.019    24596878.046        3419.180        3419.180        2664.296        2664.296   129257477.260   129257477.264   100720118.628   100720097.624          39.250          22.750          35.500          23.000
G07  22533377.536    22533377.177    22533372.900    22533372.523        2833.076        2833.076        2207.592        2207.592   118413723.725   118413723.721    92270440.399    92270443.391          46.000          34.000          40.500          34.250
G08  22547732.450    22547731.524    22547730.957    22547729.949        1537.768        1537.768        1198.261        1198.261   118489172.156   118489172.150    92329242.257    92329236.255          44.750          43.500          43.000          43.000
G11  23613909.170    23613908.424                    23613903.263       -2237.059       -2237.059                       -1743.163   124091948.531   124091948.529                    96695020.711          40.500          22.750                          22.750
G13  20791518.471    20791517.675                    20791512.911        -826.148        -826.148                        -643.751   109260191.162   109260191.157                    85137819.934          49.750          40.500                          40.250
G14  20592277.787    20592277.341    20592273.519    20592273.420       -1328.503       -1328.503       -1035.198       -1035.198   108213193.411   108213193.414    84321975.808    84321979.813          48.750          42.250          50.250          42.250
G15  22622501.499    22622500.889    22622497.141    22622496.688       -2532.880       -2532.880       -1973.673       -1973.673   118882060.113   118882060.108    92635394.380    92635365.385          43.750          41.250          40.500          41.250
G20  24266315.848    24266314.896                    24266310.816       -1649.054       -1649.054                       -1284.977   127520356.684   127520356.687                    99366508.448          38.250          17.500                          18.000
G21  25142343.489    25142343.280                    25142337.451       -2321.901       -2321.901                       -1809.274   132123910.628   132123910.626                   102953686.805          36.000          15.250                          15.250
G23  24442430.873    24442430.360    24442427.270    24442426.882       -2081.561       -2081.561       -1621.996       -1621.996   128445846.901   128445846.902   100087657.858   100087664.849          38.000          20.750          36.750          20.500
G27  24777591.617    24777590.712    24777589.711    24777589.667        3362.160        3362.160        2619.865        2619.865   130207162.702   130207162.705   101460130.105   101460133.119          35.750          31.250          36.750          31.000
G28  20964711.113    20964710.212                    20964705.624       -1538.056       -1538.056                       -1198.486   110170342.483   110170342.483                    85847027.116          49.500          40.250                          40.250
G30  20753744.211    20753743.429    20753742.291    20753741.598        1406.962        1406.962        1096.334        1096.334   109061699.683   109061699.685    84983142.572    84983141.568          51.750          44.500          49.500          44.500
R01  23649986.055    23649986.474    23649984.287    23649983.319        4673.154        4673.154        3634.675        3634.675   126422719.610   126422719.618    98328773.410    98328776.414          39.000          38.000          33.500          33.500
R02  20009147.635    20009147.481    20009143.445    20009143.352        1490.779        1490.779        1159.495        1159.495   106772646.677   106772646.677    83045392.066    83045395.065          54.500          53.500          49.250          48.500
R03  21463145.548    21463145.417    21463140.284    21463139.846       -2712.836       -2712.836       -2109.984       -2109.984   114893907.498   114893907.506    89361908.627    89361920.628          50.500          49.500          46.250          45.750
R10  23838267.149    23838266.334    23838269.021    23838266.282        4052.288        4052.288        3151.780        3151.780   127071421.021   127071421.021    98833301.021    98833289.770          39.750          38.750          14.750          19.500
R11  19716588.023    19716588.079    19716581.919    19716582.032        1933.636        1933.636        1503.939        1503.939   105359500.136   105359500.135    81946289.528    81946288.532          54.250          53.750          52.500          51.500
R12  19822363.661    19822364.182    19822359.684    19822359.592       -2110.334       -2110.334       -1641.371       -1641.371   105887552.523   105887552.525    82356981.572    82356974.568          54.250          53.750          50.250          49.750
R20  21624221.037    21624219.974    21624217.952    21624217.174         220.885         220.885         171.799         171.799   115634432.226   115634432.237    89937885.655    89937880.650          38.000          37.000          45.750          46.250
R21  22498506.373    22498506.366    22498501.419    22498501.162       -3695.469       -3695.469       -2874.253       -2874.253   120394068.255   120394068.258    93639823.495    93639820.486          47.250          46.500          43.750          43.250
> 2021 01 03 00 21 00.0000000  0 21
G05  24616416.753    24616416.398    24616411.679    24616412.450        3424.576        3424.576        2668.501        2668.501   129360131.500   129360131.503   100800108.948   100800087.928          39.250          21.000          34.500          21.500
G07  22549575.561    22549575.351    22549570.355    22549570.636        2841.699        2841.699        2214.311        2214.311   118498844.562   118498844.560    92336768.309    92336771.309          45.750          34.250          40.500          34.250
G08  22556566.970    22556566.065    22556565.535    22556564.451        1557.122        1557.122        1213.342        1213.342   118535596.334   118535596.331    92365416.953    92365410.954          44.000          43.500          43.000          43.500
G11  23601182.226    23601181.329                    23601176.369       -2221.768       -2221.768                       -1731.247   124025065.712   124025065.714                    96642904.273          41.000          23.000                          23.000
G13  20786858.534    20786857.866                    20786853.077        -806.355        -806.355                        -628.329   109235703.494   109235703.491                    85118738.644          48.750          40.750                          40.750
G14  20584743.365    20584743.104    20584739.050    20584738.977       -1311.063       -1311.063       -1021.608       -1021.608   108173600.243   108173600.248    84291124.005    84291128.007          50.250          42.250          50.000          42.000
G15  22608084.989    22608084.644    22608080.921    22608080.686       -2517.416       -2517.416       -1961.623       -1961.623   118806302.289   118806302.286    92576362.343    92576333.340          43.500          42.250          40.750          41.750
G20  24256949.671    24256948.707                    24256944.534       -1632.046       -1632.046                       -1271.724   127471136.029   127471136.031                    99328154.697          37.750          18.000                          18.250
G21  25129113.955    25129112.527                    25129108.530       -2313.086       -2313.086                       -1802.405   132054386.656   132054386.652                   102899512.295          34.250          14.500                          14.750
G23  24430593.297    24430594.157    24430590.465    24430589.677       -2065.520       -2065.520       -1609.496       -1609.496   128383642.689   128383642.692   100039187.049   100039194.052          38.500          20.500          36.500          20.250
G27  24796815.339    24796814.028    24796810.808    24796811.303        3372.284        3372.284        2627.754        2627.754   130308181.070   130308181.073   101538845.768   101538848.765          35.500          29.500          34.500          29.000
G28  20955973.516    20955972.472                    20955967.800       -1523.091       -1523.091                       -1186.824   110124424.917   110124424.914                    85811247.200          49.250          40.000                          40.000
G30  20761818.129    20761817.290    20761815.749    20761815.486        1421.649        1421.649        1107.778        1107.778   109104128.178   109104128.176    85016203.739    85016202.738          52.000          44.500          49.000          44.500
R01  23676219.649    23676220.086    23676218.561    23676217.971        4675.695        4675.695        3636.652        3636.652   126562954.988   126562954.988    98437845.305    98437848.308          38.250          37.250          33.500          33.500
R02  20017604.555    20017604.231    20017600.128    20017599.737        1517.461        1517.461        1180.248        1180.248   106817771.988   106817771.988    83080489.529    83080492.528          54.250          53.500          49.750          49.500
R03  21448001.932    21448002.474    21447996.586    21447996.436       -2691.473       -2691.473       -2093.368       -2093.368   114812844.369   114812844.374    89298859.536    89298871.540          50.500          49.750          45.750          46.000
R10  23861076.156    23861075.411                                        4053.358        4053.358                                   127193005.297   127193005.305                                          39.750          38.750
R11  19727489.260    19727489.322    19727483.049    19727483.139        1949.783        1949.783        1516.498        1516.498   105417752.450   105417752.449    81991596.889    81991595.892          54.000          53.750          52.750          51.500
R12  19810558.272    19810558.338    19810553.663    19810553.745       -2094.032       -2094.032       -1628.692       -1628.692   105824487.910   105824487.909    82307931.333    82307924.331          54.250          53.500          50.500          50.000
R20  21625540.566    21625540.640    21625538.404    21625537.198         249.563         249.563         194.105         194.105   115641490.705   115641490.705    89943375.577    89943370.575          38.500          37.250          46.250          46.000
R21  22477830.216    22477830.513    22477826.156    22477825.999       -3680.427       -3680.427       -2862.554       -2862.554   120283429.357   120283429.359    93553771.058    93553768.055          46.750          45.750          44.000          43.750
> 2021 01 03 00 21 30.0000000  0 21
G05  24635981.112    24635981.312    24635978.062    24635977.966        3429.949        3429.949        2672.688        2672.688   129462948.254   129462948.255   100880225.858   100880204.869          38.250          21.000          34.000          21.250
G07  22565823.764    22565822.992    22565818.019    22565818.050        2850.575        2850.575        2221.227        2221.227   118584227.097   118584227.092    92403300.155    92403303.154          46.750          33.750          40.000          34.000
G08  22565510.497    22565509.783    22565508.905    22565508.278        1576.365        1576.365        1228.336        1228.336   118582596.925   118582596.920    92402040.800    92402034.799          43.500          42.750          42.500          43.000
G11  23588541.095    23588540.195                    23588535.646       -2206.631       -2206.631                       -1719.453   123958639.308   123958639.305                    96591143.477          40.000          23.000                          23.250
G13  20782311.574    20782311.191                    20782306.592        -786.410        -786.410                        -612.787   109211810.667   109211810.663                    85100120.864          49.500          41.000                          40.750
G14  20577308.764    20577308.438    20577304.573    20577304.354       -1293.487       -1293.487       -1007.912       -1007.912   108134531.203   108134531.208    84260680.613    84260684.614          49.500          42.000          50.250          41.750
G15  22593757.476    22593757.250    22593753.467    22593753.296       -2501.750       -2501.750       -1949.416       -1949.416   118731011.209   118731011.209    92517694.010    92517664.997          42.250          42.000          41.000          41.500
G20  24247683.426    24247682.043                    24247677.674       -1614.359       -1614.359                       -1257.942   127422440.656   127422440.660                    99290210.251          38.750          18.000                          17.750
G21  25115936.472    25115934.932                    25115931.511       -2303.453       -2303.453                       -1794.898   131985141.330   131985141.329                   102845554.934          34.500          15.000                          14.750
G23  24418850.458    24418850.338    24418846.130    24418846.096       -2048.772       -2048.772       -1596.446       -1596.446   128321930.187   128321930.190    99991099.404    99991106.395          38.250          20.750          36.500          20.750
G27  24816096.114    24816095.270    24816093.397    24816093.729        3382.441        3382.441        2635.669        2635.669   130409501.975   130409501.977   101617797.114   101617800.111          36.000          30.500          36.250          30.750
G28  20947321.717    20947320.673                    20947316.016       -1507.920       -1507.920                       -1175.002   110078960.030   110078960.028                    85775820.026          50.500          40.500                          40.250
G30  20769976.254    20769975.296    20769973.876    20769973.511        1436.502        1436.502        1119.352        1119.352   109146999.034   109146999.034    85049609.608    85049608.605          50.750          44.500          49.250          44.750
R01  23702469.100    23702468.985    23702465.659    23702464.761        4678.442        4678.442        3638.789        3638.789   126703270.261   126703270.262    98546979.437    98546982.425          39.500          38.500          32.000          31.250
R02  20026211.131    20026210.828    20026206.437    20026206.246        1544.252        1544.252        1201.085        1201.085   106863697.913   106863697.913    83116209.693    83116212.692          54.500          53.500          49.500          49.000
R03  21432979.092    21432979.033    21432973.719    21432973.368       -2669.893       -2669.893       -2076.583       -2076.583   114732423.758   114732423.764    89236310.183    89236322.189          51.000          49.750          45.750          45.750
R10  23883891.665    23883891.227                                        4054.826        4054.826                                   127314626.376   127314626.372                                          39.750          38.500
R11  19738481.047    19738481.373    19738474.950    19738475.124        1966.144        1966.144        1529.223        1529.223   105476490.409   105476490.409    82037281.975    82037280.976          54.500          53.250          52.250          51.500
R12  19798844.021    19798844.446    19798840.120    19798839.985       -2077.489       -2077.489       -1615.824       -1615.824   105761915.018   105761915.018    82259263.552    82259256.549          54.250          53.000          50.000          50.250
R20  21627023.986    21627023.117    21627020.115    21627019.826         278.925         278.925         216.941         216.941   115649417.957   115649417.959    89949541.226    89949536.222          38.500          37.250          45.250          46.000
R21  22457239.864    22457240.265    22457235.301    22457235.371       -3665.062       -3665.062       -2850.604       -2850.604   120173245.631   120173245.636    93468072.670    93468069.660          47.250          46.500          44.000          43.500
> 2021 01 03 00 22 00.0000000  0 21
G05  24655578.002    24655577.428    24655573.960    24655574.175        3435.151        3435.151        2676.741        2676.741   129565924.759   129565924.757   100960467.256   100960446.267          40.250          21.250          34.750          21.250
G07  22582120.449    22582119.933    22582115.410    22582115.571        2858.985        2858.985        2227.780        2227.780   118669869.981   118669869.978    92470034.866    92470037.865          46.000          33.500          40.250          33.500
G08  22574563.831    22574563.162    22574562.245    22574561.567        1595.437        1595.437        1243.198        1243.198   118630172.425   118630172.417    92439112.629    92439106.625          43.000          42.750          42.750          42.750
G11  23575988.486    23575987.490                    23575982.419       -2191.188       -2191.188                       -1707.420   123892671.953   123892671.960                    96539740.394          41.500          23.000                          23.250
G13  20777878.788    20777878.138                    20777873.388        -766.586        -766.586                        -597.340   109188513.992   109188513.992                    85081967.624          50.250          41.000                          40.750
G14  20569973.923    20569973.663    20569969.842    20569969.655       -1275.988       -1275.988        -994.276        -994.276   108095987.102   108095987.108    84230646.261    84230650.265          49.250          42.250          50.500          42.250
G15  22579519.514    22579519.257    22579515.355    22579515.117       -2486.202       -2486.202       -1937.300       -1937.300   118656189.931   118656189.932    92459391.735    92459362.731          43.250          41.500          40.750          41.250
G20  24238517.369    24238515.586                    24238512.058       -1596.779       -1596.779                       -1244.243   127374272.357   127374272.355                    99252676.509          38.250          17.750                          17.750
G21  25102812.912    25102812.025                    25102807.532       -2294.534       -2294.534                       -1787.949   131916176.883   131916176.877                   102791816.443          34.750          14.500                          14.500
G23  24407200.642    24407200.980    24407196.861    24407196.660       -2032.331       -2032.331       -1583.635       -1583.635   128260711.513   128260711.514    99943396.547    99943403.544          37.750          20.500          36.500          20.500
G27  24835434.070    24835432.967    24835430.889    24835430.890        3392.337        3392.337        2643.380        2643.380   130511122.565   130511122.562   101696981.979   101696984.974          36.500          29.500          35.500          29.250
G28  20938756.456    20938755.286                    20938750.470       -1492.811       -1492.811                       -1163.229   110033948.150   110033948.151                    85740745.848          49.250          40.500                          40.250
G30  20778218.257    20778217.473    20778216.051    20778215.533        1451.116        1451.116        1130.739        1130.739   109190311.458   109190311.457    85083359.553    85083358.549          50.500          44.250          49.250          44.000
R01  23728731.817    23728732.343    23728729.950    23728731.868        4681.032        4681.032        3640.802        3640.802   126843661.801   126843661.811    98656172.806    98656175.812          39.000          38.000          34.000          33.500
R02  20034966.873    20034966.661    20034962.394    20034962.313        1570.760        1570.760        1221.702        1221.702   106910422.416   106910422.413    83152550.960    83152553.959          54.500          53.500          49.500          49.000
R03  21418076.422    21418076.604    21418071.060    21418070.830       -2648.356       -2648.356       -2059.833       -2059.833   114652649.256   114652649.259    89174263.363    89174275.362          50.500          49.500          46.000          45.500
R10  23906715.153    23906714.752                                        4055.806        4055.806                                   127436281.646   127436281.641                                          41.250          40.000
R11  19749563.316    19749563.683    19749557.608    19749557.856        1982.136        1982.136        1541.661        1541.661   105535712.239   105535712.238    82083343.396    82083342.399          54.500          53.500          52.250          51.250
R12  19787222.693    19787223.023    19787218.724    19787218.411       -2061.110       -2061.110       -1603.085       -1603.085   105699835.104   105699835.104    82210979.188    82210972.187          54.250          53.500          50.500          50.000
R20  21628668.573    21628668.118    21628665.154    21628664.508         307.541         307.541         239.199         239.199   115658213.283   115658213.285    89956382.042    89956377.039          38.250          37.250          45.500          46.000
R21  22436735.375    22436735.762    22436730.875    22436730.834       -3649.785       -3649.785       -2838.721       -2838.721   120063521.679   120063521.677    93382731.847    93382728.838          47.750          47.000          44.000          43.250
> 2021 01 03 00 22 30.0000000  0 21
G05  24675203.189    24675202.964    24675199.007    24675199.284        3440.405        3440.405        2680.835        2680.835   129669058.421   129669058.421   101040831.110   101040810.118          39.500          21.500          34.000          21.500
G07  22598467.670    22598467.066    22598462.284    22598462.216        2867.672        2867.672        2234.550        2234.550   118755772.619   118755772.619    92536971.996    92536974.988          45.500          33.750          40.250          33.750
G08  22583726.250    22583725.582    22583724.774    22583723.919        1614.484        1614.484        1258.040        1258.040   118678321.893   118678321.889    92476631.703    92476625.705          44.250          42.750          42.750          43.000
G11  23563522.269    23563521.914                    23563517.570       -2175.794       -2175.794                       -1695.424   123827166.770   123827166.768                    96488697.424          40.500          23.500                          23.500
G13  20773559.261    20773558.639                    20773553.811        -746.628        -746.628                        -581.787   109165814.866   109165814.866                    85064279.999          50.250          40.750                          40.750
G14  20562739.400    20562739.071    20562735.492    20562735.100       -1258.553       -1258.553        -980.690        -980.690   108057969.046   108057969.052    84201021.818    84201025.822          49.250          42.000          50.500          42.000
G15  22565371.244    22565371.064    22565367.487    22565366.966       -2470.426       -2470.426       -1925.007       -1925.007   118581840.977   118581840.976    92401457.510    92401428.507          41.750          41.250          40.750          41.250
G20  24229452.073    24229450.564                    24229446.553       -1579.292       -1579.292                       -1230.617   127326633.268   127326633.266                    99215555.135          36.750          18.000                          18.250
G21  25089744.296    25089742.425                    25089738.536       -2284.784       -2284.784                       -1780.351   131847496.351   131847496.356                   102738299.179          35.500          14.000                          14.250
G23  24395646.110    24395645.808    24395642.064    24395641.148       -2015.848       -2015.848       -1570.791       -1570.791   128199989.270   128199989.270    99896080.516    99896087.509          39.750          20.750          36.250          20.750
G27  24854827.324    24854826.616    24854825.681    24854825.503        3402.191        3402.191        2651.058        2651.058   130613040.240   130613040.234   101776398.347   101776401.356          35.000          28.500          35.250          28.500
G28  20930277.286    20930276.150                    20930271.575       -1477.663       -1477.663                       -1151.426   109989390.446   109989390.448                    85706025.570          50.000          40.000                          40.250
G30  20786544.194    20786543.425    20786542.187    20786541.653        1465.748        1465.748        1142.141        1142.141   109234065.099   109234065.097    85117453.303    85117452.301          50.250          44.750          49.000          44.500
R01  23755008.673    23755008.864    23755006.193    23755007.991        4683.386        4683.386        3642.634        3642.634   126984126.591   126984126.596    98765423.168    98765426.161          38.250          37.250          32.250          32.000
R02  20043872.474    20043872.022    20043868.187    20043868.194        1597.273        1597.273        1242.323        1242.323   106957944.163   106957944.163    83189512.324    83189515.322          54.250          53.250          49.500          49.250
R03  21403295.057    21403295.426    21403289.443    21403289.585       -2626.684       -2626.684       -2042.976       -2042.976   114573524.980   114573524.984    89112722.268    89112734.269          50.750          50.250          46.000          45.500
R10  23929542.325    23929541.123                                        4056.609        4056.609                                   127557970.019   127557970.027                                          40.000          38.750
R11  19760736.341    19760736.674    19760730.631    19760730.630        1998.109        1998.109        1554.085        1554.085   105595416.432   105595416.430    82129779.990    82129778.994          54.500          53.500          51.750          51.000
R12  19775693.665    19775693.849    19775689.916    19775689.689       -2044.626       -2044.626       -1590.264       -1590.264   105638250.032   105638250.035    82163079.711    82163072.707          54.000          53.250          50.500          50.250
R20  21630475.396    21630475.356    21630472.675    21630471.563         336.453         336.453         261.686         261.686   115667877.001   115667877.007    89963898.280    89963893.275          38.750          37.250          46.000          46.250
R21  22416317.887    22416318.169    22416313.057    22416313.042       -3634.204       -3634.204       -2826.603       -2826.603   119954262.439   119954262.438    93297752.464    93297749.461          48.000          46.750          43.750          43.750
> 2021 01 03 00 23 00.0000000  0 21
G05  24694858.009    24694857.749    24694855.091    24694853.653        3445.576        3445.576        2684.864        2684.864   129772345.213   129772345.212   101121314.288   101121293.293          40.250          20.750          33.000          20.750
G07  22614863.377    22614862.929    22614858.242    22614858.324        2876.419        2876.419        2241.366        2241.366   118841933.387   118841933.386    92604110.250    92604113.241          45.750          33.500          40.500          33.500
G08  22592997.485    22592997.047    22592995.724    22592995.160        1633.566        1633.566        1272.908        1272.908   118727042.785   118727042.780    92514596.044    92514590.047          44.250          42.750          42.500          42.750
G11  23551146.219    23551145.356                    23551140.533       -2160.079       -2160.079                       -1683.178   123762125.965   123762125.963                    96438016.317          41.500          23.500                          23.500
G13  20769353.422    20769352.912                    20769348.092        -726.595        -726.595                        -566.178   109143714.256   109143714.256                    85047058.750          50.750          40.750                          40.500
G14  20555605.050    20555604.710    20555600.960    20555600.599       -1240.885       -1240.885        -966.924        -966.924   108020477.348   108020477.354    84171807.524    84171811.529          50.500          42.250          50.500          42.000
G15  22551313.150    22551313.053    22551309.403    22551309.093       -2454.535       -2454.535       -1912.625       -1912.625   118507966.408   118507966.403    92343892.930    92343863.933          43.750          41.750          40.750          41.500
G20  24220487.316    24220486.078                    24220481.871       -1561.089       -1561.089                       -1216.433   127279524.710   127279524.712                    99178847.174          37.000          18.000                          18.000
G21  25076728.824    25076727.708                    25076723.323       -2274.812       -2274.812                       -1772.581   131779102.072   131779102.078                   102685004.946          35.500          16.000                          15.750
G23  24384185.706    24384185.331    24384181.441    24384181.398       -1999.024       -1999.024       -1557.681       -1557.681   128139765.194   128139765.199    99849152.673    99849159.670          39.500          21.000          36.750          21.000
G27  24874277.262    24874277.431    24874275.849    24874274.610        3412.172        3412.172        2658.835        2658.835   130715251.607   130715251.607   101856043.618   101856046.610          35.750          29.000          34.250          29.000
G28  20921884.482    20921883.561                    20921878.902       -1462.434       -1462.434                       -1139.559   109945286.997   109945286.999                    85671659.263          48.500          40.000                          40.000
G30  20794954.227    20794953.322    20794951.631    20794951.348        1480.467        1480.467        1153.611        1153.611   109278258.747   109278258.747    85151889.918    85151888.917          51.500          44.500          49.000          44.750
R01  23781298.706    23781298.182    23781296.787    23781296.792        4685.420        4685.420        3644.216        3644.216   127124660.195   127124660.184    98874726.978    98874729.973          37.750          36.750          33.500          33.250
R02  20052927.167    20052926.765    20052922.571    20052922.251        1623.896        1623.896        1263.030        1263.030   107006260.951   107006260.950    83227092.043    83227095.041          54.250          53.250          49.500          49.250
R03  21388636.187    21388636.314    21388630.828    21388630.803       -2604.626       -2604.626       -2025.820       -2025.820   114495053.853   114495053.861    89051689.175    89051701.182          50.500          49.750          45.750          45.250
R10  23952377.531    23952377.273                                        4057.865        4057.865                                   127679689.493   127679689.494                                          41.250          40.250
R11  19771998.924    19771999.269    19771993.297    19771993.305        2014.219        2014.219        1566.615        1566.615   105655600.745   105655600.742    82176590.011    82176589.016          54.750          53.250          51.750          51.500
R12  19764257.836    19764257.861    19764253.386    19764253.440       -2028.009       -2028.009       -1577.340       -1577.340   105577160.302   105577160.303    82115565.489    82115558.487          54.500          53.750          50.750          50.250
R20  21632444.587    21632444.461    21632442.363    21632441.183         365.628         365.628         284.377         284.377   115678408.354   115678408.367    89972089.330    89972084.328          38.750          37.250          46.250          45.750
R21  22395987.991    22395987.739    22395982.708    22395982.458       -3618.425       -3618.425       -2814.331       -2814.331   119845471.605   119845471.599    93213137.414    93213134.416          47.500          47.250          44.000          43.500
> 2021 01 03 00 23 30.0000000  0 21
G05  24714542.063    24714541.650    24714538.160    24714537.377        3450.315        3450.315        2688.558        2688.558   129875782.223   129875782.222   101201914.527   101201893.543          41.000          21.000          33.250          21.000
G07  22631308.040    22631307.360    22631303.202    22631302.838        2884.914        2884.914        2247.985        2247.985   118928351.220   118928351.217    92671448.811    92671451.811          46.000          33.500          40.250          33.500
G08  22602377.209    22602376.374    22602376.265    22602375.186        1652.434        1652.434        1287.611        1287.611   118776333.511   118776333.508    92553004.418    92552998.418          43.500          42.500          43.000          42.750
G11  23538857.749    23538857.078                    23538852.589       -2144.543       -2144.543                       -1671.072   123697552.297   123697552.300                    96387699.210          40.750          23.750                          23.750
G13  20765262.038    20765261.471                    20765256.640        -706.622        -706.622                        -550.615   109122213.098   109122213.101                    85030304.613          49.750          40.750                          40.750
G14  20548570.693    20548570.453    20548566.616    20548566.383       -1223.306       -1223.306        -953.225        -953.225   107983512.762   107983512.767    84143003.970    84143007.972          50.000          43.000          50.250          42.250
G15  22537346.550    22537345.926    22537342.246    22537341.755       -2438.570       -2438.570       -1900.185       -1900.185   118434568.698   118434568.696    92286699.931    92286670.934          44.750          41.500          40.250          41.750
G20  24211624.192    24211623.070                    24211618.759       -1543.671       -1543.671                       -1202.860   127232948.254   127232948.249                    99142553.838          37.500          17.750                          17.750
G21  25063767.555    25063766.533                    25063762.648       -2265.325       -2265.325                       -1765.188   131710996.422   131710996.430                   102631935.648          34.500          15.500                          13.500
G23  24372820.547    24372820.754    24372816.462    24372816.660       -1982.304       -1982.304       -1544.652       -1544.652   128080041.420   128080041.422    99802614.668    99802621.665          38.750          21.250          36.750          21.000
G27  24893783.499    24893783.906    24893781.437    24893780.921        3421.559        3421.559        2666.150        2666.150   130817753.742   130817753.742   101935915.400   101935918.411          37.000          31.500          35.750          32.000
G28  20913578.452    20913577.528                    20913572.858       -1447.324       -1447.324                       -1127.785   109901638.696   109901638.695                    85637647.611          50.500          40.750                          40.500
G30  20803447.515    20803446.606    20803444.994    20803444.715        1495.098        1495.098        1165.011        1165.011   109322891.641   109322891.641    85186668.801    85186667.798          52.250          44.250          49.000          44.250
R01  23807601.757    23807601.511    23807599.304    23807598.290        4687.733        4687.733        3646.014        3646.014   127265259.116   127265259.117    98984081.660    98984084.659          40.500          40.000          32.250          32.000
R02  20062130.438    20062130.121    20062125.970    20062125.585        1650.200        1650.200        1283.489        1283.489   107055370.675   107055370.674    83265288.499    83265291.495          54.250          53.750          49.250          49.000
R03  21374099.632    21374099.952    21374094.319    21374094.126       -2582.729       -2582.729       -2008.789       -2008.789   114417239.433   114417239.439    88991166.866    88991178.868          50.750          49.750          46.000          45.250
R10  23975218.097    23975217.167                                        4058.708        4058.708                                   127801439.036   127801439.024                                          40.500          39.000
R11  19783351.412    19783351.550    19783345.357    19783345.444        2030.100        2030.100        1578.966        1578.966   105716263.467   105716263.467    82223772.137    82223771.140          54.500          53.500          52.000          51.500
R12  19752914.481    19752914.644    19752910.682    19752910.597       -2011.426       -2011.426       -1564.442       -1564.442   105516567.513   105516567.513    82068437.781    82068430.776          54.000          53.750          51.000          50.000
R20  21634576.894    21634576.032    21634573.453    21634572.791         394.417         394.417         306.768         306.768   115689806.820   115689806.826    89980954.810    89980949.806          38.500          37.250          45.750          46.000
R21  22375746.279    22375746.159    22375741.153    22375740.561       -3602.616       -3602.616       -2802.035       -2802.035   119737154.049   119737154.048    93128890.453    93128887.456          48.000          46.500          44.000          43.500
> 2021 01 03 00 24 00.0000000  0 21
G05  24734252.855    24734253.060    24734249.641    24734248.625        3455.363        3455.363        2692.490        2692.490   129979366.680   129979366.683   101282629.647   101282608.658          39.250          21.250          33.250          21.500
G07  22647801.246    22647801.203    22647796.791    22647796.322        2893.306        2893.306        2254.524        2254.524   119015024.626   119015024.622    92738986.531    92738989.522          45.750          33.500          40.000          33.750
G08  22611864.906    22611864.231    22611863.822    22611863.030        1671.345        1671.345        1302.347        1302.347   118826192.122   118826192.122    92591855.290    92591849.289          44.000          42.500          42.750          42.500
G11  23526659.292    23526658.616                    23526653.889       -2128.971       -2128.971                       -1658.939   123633448.260   123633448.259                    96337748.036          40.250          23.750                          23.750
G13  20761284.728    20761284.199                    20761279.446        -686.639        -686.639                        -535.044   109101312.602   109101312.599                    85014018.511          50.000          41.750                          41.500
G14  20541636.968    20541636.937    20541633.193    20541632.626       -1205.792       -1205.792        -939.578        -939.578   107947075.939   107947075.942    84114611.654    84114615.656          49.500          42.000          50.250          41.750
G15  22523470.124    22523470.011    22523466.735    22523465.990       -2422.708       -2422.708       -1887.824       -1887.824   118361649.977   118361649.976    92229880.169    92229851.170          43.000          42.000          40.500          41.750
G20  24202861.796    24202861.561                    24202857.485       -1525.772       -1525.772                       -1188.913   127186905.602   127186905.605                    99106676.444          37.000          17.750                          17.750
G21  25050865.208    25050863.263                    25050858.015       -2255.673       -2255.673                       -1757.667   131643181.877   131643181.879                   102579093.152          37.250          14.750                          14.500
G23  24361550.646    24361550.913    24361547.187    24361546.883       -1965.656       -1965.656       -1531.680       -1531.680   128020820.068   128020820.077    99756468.169    99756475.165          38.250          20.500          36.500          20.750
G27  24913344.505    24913343.816    24913341.380    24913341.154        3431.307        3431.307        2673.746        2673.746   130920543.848   130920543.842   102016011.640   102016014.632          37.500          30.000          33.750          29.750
G28  20905359.293    20905358.315                    20905353.541       -1432.102       -1432.102                       -1115.924   109858446.019   109858446.017                    85603990.992          49.750          40.750                          40.250
G30  20812024.328    20812023.535    20812022.032    20812021.431        1509.669        1509.669        1176.365        1176.365   109367962.979   109367962.979    85221789.331    85221788.326          51.750          44.250          49.250          44.250
R01  23833913.942    23833913.839    23833911.804    23833911.811        4689.756        4689.756        3647.588        3647.588   127405920.188   127405920.186    99093484.699    99093487.696          38.250          37.500          32.000          32.000
R02  20071481.586    20071481.576    20071477.199    20071476.919        1676.444        1676.444        1303.901        1303.901   107105271.431   107105271.432    83304100.186    83304103.185          54.250          53.250          49.500          49.250
R03  21359686.518    21359686.595    21359681.181    21359681.095       -2560.720       -2560.720       -1991.671       -1991.671   114340085.162   114340085.167    88931158.000    88931170.001          50.250          49.250          45.750          45.500
R10  23998061.677    23998060.677                                        4059.771        4059.771                                   127923216.102   127923216.106                                          39.750          38.250
R11  19794793.003    19794793.043    19794786.770    19794786.878        2045.894        2045.894        1591.251        1591.251   105777402.696   105777402.694    82271324.870    82271323.875          54.750          53.750          52.000          51.500
R12  19741664.529    19741664.941    19741660.678    19741660.387       -1994.873       -1994.873       -1551.568       -1551.568   105456472.781   105456472.785    82021697.452    82021690.450          54.500          53.500          50.500          50.250
R20  21636870.534    21636869.942    21636866.884    21636866.263         423.255         423.255         329.199         329.199   115702071.841   115702071.845    89990494.275    89990489.271          39.000          37.250          45.500          46.000
R21  22355593.616    22355593.794    22355588.282    22355588.025       -3586.662       -3586.662       -2789.626       -2789.626   119629314.074   119629314.077    93045014.957    93045011.954          48.500          47.000          43.500          43.750
> 2021 01 03 00 24 30.0000000  0 21
G05  24753992.048    24753991.739    24753987.952    24753987.755        3459.974        3459.974        2696.083        2696.083   130083095.763   130083095.765   101363457.412   101363436.424          38.250          20.500          33.500          20.000
G07  22664343.300    22664342.687    22664338.518    22664337.967        2901.938        2901.938        2261.251        2261.251   119101952.694   119101952.690    92806722.680    92806725.677          44.500          33.250          40.000          33.250
G08  22621460.656    22621459.979    22621459.179    22621458.443        1690.328        1690.328        1317.139        1317.139   118876616.914   118876616.913    92631147.339    92631141.338          42.000          43.250          43.250          43.000
G11  23514550.567    23514549.634                    23514544.877       -2113.011       -2113.011                       -1646.502   123569816.381   123569816.387                    96288164.786          41.750          23.500                          23.750
G13  20757421.994    20757421.421                    20757416.636        -666.559        -666.559                        -519.397   109081013.742   109081013.742                    84998201.225          50.750          41.000                          41.250
G14  20534804.027    20534803.735    20534799.812    20534799.594       -1188.079       -1188.079        -925.776        -925.776   107911167.831   107911167.837    84086631.326    84086635.329          50.000          42.750          50.500          42.250
G15  22509686.341    22509685.933    22509682.579    22509681.498       -2406.504       -2406.504       -1875.198       -1875.198   118289213.008   118289213.003    92173435.791    92173406.791          45.500          42.000          40.250          41.500
G20  24194202.646    24194201.781                    24194197.666       -1507.871       -1507.871                       -1174.965   127141398.599   127141398.595                    99071216.447          38.250          17.750                          17.750
G21  25038014.928    25038013.697                    25038009.737       -2245.541       -2245.541                       -1749.772   131575660.805   131575660.801                   102526479.374          35.750          16.750                          16.750
G23  24350377.858    24350377.335    24350373.512    24350373.500       -1948.741       -1948.741       -1518.500       -1518.500   127962103.467   127962103.468    99710714.972    99710721.967          38.500          20.500          36.750          20.750
G27  24932957.342    24932957.525    24932955.208    24932955.005        3440.547        3440.547        2680.945        2680.945   131023619.020   131023619.021   102096329.982   102096332.973          35.000          27.500          34.250          27.750
G28  20897226.617    20897225.854                    20897221.054       -1416.840       -1416.840                       -1104.031   109815709.688   109815709.689                    85570689.973          49.500          40.250                          40.000
G30  20820684.388    20820683.650    20820681.968    20820681.543        1524.293        1524.293        1187.761        1187.761   109413472.158   109413472.158    85257251.032    85257250.028          51.750          44.750          48.750          44.500
R01  23860238.750    23860238.504    23860236.951    23860236.092        4691.571        4691.571        3649.000        3649.000   127546639.466   127546639.474    99202932.930    99202935.944          38.500          38.000          32.000          32.000
R02  20080980.773    20080980.453    20080976.620    20080976.409        1702.904        1702.904        1324.481        1324.481   107155961.243   107155961.241    83343525.589    83343528.588          53.750          53.500          48.750          48.750
R03  21345398.113    21345398.155    21345392.396    21345391.879       -2538.532       -2538.532       -1974.414       -1974.414   114263594.884   114263594.889    88871665.573    88871677.572          50.750          50.000          46.500          45.750
R10  24020912.357    24020912.005                                        4060.864        4060.864                                   128045020.114   128045020.115                                          39.750          38.750
R11  19806323.283    19806323.302    19806317.018    19806316.985        2061.741        2061.741        1603.576        1603.576   105839016.869   105839016.868    82319247.011    82319246.014          54.500          54.000          51.750          51.000
R12  19730508.330    19730508.590    19730504.014    19730504.116       -1978.094       -1978.094       -1538.518       -1538.518   105396877.550   105396877.551    81975345.614    81975338.613          54.250          53.250          50.000          50.000
R20  21639326.431    21639325.320    21639322.830    21639321.726         452.064         452.064         351.605         351.605   115715202.939   115715202.939    90000707.342    90000702.342          38.500          37.500          45.500          46.000
R21  22335531.529    22335531.480    22335526.220    22335526.375       -3570.361       -3570.361       -2776.947       -2776.947   119521956.511   119521956.511    92961514.648    92961511.644          48.250          47.500          44.250          43.750
> 2021 01 03 00 25 00.0000000  0 21
G05  24773758.308    24773758.332    24773755.178    24773754.085        3464.620        3464.620        2699.704        2699.704   130186966.170   130186966.173   101444395.341   101444374.348          40.750          20.750          33.000          21.000
G07  22680933.643    22680933.173    22680928.327    22680928.164        2910.235        2910.235        2267.716        2267.716   119189134.009   119189134.006    92874656.175    92874659.168          46.250          33.500          40.000          33.500
G08  22631163.059    22631162.821    22631162.347    22631161.215        1709.066        1709.066        1331.739        1331.739   118927606.008   118927606.004    92670879.098    92670873.106          43.500          42.750          42.500          42.250
G11  23502532.513    23502531.244                    23502526.404       -2097.344       -2097.344                       -1634.295   123506659.466   123506659.471                    96238951.626          40.000          23.500                          23.750
G13  20753673.930    20753673.326                    20753668.507        -646.511        -646.511                        -503.775   109061317.328   109061317.327                    84982853.375          51.000          40.500                          40.500
G14  20528071.592    20528071.443    20528067.660    20528067.264       -1170.494       -1170.494        -912.073        -912.073   107875788.892   107875788.895    84059063.332    84059067.335          49.750          42.500          50.250          42.500
G15  22495994.035    22495993.760    22495988.930    22495989.225       -2390.385       -2390.385       -1862.638       -1862.638   118217260.008   118217260.010    92117368.541    92117339.535          45.000          41.750          40.000          41.750
G20  24185644.225    24185643.948                    24185639.946       -1490.144       -1490.144                       -1161.151   127096428.340   127096428.342                    99036174.720          36.250          17.750                          17.750
G21  25025222.679    25025221.289                    25025216.473       -2236.158       -2236.158                       -1742.461   131508435.760   131508435.759                   102474096.257          36.000          15.750                          15.750
G23  24339300.612    24339300.689    24339297.426    24339296.692       -1931.897       -1931.897       -1505.374       -1505.374   127903893.563   127903893.560    99665356.624    99665363.613          38.750          21.000          36.750          20.750
G27  24952626.592    24952625.750    24952624.793    24952624.094        3449.758        3449.758        2688.124        2688.124   131126976.228   131126976.232   102176868.014   102176871.021          35.500          29.750          35.500          29.750
G28  20889181.240    20889180.397                    20889175.513       -1401.677       -1401.677                       -1092.216   109773430.159   109773430.156                    85537744.899          48.750          40.750                          40.250
G30  20829427.631    20829426.844    20829425.044    20829424.800        1538.756        1538.756        1199.031        1199.031   109459418.194   109459418.194    85293053.144    85293052.140          50.750          45.000          48.750          44.500
R01  23886575.161    23886574.370    23886571.797    23886572.199        4693.292        4693.292        3650.339        3650.339   127687413.808   127687413.810    99312424.021    99312427.024          40.750          39.250          33.500          32.750
R02  20090627.995    20090627.785    20090622.882    20090622.670        1728.922        1728.922        1344.718        1344.718   107207437.769   107207437.771    83383562.890    83383565.888          54.500          54.000          49.000          48.750
R03  21331233.166    21331233.467    21331227.891    21331227.405       -2516.330       -2516.330       -1957.146       -1957.146   114187771.654   114187771.659    88812691.955    88812703.959          51.000          50.000          46.000          45.750
R10  24043766.654    24043766.538                                        4061.320        4061.320                                   128166848.849   128166848.846                                          40.500          39.000
R11  19817941.711    19817941.895    19817935.704    19817935.829        2077.389        2077.389        1615.747        1615.747   105901103.843   105901103.843    82367536.890    82367535.894          54.750          53.500          52.250          51.000
R12  19719445.414    19719445.732    19719441.735    19719441.697       -1961.534       -1961.534       -1525.638       -1525.638   105337782.799   105337782.800    81929383.047    81929376.043          54.250          53.500          50.750          50.500
R20  21641943.243    21641942.578    21641940.066    21641939.141         480.812         480.812         373.965         373.965   115729199.436   115729199.430    90011593.503    90011588.506          38.500          37.250          46.000          46.000
R21  22315559.731    22315559.707    22315554.268    22315554.385       -3554.241       -3554.241       -2764.410       -2764.410   119415085.530   119415085.530    92878392.792    92878389.789          47.750          46.750          44.000          43.500
> 2021 01 03 00 25 30.0000000  0 21
G05  24793550.775    24793550.239    24793546.454    24793545.968        3469.377        3469.377        2703.411        2703.411   130290974.986   130290974.988   101525441.157   101525420.146          40.750          20.250          32.000          20.750
G07  22697571.763    22697571.080    22697566.452    22697566.187        2918.648        2918.648        2274.271        2274.271   119276567.297   119276567.292    92942786.003    92942788.999          45.250          33.250          40.000          33.500
G08  22640973.278    22640972.732    22640971.528    22640971.063        1727.776        1727.776        1346.320        1346.320   118979157.619   118979157.616    92711049.199    92711043.202          44.250          42.750          42.250          42.750
G11  23490604.373    23490603.861                    23490599.219       -2081.434       -2081.434                       -1621.897   123443979.884   123443979.889                    96190110.414          40.750          23.750                          23.750
G13  20750040.499    20750040.078                    20750035.236        -626.316        -626.316                        -488.038   109042224.500   109042224.500                    84967975.852          51.000          41.250                          41.000
G14  20521439.923    20521439.697    20521435.980    20521435.688       -1152.729       -1152.729        -898.230        -898.230   107840939.700   107840939.705    84031908.138    84031912.139          50.750          42.750          50.500          42.000
G15  22482394.831    22482393.973    22482389.829    22482389.742       -2374.060       -2374.060       -1849.917       -1849.917   118145793.545   118145793.541    92061680.383    92061651.389          44.500          41.500          40.000          41.500
G20  24177189.560    24177188.664                    24177184.887       -1471.883       -1471.883                       -1146.922   127051997.180   127051997.182                    99001553.041          36.750          17.000                          17.000
G21  25012486.907    25012485.868                    25012481.546       -2225.572       -2225.572                       -1734.212   131441509.430   131441509.429                   102421945.852          35.750          15.750                          15.750
G23  24328320.998    24328320.200    24328315.925    24328316.173       -1914.881       -1914.881       -1492.115       -1492.115   127846192.285   127846192.278    99620394.574    99620401.581          38.500          21.000          37.250          21.000
G27  24972347.599    24972347.189    24972346.564    24972345.211        3458.880        3458.880        2695.231        2695.231   131230612.480   131230612.477   102257623.564   102257626.562          35.000          27.750          33.750          28.000
G28  20881222.878    20881221.760                    20881217.050       -1386.379       -1386.379                       -1080.295   109731607.873   109731607.872                    85505156.120          50.500          40.250                          40.500
G30  20838253.791    20838252.937    20838251.349    20838251.092        1553.403        1553.403        1210.444        1210.444   109505800.201   109505800.200    85329194.970    85329193.967          51.500          44.250          48.750          44.500
R01  23912918.390    23912918.724    23912916.251    23912915.429        4695.130        4695.130        3651.768        3651.768   127828239.096   127828239.089    99421954.753    99421957.770          40.250          39.500          33.500          33.000
R02  20100421.424    20100421.248    20100416.723    20100416.579        1755.091        1755.091        1365.071        1365.071   107259699.012   107259699.009    83424210.511    83424213.508          55.000          53.750          49.500          48.750
R03  21317193.757    21317193.987    21317188.618    21317188.552       -2493.770       -2493.770       -1939.599       -1939.599   114112618.988   114112618.994    88754239.898    88754251.895          50.500          49.750          45.750          45.750
R10  24066625.448    24066625.636                                        4062.431        4062.431                                   128288700.652   128288700.652                                          39.000          38.250
R11  19829648.614    19829648.887    19829642.456    19829642.632        2093.134        2093.134        1627.993        1627.993   105963661.773   105963661.769    82416193.057    82416192.062          54.000          53.750          51.000          51.500
R12  19708477.091    19708477.326    19708472.894    19708472.833       -1944.741       -1944.741       -1512.576       -1512.576   105279189.765   105279189.769    81883810.706    81883803.702          54.500          53.250          50.500          50.500
R20  21644722.783    21644722.240    21644719.364    21644718.491         509.787         509.787         396.501         396.501   115744060.711   115744060.715    90023152.282    90023147.284          39.000          37.500          45.750          45.750
R21  22295679.692    22295680.111    22295674.609    22295674.466       -3537.776       -3537.776       -2751.604       -2751.604   119308705.424   119308705.421    92795652.737    92795649.727          47.750          47.500          44.250          43.750
> 2021 01 03 00 26 00.0000000  0 21
G05  24813368.516    24813368.195    24813364.468    24813364.772        3473.728        3473.728        2706.801        2706.801   130395118.776   130395118.783   101606592.156   101606571.166          40.250          21.000          32.500          20.750
G07  22714257.351    22714256.685    22714251.749    22714251.985        2926.951        2926.951        2280.741        2280.741   119364251.040   119364251.035    93011110.996    93011113.994          45.750          33.500          39.750          33.250
G08  22650889.901    22650889.254    22650889.120    22650887.762        1746.283        1746.283        1360.740        1360.740   119031269.034   119031269.033    92751655.500    92751649.502          44.750          42.500          42.750          42.750
G11  23478768.553    23478767.452                    23478763.531       -2065.281       -2065.281                       -1609.310   123381780.041   123381780.043                    96141643.027          40.250          24.000                          24.000
G13  20746522.448    20746521.938                    20746516.842        -606.179        -606.179                        -472.347   109023735.919   109023735.918                    84953569.170          51.250          41.250                          41.500
G14  20514909.147    20514908.967    20514905.189    20514904.874       -1135.097       -1135.097        -884.491        -884.491   107806620.605   107806620.610    84005165.996    84005170.000          49.000          42.750          50.750          42.250
G15  22468887.438    22468887.400    22468883.405    22468882.851       -2357.716       -2357.716       -1837.182       -1837.182   118074815.596   118074815.594    92006372.912    92006343.908          44.250          42.500          40.000          42.500
G20  24168837.780    24168836.217                    24168833.072       -1453.842       -1453.842                       -1132.864   127008106.307   127008106.301                    98967352.374          37.000          16.750                          17.000
G21  24999808.478    24999807.173                    24999803.855       -2215.782       -2215.782                       -1726.584   131374883.469   131374883.464                   102370029.560          35.750          16.250                          16.500
G23  24317436.837    24317437.254    24317433.848    24317433.566       -1897.855       -1897.855       -1478.848       -1478.848   127789001.468   127789001.470    99575830.342    99575837.329          38.000          21.000          37.500          20.750
G27  24992122.946    24992121.154    24992117.125    24992118.441        3468.185        3468.185        2702.481        2702.481   131334524.606   131334524.598   102338593.966   102338596.968          35.250          27.250          34.250          27.750
G28  20873351.278    20873350.334                    20873345.568       -1371.070       -1371.070                       -1068.366   109690243.475   109690243.476                    85472924.136          49.500          41.000                          40.750
G30  20847162.597    20847161.917    20847160.479    20847159.965        1567.809        1567.809        1221.670        1221.670   109552617.056   109552617.057    85365675.646    85365674.640          52.500          44.500          48.750          44.000
R01  23939271.635    23939270.644    23939269.083    23939269.586        4696.424        4696.424        3652.774        3652.774   127969111.627   127969111.624    99531522.204    99531525.202          37.750          37.000          32.500          32.000
R02  20110361.225    20110361.050    20110357.508    20110357.168        1781.109        1781.109        1385.307        1385.307   107312742.583   107312742.583    83465466.623    83465469.622          54.000          53.000          49.500          48.750
R03  21303280.484    21303280.818    21303275.372    21303275.171       -2471.357       -2471.357       -1922.166       -1922.166   114038139.916   114038139.924    88696311.733    88696323.737          50.500          49.750          46.000          45.500
R10  24089489.201    24089487.938                                        4062.645        4062.645                                   128410573.566   128410573.551                                          39.000          37.750
R11  19841442.919    19841443.370    19841437.490    19841437.274        2108.706        2108.706        1640.105        1640.105   106026688.554   106026688.555    82465213.900    82465212.905          54.500          53.750          51.750          51.250
R12  19697602.018    19697602.522    19697598.672    19697598.177       -1927.931       -1927.931       -1499.502       -1499.502   105221099.424   105221099.429    81838629.344    81838622.341          54.250          53.750          50.750          50.250
R20  21647663.556    21647662.347    21647660.021    21647658.930         538.513         538.513         418.843         418.843   115759785.610   115759785.622    90035382.771    90035377.764          38.750          37.500          45.500          45.500
R21  22275893.110    22275893.316    22275887.950    22275887.688       -3521.173       -3521.173       -2738.690       -2738.690   119202820.547   119202820.549    92713297.854    92713294.847          48.250          47.750          44.500          44.000
> 2021 01 03 00 26 30.0000000  0 22
G05  24833210.706    24833210.749    24833207.525    24833207.088        3478.009        3478.009        2710.136        2710.136   130499395.099   130499395.110   101687846.380   101687825.396          37.500          19.500          32.000          20.000
G07  22730990.504    22730990.101    22730985.401    22730985.387        2935.219        2935.219        2287.183        2287.183   119452184.673   119452184.671    93079630.709    93079633.708          46.000          33.250          40.000          33.250
G08  22660912.951    22660912.384    22660911.194    22660910.378        1764.888        1764.888        1375.237        1375.237   119083939.171   119083939.167    92792697.172    92792691.172          44.000          42.750          42.250          43.000
G11  23467024.574    23467023.729                    23467018.542       -2049.213       -2049.213                       -1596.789   123320063.025   123320063.028                    96093551.868          41.500          24.750                          24.750
G13  20743119.410    20743118.877                    20743114.031        -586.040        -586.040                        -456.655   109005853.191   109005853.191                    84939634.585          50.000          41.250                          40.750
G14  20508479.810    20508479.444    20508475.388    20508475.302       -1117.473       -1117.473        -870.758        -870.758   107772832.918   107772832.924    83978837.945    83978841.949          49.750          42.500          50.500          42.250
G15  22455474.441    22455474.247    22455470.413    22455469.924       -2341.361       -2341.361       -1824.437       -1824.437   118004329.333   118004329.332    91951448.549    91951419.557          45.500          41.750          39.750          42.000
G17  25000841.665    25000840.926    25000838.478    25000837.160       -3711.885       -3711.885       -2892.378       -2892.378   131380314.685   131380314.690   102374275.222   102374265.204          39.000          20.000          34.000          17.500
G20  24160589.047    24160587.569                    24160583.831       -1436.123       -1436.123                       -1119.057   126964757.417   126964757.412                    98933574.027          38.000          17.250                          17.500
G21  24987187.109    24987185.985                    24987181.828       -2205.559       -2205.559                       -1718.618   131308561.282   131308561.282                   102318349.950          35.250          15.500                          15.000
G23  24306652.558    24306651.963    24306648.320    24306648.187       -1880.767       -1880.767       -1465.533       -1465.533   127732323.849   127732323.840    99531665.970    99531672.962          38.500          21.500          37.500          21.500
G27  25011947.655    25011946.880    25011945.845    25011945.389        3476.993        3476.993        2709.345        2709.345   131438710.244   131438710.242   102419777.566   102419780.600          34.000          28.000          34.500          28.250
G28  20865567.282    20865566.278                    20865561.541       -1355.896       -1355.896                       -1056.542   109649338.104   109649338.105                    85441049.837          49.500          40.500                          40.250
G30  20856154.681    20856153.647    20856152.269    20856151.674        1582.316        1582.316        1232.973        1232.973   109599868.636   109599868.636    85402495.063    85402494.060          51.250          44.250          48.750          44.500
R01  23965634.067    23965633.225    23965630.683    23965630.378        4697.726        4697.726        3653.787        3653.787   128110028.357   128110028.358    99641124.027    99641127.033          40.250          39.000          32.750          32.500
R02  20120448.293    20120447.970    20120443.715    20120443.474        1806.924        1806.924        1405.385        1405.385   107366566.905   107366566.903    83507329.979    83507332.979          54.250          53.500          48.750          48.500
R03  21289493.852    21289493.962    21289488.761    21289488.145       -2448.798       -2448.798       -1904.620       -1904.620   113964338.379   113964338.385    88638910.557    88638922.557          50.500          49.500          46.250          46.000
R10  24112355.306    24112354.690                                        4063.323        4063.323                                   128532467.090   128532467.086                                          39.500          38.500
R11  19853325.298    19853325.545    19853319.097    19853319.288        2124.153        2124.153        1652.119        1652.119   106090182.941   106090182.939    82514598.438    82514597.440          54.000          53.500          51.250          51.000
R12  19686822.105    19686822.548    19686818.109    19686817.802       -1911.172       -1911.172       -1486.467       -1486.467   105163513.505   105163513.507    81793840.312    81793833.310          55.000          53.500          50.750          50.250
R20  21650764.790    21650764.752    21650761.956    21650761.373         567.251         567.251         441.195         441.195   115776374.319   115776374.310    90048285.091    90048280.085          39.000          37.250          45.750          45.750
R21  22256199.128    22256199.329    22256194.635    22256194.288       -3504.482       -3504.482       -2725.708       -2725.708   119097435.832   119097435.836    92631331.986    92631328.981          47.750          47.250          44.750          44.000
